{
  "type": "FeatureCollection",
  "features": [
    {
      "type": "Feature",
      "id": "585",
      "geometry": {
        "type": "Point",
        "coordinates": [
          -21.787616,
          -1.32581
        ]
      },
      "properties": {
        "label": "Leuprolide",
        "level": 3,
        "pos": "-149794.42700000003,86248.738",
        "src_id": "7",
        "weight": "0.0006584414647170115"
      }
    },
    {
      "type": "Feature",
      "id": "1329",
      "geometry": {
        "type": "Point",
        "coordinates": [
          -24.816972,
          -3.8763
        ]
      },
      "properties": {
        "label": "Endometriosis",
        "level": 3,
        "pos": "-163279.04799999998,74524.704",
        "src_id": "175911",
        "weight": "0.0002599773433505542"
      }
    },
    {
      "type": "Feature",
      "id": "255",
      "geometry": {
        "type": "Point",
        "coordinates": [
          -17.816239,
          -1.553459
        ]
      },
      "properties": {
        "label": "Hysterectomy",
        "level": 2,
        "pos": "-132116.58299999998,85203.11700000001",
        "src_id": "178681",
        "weight": "0.0011353409318438"
      }
    },
    {
      "type": "Feature",
      "id": "449",
      "geometry": {
        "type": "Point",
        "coordinates": [
          -21.866857,
          3.475031
        ]
      },
      "properties": {
        "label": "Conjugated estrogens",
        "level": 2,
        "pos": "-150147.162,108302.91200000001",
        "src_id": "277",
        "weight": "0.001068117755430358"
      }
    },
    {
      "type": "Feature",
      "id": "212",
      "geometry": {
        "type": "Point",
        "coordinates": [
          -11.563167,
          -4.549611
        ]
      },
      "properties": {
        "label": "Blood oestrogen",
        "level": 1,
        "pos": "-104282.189,71424.692",
        "src_id": "172274",
        "weight": "0.0021712169292174874"
      }
    },
    {
      "type": "Feature",
      "id": "940",
      "geometry": {
        "type": "Point",
        "coordinates": [
          -23.644892,
          0.604
        ]
      },
      "properties": {
        "label": "Uterine cancer",
        "level": 4,
        "pos": "-158061.753,95110.365",
        "src_id": "188072",
        "weight": "0.00012437147882129473"
      }
    },
    {
      "type": "Feature",
      "id": "938",
      "geometry": {
        "type": "Point",
        "coordinates": [
          -24.057298,
          -1.166724
        ]
      },
      "properties": {
        "label": "Uterine leiomyoma",
        "level": 4,
        "pos": "-159897.50100000002,86979.383",
        "src_id": "188107",
        "weight": "0.00012437147882129473"
      }
    },
    {
      "type": "Feature",
      "id": "644",
      "geometry": {
        "type": "Point",
        "coordinates": [
          -25.870414,
          0.690992
        ]
      },
      "properties": {
        "label": "Desipramine",
        "level": 3,
        "pos": "-167968.253,95509.827",
        "src_id": "1135",
        "weight": "0.0006982761272047948"
      }
    },
    {
      "type": "Feature",
      "id": "345",
      "geometry": {
        "type": "Point",
        "coordinates": [
          -24.935663,
          0.099994
        ]
      },
      "properties": {
        "label": "Anxiety disorder",
        "level": 3,
        "pos": "-163807.381,92796.092",
        "src_id": "170662",
        "weight": "0.0004677927249547078"
      }
    },
    {
      "type": "Feature",
      "id": "176",
      "geometry": {
        "type": "Point",
        "coordinates": [
          -24.711103,
          3.671555
        ]
      },
      "properties": {
        "label": "Major depression",
        "level": 3,
        "pos": "-162807.79,109207.04000000001",
        "src_id": "180375",
        "weight": "0.0008838239782891799"
      }
    },
    {
      "type": "Feature",
      "id": "1152",
      "geometry": {
        "type": "Point",
        "coordinates": [
          -26.911805,
          -0.805147
        ]
      },
      "properties": {
        "label": "Muscle atrophy",
        "level": 3,
        "pos": "-172603.812,88639.869",
        "src_id": "181237",
        "weight": "0.0003359920783409681"
      }
    },
    {
      "type": "Feature",
      "id": "198",
      "geometry": {
        "type": "Point",
        "coordinates": [
          -5.952438,
          -6.008941
        ]
      },
      "properties": {
        "label": "Contraception",
        "level": 1,
        "pos": "-79307.073,64695.211",
        "src_id": "174350",
        "weight": "0.0018304575581175751"
      }
    },
    {
      "type": "Feature",
      "id": "357",
      "geometry": {
        "type": "Point",
        "coordinates": [
          -15.572495,
          -3.245584
        ]
      },
      "properties": {
        "label": "Progesterone",
        "level": 2,
        "pos": "-122128.967,77426.349",
        "src_id": "385",
        "weight": "0.0013202501695271868"
      }
    },
    {
      "type": "Feature",
      "id": "447",
      "geometry": {
        "type": "Point",
        "coordinates": [
          -13.714547,
          -5.135284
        ]
      },
      "properties": {
        "label": "Testosterone",
        "level": 3,
        "pos": "-113858.663,68725.826",
        "src_id": "611",
        "weight": "0.0008531687468393902"
      }
    },
    {
      "type": "Feature",
      "id": "808",
      "geometry": {
        "type": "Point",
        "coordinates": [
          -18.585333,
          -0.545207
        ]
      },
      "properties": {
        "label": "Hormone therapy",
        "level": 3,
        "pos": "-135540.064,89833.512",
        "src_id": "178307",
        "weight": "0.0002088627179047649"
      }
    },
    {
      "type": "Feature",
      "id": "537",
      "geometry": {
        "type": "Point",
        "coordinates": [
          -12.718527,
          -5.662376
        ]
      },
      "properties": {
        "label": "Progesterone",
        "level": 3,
        "pos": "-109425.058,66294.809",
        "src_id": "184202",
        "weight": "0.0006757876192637437"
      }
    },
    {
      "type": "Feature",
      "id": "1680",
      "geometry": {
        "type": "Point",
        "coordinates": [
          -15.914207,
          -7.036761
        ]
      },
      "properties": {
        "label": "Estradiol",
        "level": 4,
        "pos": "-123650.044,59944.99",
        "src_id": "769",
        "weight": "0.00013775190284675933"
      }
    },
    {
      "type": "Feature",
      "id": "1251",
      "geometry": {
        "type": "Point",
        "coordinates": [
          -15.627739,
          -0.547881
        ]
      },
      "properties": {
        "label": "Hormone level abnormal",
        "level": 4,
        "pos": "-122374.88,89821.228",
        "src_id": "178304",
        "weight": "0.00012148060608347584"
      }
    },
    {
      "type": "Feature",
      "id": "1250",
      "geometry": {
        "type": "Point",
        "coordinates": [
          -16.68916,
          -1.050875
        ]
      },
      "properties": {
        "label": "Hormone replacement therapy",
        "level": 4,
        "pos": "-127099.603,87511.41900000001",
        "src_id": "178305",
        "weight": "0.000129520088408597"
      }
    },
    {
      "type": "Feature",
      "id": "525",
      "geometry": {
        "type": "Point",
        "coordinates": [
          -3.852441,
          -7.785631
        ]
      },
      "properties": {
        "label": "Levonorgestrel",
        "level": 2,
        "pos": "-69959.318,56477.435999999994",
        "src_id": "357",
        "weight": "0.0011290407653778945"
      }
    },
    {
      "type": "Feature",
      "id": "244",
      "geometry": {
        "type": "Point",
        "coordinates": [
          -5.736295,
          -6.692564
        ]
      },
      "properties": {
        "label": "Drug interaction",
        "level": 3,
        "pos": "-78344.948,61536.839",
        "src_id": "175376",
        "weight": "0.0005621002657141702"
      }
    },
    {
      "type": "Feature",
      "id": "442",
      "geometry": {
        "type": "Point",
        "coordinates": [
          -7.041741,
          -10.07448
        ]
      },
      "properties": {
        "label": "Ethinyl Estradiol",
        "level": 1,
        "pos": "-84155.89799999999,45838.115000000005",
        "src_id": "963",
        "weight": "0.0021814291257429477"
      }
    },
    {
      "type": "Feature",
      "id": "552",
      "geometry": {
        "type": "Point",
        "coordinates": [
          -0.249101,
          -9.914557
        ]
      },
      "properties": {
        "label": "Intra-uterine contraceptive device",
        "level": 3,
        "pos": "-53919.718,46583.745",
        "src_id": "179325",
        "weight": "0.0008788658331042069"
      }
    },
    {
      "type": "Feature",
      "id": "890",
      "geometry": {
        "type": "Point",
        "coordinates": [
          -6.599151,
          -10.595243
        ]
      },
      "properties": {
        "label": "Etonogestrel",
        "level": 3,
        "pos": "-82185.78499999999,43407.511999999995",
        "src_id": "285",
        "weight": "0.0009237021138867754"
      }
    },
    {
      "type": "Feature",
      "id": "1685",
      "geometry": {
        "type": "Point",
        "coordinates": [
          -13.489607,
          -9.832659
        ]
      },
      "properties": {
        "label": "Norethisterone",
        "level": 4,
        "pos": "-112857.375,46965.452999999994",
        "src_id": "703",
        "weight": "0.00015578880808298537"
      }
    },
    {
      "type": "Feature",
      "id": "1663",
      "geometry": {
        "type": "Point",
        "coordinates": [
          -3.396602,
          -11.519814
        ]
      },
      "properties": {
        "label": "Norgestimate",
        "level": 3,
        "pos": "-67930.23599999999,39081.843",
        "src_id": "943",
        "weight": "0.00022904267718234513"
      }
    },
    {
      "type": "Feature",
      "id": "1631",
      "geometry": {
        "type": "Point",
        "coordinates": [
          -1.448897,
          -11.788577
        ]
      },
      "properties": {
        "label": "Drospirenone",
        "level": 3,
        "pos": "-59260.389,37821.788",
        "src_id": "1340",
        "weight": "0.00020551182983081476"
      }
    },
    {
      "type": "Feature",
      "id": "1603",
      "geometry": {
        "type": "Point",
        "coordinates": [
          -4.471047,
          -10.930078
        ]
      },
      "properties": {
        "label": "Norelgestromin",
        "level": 3,
        "pos": "-72712.925,41842.53",
        "src_id": "5773",
        "weight": "0.00020551182983081476"
      }
    },
    {
      "type": "Feature",
      "id": "707",
      "geometry": {
        "type": "Point",
        "coordinates": [
          5.29232,
          -13.404441
        ]
      },
      "properties": {
        "label": "Blood copper",
        "level": 3,
        "pos": "-29253.108999999997,30219.018",
        "src_id": "172045",
        "weight": "0.00030810695721414345"
      }
    },
    {
      "type": "Feature",
      "id": "1720",
      "geometry": {
        "type": "Point",
        "coordinates": [
          -12.414223,
          -8.307819
        ]
      },
      "properties": {
        "label": "Desogestrel",
        "level": 4,
        "pos": "-108070.508,54055.882",
        "src_id": "295",
        "weight": "0.00010908686070036155"
      }
    },
    {
      "type": "Feature",
      "id": "603",
      "geometry": {
        "type": "Point",
        "coordinates": [
          -10.774503,
          -3.431949
        ]
      },
      "properties": {
        "label": "Oral contraception",
        "level": 3,
        "pos": "-100771.603,76569.174",
        "src_id": "182298",
        "weight": "0.0005019140859270386"
      }
    },
    {
      "type": "Feature",
      "id": "792",
      "geometry": {
        "type": "Point",
        "coordinates": [
          -11.925231,
          -2.916951
        ]
      },
      "properties": {
        "label": "Menorrhagia",
        "level": 4,
        "pos": "-105893.849,78937.506",
        "src_id": "180772",
        "weight": "0.0001269442468637593"
      }
    },
    {
      "type": "Feature",
      "id": "1390",
      "geometry": {
        "type": "Point",
        "coordinates": [
          -8.852498,
          -5.385965
        ]
      },
      "properties": {
        "label": "Condom",
        "level": 4,
        "pos": "-92216.153,67569.92",
        "src_id": "174062",
        "weight": "0.000121199782896699"
      }
    },
    {
      "type": "Feature",
      "id": "1162",
      "geometry": {
        "type": "Point",
        "coordinates": [
          -11.78678,
          -6.37533
        ]
      },
      "properties": {
        "label": "Metrorrhagia",
        "level": 4,
        "pos": "-105277.562,63002.999",
        "src_id": "180938",
        "weight": "0.00010488678614569281"
      }
    },
    {
      "type": "Feature",
      "id": "1018",
      "geometry": {
        "type": "Point",
        "coordinates": [
          -9.240453,
          -6.413657
        ]
      },
      "properties": {
        "label": "Sexually active",
        "level": 4,
        "pos": "-93943.05500000001,62825.914",
        "src_id": "185816",
        "weight": "0.00010885481238242405"
      }
    },
    {
      "type": "Feature",
      "id": "208",
      "geometry": {
        "type": "Point",
        "coordinates": [
          -20.74571,
          -3.367474
        ]
      },
      "properties": {
        "label": "Hot flush",
        "level": 2,
        "pos": "-145156.576,76865.744",
        "src_id": "178313",
        "weight": "0.0010001309388685995"
      }
    },
    {
      "type": "Feature",
      "id": "207",
      "geometry": {
        "type": "Point",
        "coordinates": [
          -18.01161,
          -3.914059
        ]
      },
      "properties": {
        "label": "Menopause",
        "level": 2,
        "pos": "-132986.242,74350.91799999999",
        "src_id": "180770",
        "weight": "0.0010851334198662646"
      }
    },
    {
      "type": "Feature",
      "id": "1128",
      "geometry": {
        "type": "Point",
        "coordinates": [
          -25.729629,
          -5.349192
        ]
      },
      "properties": {
        "label": "Night sweats",
        "level": 4,
        "pos": "-167341.573,67739.50600000001",
        "src_id": "181827",
        "weight": "0.00017577403850366118"
      }
    },
    {
      "type": "Feature",
      "id": "287",
      "geometry": {
        "type": "Point",
        "coordinates": [
          -21.838994,
          -4.41793
        ]
      },
      "properties": {
        "label": "Puberty",
        "level": 3,
        "pos": "-150023.134,72031.17899999999",
        "src_id": "184462",
        "weight": "0.0005654851745662174"
      }
    },
    {
      "type": "Feature",
      "id": "730",
      "geometry": {
        "type": "Point",
        "coordinates": [
          -20.203908,
          -2.802414
        ]
      },
      "properties": {
        "label": "Medroxyprogesterone acetate",
        "level": 3,
        "pos": "-142744.852,79464.076",
        "src_id": "590",
        "weight": "0.0003232570747656465"
      }
    },
    {
      "type": "Feature",
      "id": "912",
      "geometry": {
        "type": "Point",
        "coordinates": [
          -20.91517,
          -1.878071
        ]
      },
      "properties": {
        "label": "Chasteberry",
        "level": 4,
        "pos": "-145910.899,83711.936",
        "src_id": "239745",
        "weight": "0.00010532209084926177"
      }
    },
    {
      "type": "Feature",
      "id": "516",
      "geometry": {
        "type": "Point",
        "coordinates": [
          -18.92129,
          -4.429393
        ]
      },
      "properties": {
        "label": "Blood prolactin",
        "level": 3,
        "pos": "-137035.509,71978.386",
        "src_id": "172344",
        "weight": "0.00046006765531527604"
      }
    },
    {
      "type": "Feature",
      "id": "793",
      "geometry": {
        "type": "Point",
        "coordinates": [
          -15.811251,
          -6.134492
        ]
      },
      "properties": {
        "label": "Loss of libido",
        "level": 3,
        "pos": "-123191.747,64115.47",
        "src_id": "180131",
        "weight": "0.0002709272095231822"
      }
    },
    {
      "type": "Feature",
      "id": "1506",
      "geometry": {
        "type": "Point",
        "coordinates": [
          -17.002591,
          -8.963548
        ]
      },
      "properties": {
        "label": "Anovulatory cycle",
        "level": 3,
        "pos": "-128494.78400000001,51010.451",
        "src_id": "170456",
        "weight": "0.00029677689892802523"
      }
    },
    {
      "type": "Feature",
      "id": "194",
      "geometry": {
        "type": "Point",
        "coordinates": [
          -11.620249,
          -20.756256
        ]
      },
      "properties": {
        "label": "Injection",
        "level": 3,
        "pos": "-104536.27799999999,-5124.463000000001",
        "src_id": "179084",
        "weight": "0.0008277662262499366"
      }
    },
    {
      "type": "Feature",
      "id": "190",
      "geometry": {
        "type": "Point",
        "coordinates": [
          -4.9868,
          -24.606418
        ]
      },
      "properties": {
        "label": "Stillbirth",
        "level": 1,
        "pos": "-75008.705,-24289.77",
        "src_id": "186413",
        "weight": "0.0034063847659718486"
      }
    },
    {
      "type": "Feature",
      "id": "581",
      "geometry": {
        "type": "Point",
        "coordinates": [
          -0.933905,
          -26.044713
        ]
      },
      "properties": {
        "label": "Magnesium sulfate",
        "level": 3,
        "pos": "-56967.998,-31596.405000000002",
        "src_id": "640",
        "weight": "0.0004426070892477223"
      }
    },
    {
      "type": "Feature",
      "id": "497",
      "geometry": {
        "type": "Point",
        "coordinates": [
          -7.243304,
          -24.260297
        ]
      },
      "properties": {
        "label": "Neural tube defect",
        "level": 2,
        "pos": "-85053.12000000001,-22544.163",
        "src_id": "181701",
        "weight": "0.0011576820181728527"
      }
    },
    {
      "type": "Feature",
      "id": "346",
      "geometry": {
        "type": "Point",
        "coordinates": [
          -12.480842,
          -23.444856
        ]
      },
      "properties": {
        "label": "Analgesic therapy",
        "level": 2,
        "pos": "-108367.045,-18450.224",
        "src_id": "170274",
        "weight": "0.0010486869847266909"
      }
    },
    {
      "type": "Feature",
      "id": "288",
      "geometry": {
        "type": "Point",
        "coordinates": [
          0.297439,
          -27.053165
        ]
      },
      "properties": {
        "label": "Polycystic ovaries",
        "level": 2,
        "pos": "-51486.896,-36772.808",
        "src_id": "183761",
        "weight": "0.0013361734439398534"
      }
    },
    {
      "type": "Feature",
      "id": "518",
      "geometry": {
        "type": "Point",
        "coordinates": [
          -0.980442,
          -26.595032
        ]
      },
      "properties": {
        "label": "Abortion spontaneous",
        "level": 3,
        "pos": "-57175.151,-34415.564000000006",
        "src_id": "169564",
        "weight": "0.0006772161106557812"
      }
    },
    {
      "type": "Feature",
      "id": "337",
      "geometry": {
        "type": "Point",
        "coordinates": [
          -13.245715,
          -22.958677
        ]
      },
      "properties": {
        "label": "Low birth weight baby",
        "level": 1,
        "pos": "-111771.73700000001,-16021.412000000002",
        "src_id": "180135",
        "weight": "0.002508593207715703"
      }
    },
    {
      "type": "Feature",
      "id": "568",
      "geometry": {
        "type": "Point",
        "coordinates": [
          -0.809497,
          -25.402626
        ]
      },
      "properties": {
        "label": "Barbiturates",
        "level": 2,
        "pos": "-56414.22,-28323.818",
        "src_id": "171262",
        "weight": "0.0010074895812820898"
      }
    },
    {
      "type": "Feature",
      "id": "277",
      "geometry": {
        "type": "Point",
        "coordinates": [
          -19.481731,
          -24.607575
        ]
      },
      "properties": {
        "label": "Caesarean section",
        "level": 2,
        "pos": "-139530.209,-24295.613",
        "src_id": "172875",
        "weight": "0.0010275045471049699"
      }
    },
    {
      "type": "Feature",
      "id": "487",
      "geometry": {
        "type": "Point",
        "coordinates": [
          -17.234011,
          -23.627931
        ]
      },
      "properties": {
        "label": "Tongue biting",
        "level": 3,
        "pos": "-129524.89600000001,-19367.117000000002",
        "src_id": "187108",
        "weight": "0.00036746028514383726"
      }
    },
    {
      "type": "Feature",
      "id": "254",
      "geometry": {
        "type": "Point",
        "coordinates": [
          7.257674,
          -29.407872
        ]
      },
      "properties": {
        "label": "Infertility",
        "level": 2,
        "pos": "-20504.697,-49045.89",
        "src_id": "178985",
        "weight": "0.0014035514738785077"
      }
    },
    {
      "type": "Feature",
      "id": "1168",
      "geometry": {
        "type": "Point",
        "coordinates": [
          4.983506,
          -28.908737
        ]
      },
      "properties": {
        "label": "Menstruation irregular",
        "level": 4,
        "pos": "-30627.735,-46421.441999999995",
        "src_id": "180777",
        "weight": "0.00014257867261577246"
      }
    },
    {
      "type": "Feature",
      "id": "947",
      "geometry": {
        "type": "Point",
        "coordinates": [
          6.123207,
          -29.876775
        ]
      },
      "properties": {
        "label": "Ultrasound scan",
        "level": 4,
        "pos": "-25554.567,-51523.142",
        "src_id": "187624",
        "weight": "0.00014949116048392896"
      }
    },
    {
      "type": "Feature",
      "id": "1252",
      "geometry": {
        "type": "Point",
        "coordinates": [
          4.077823,
          -29.441247
        ]
      },
      "properties": {
        "label": "Homosexuality",
        "level": 4,
        "pos": "-34659.22,-49221.834",
        "src_id": "178300",
        "weight": "0.00013526459609122153"
      }
    },
    {
      "type": "Feature",
      "id": "313",
      "geometry": {
        "type": "Point",
        "coordinates": [
          -20.624496,
          -22.286033
        ]
      },
      "properties": {
        "label": "Vitamin K",
        "level": 2,
        "pos": "-144617.018,-12675.394",
        "src_id": "188659",
        "weight": "0.001421921043236346"
      }
    },
    {
      "type": "Feature",
      "id": "391",
      "geometry": {
        "type": "Point",
        "coordinates": [
          -18.484765,
          -21.175516
        ]
      },
      "properties": {
        "label": "Partner stress",
        "level": 3,
        "pos": "-135092.39500000002,-7186.062",
        "src_id": "182929",
        "weight": "0.0009766919876047092"
      }
    },
    {
      "type": "Feature",
      "id": "359",
      "geometry": {
        "type": "Point",
        "coordinates": [
          -20.404379,
          -22.758039
        ]
      },
      "properties": {
        "label": "Vaginal haemorrhage",
        "level": 1,
        "pos": "-143637.215,-15021.627",
        "src_id": "188214",
        "weight": "0.001968775307078424"
      }
    },
    {
      "type": "Feature",
      "id": "686",
      "geometry": {
        "type": "Point",
        "coordinates": [
          -20.43511,
          -21.66275
        ]
      },
      "properties": {
        "label": "Failure to thrive",
        "level": 3,
        "pos": "-143773.999,-9589.26",
        "src_id": "176539",
        "weight": "0.0005367226195986223"
      }
    },
    {
      "type": "Feature",
      "id": "668",
      "geometry": {
        "type": "Point",
        "coordinates": [
          -18.776348,
          -22.165817
        ]
      },
      "properties": {
        "label": "Prenatal care",
        "level": 3,
        "pos": "-136390.33299999998,-12079.088",
        "src_id": "184050",
        "weight": "0.0005651335333149384"
      }
    },
    {
      "type": "Feature",
      "id": "767",
      "geometry": {
        "type": "Point",
        "coordinates": [
          -19.449026,
          -23.231775
        ]
      },
      "properties": {
        "label": "Premature baby",
        "level": 3,
        "pos": "-139384.628,-17384.644",
        "src_id": "184036",
        "weight": "0.00042518220758303135"
      }
    },
    {
      "type": "Feature",
      "id": "1740",
      "geometry": {
        "type": "Point",
        "coordinates": [
          -54.714667,
          -51.865888
        ]
      },
      "properties": {
        "label": "Somatotropin",
        "level": 4,
        "pos": "-296363.102,-187153.19",
        "src_id": "51",
        "weight": "9.837796128699548e-05"
      }
    },
    {
      "type": "Feature",
      "id": "2",
      "geometry": {
        "type": "Point",
        "coordinates": [
          -46.472194,
          -48.879016
        ]
      },
      "properties": {
        "label": "Epilepsy",
        "level": 1,
        "pos": "-259673.25699999998,-165640.31399999998",
        "src_id": "176107",
        "weight": "0.0145529562651861"
      }
    },
    {
      "type": "Feature",
      "id": "1",
      "geometry": {
        "type": "Point",
        "coordinates": [
          -18.249263,
          -50.822346
        ]
      },
      "properties": {
        "label": "Convulsion",
        "level": 1,
        "pos": "-134044.11,-179481.803",
        "src_id": "174366",
        "weight": "0.021183283532887193"
      }
    },
    {
      "type": "Feature",
      "id": "1736",
      "geometry": {
        "type": "Point",
        "coordinates": [
          -51.853505,
          -50.859641
        ]
      },
      "properties": {
        "label": "Serine",
        "level": 4,
        "pos": "-283627.171,-179752.98799999998",
        "src_id": "125",
        "weight": "9.871294472007634e-05"
      }
    },
    {
      "type": "Feature",
      "id": "1705",
      "geometry": {
        "type": "Point",
        "coordinates": [
          -52.455009,
          -52.20608
        ]
      },
      "properties": {
        "label": "Prochlorperazine",
        "level": 4,
        "pos": "-286304.653,-189692.428",
        "src_id": "422",
        "weight": "9.837796128699548e-05"
      }
    },
    {
      "type": "Feature",
      "id": "1696",
      "geometry": {
        "type": "Point",
        "coordinates": [
          -52.79033,
          -50.278594
        ]
      },
      "properties": {
        "label": "Cephalexin",
        "level": 4,
        "pos": "-287797.27,-175552.364",
        "src_id": "554",
        "weight": "9.837796128699548e-05"
      }
    },
    {
      "type": "Feature",
      "id": "1689",
      "geometry": {
        "type": "Point",
        "coordinates": [
          -50.486179,
          -50.857256
        ]
      },
      "properties": {
        "label": "Tamoxifen",
        "level": 4,
        "pos": "-277540.766,-179735.639",
        "src_id": "661",
        "weight": "9.837796128699548e-05"
      }
    },
    {
      "type": "Feature",
      "id": "1651",
      "geometry": {
        "type": "Point",
        "coordinates": [
          -52.497549,
          -52.51891
        ]
      },
      "properties": {
        "label": "Atorvastatin",
        "level": 4,
        "pos": "-286494.006,-192044.65",
        "src_id": "1060",
        "weight": "9.837796128699548e-05"
      }
    },
    {
      "type": "Feature",
      "id": "1643",
      "geometry": {
        "type": "Point",
        "coordinates": [
          -48.836916,
          -51.844712
        ]
      },
      "properties": {
        "label": "Zopiclone",
        "level": 4,
        "pos": "-270199.375,-186995.755",
        "src_id": "1182",
        "weight": "9.871294472007634e-05"
      }
    },
    {
      "type": "Feature",
      "id": "1632",
      "geometry": {
        "type": "Point",
        "coordinates": [
          -51.3052,
          -51.201005
        ]
      },
      "properties": {
        "label": "Ginkgo biloba",
        "level": 4,
        "pos": "-281186.487,-182245.3",
        "src_id": "1332",
        "weight": "9.837796128699548e-05"
      }
    },
    {
      "type": "Feature",
      "id": "1624",
      "geometry": {
        "type": "Point",
        "coordinates": [
          -51.993455,
          -52.901195
        ]
      },
      "properties": {
        "label": "Amyl Nitrite",
        "level": 4,
        "pos": "-284250.134,-194941.967",
        "src_id": "1544",
        "weight": "9.837796128699548e-05"
      }
    },
    {
      "type": "Feature",
      "id": "1623",
      "geometry": {
        "type": "Point",
        "coordinates": [
          -49.809676,
          -52.20572
        ]
      },
      "properties": {
        "label": "Isopropyl Alcohol",
        "level": 4,
        "pos": "-274529.443,-189689.727",
        "src_id": "2207",
        "weight": "9.837796128699548e-05"
      }
    },
    {
      "type": "Feature",
      "id": "1621",
      "geometry": {
        "type": "Point",
        "coordinates": [
          -54.773962,
          -52.239946
        ]
      },
      "properties": {
        "label": "Pregnenolone",
        "level": 4,
        "pos": "-296627.044,-189946.27",
        "src_id": "2634",
        "weight": "9.871294472007634e-05"
      }
    },
    {
      "type": "Feature",
      "id": "1617",
      "geometry": {
        "type": "Point",
        "coordinates": [
          -50.705878,
          -51.853926
        ]
      },
      "properties": {
        "label": "Formaldehyde",
        "level": 4,
        "pos": "-278518.72,-187064.247",
        "src_id": "3618",
        "weight": "9.871294472007634e-05"
      }
    },
    {
      "type": "Feature",
      "id": "1592",
      "geometry": {
        "type": "Point",
        "coordinates": [
          -52.873559,
          -51.844896
        ]
      },
      "properties": {
        "label": "Sulfur",
        "level": 4,
        "pos": "-288167.751,-186997.125",
        "src_id": "8292",
        "weight": "9.837796128699548e-05"
      }
    },
    {
      "type": "Feature",
      "id": "1581",
      "geometry": {
        "type": "Point",
        "coordinates": [
          -49.978109,
          -53.014475
        ]
      },
      "properties": {
        "label": "Mustard seed",
        "level": 4,
        "pos": "-275279.19100000005,-195805.42299999998",
        "src_id": "8615",
        "weight": "9.90479281531572e-05"
      }
    },
    {
      "type": "Feature",
      "id": "1570",
      "geometry": {
        "type": "Point",
        "coordinates": [
          -54.592555,
          -51.186259
        ]
      },
      "properties": {
        "label": "Raspberry",
        "level": 4,
        "pos": "-295819.543,-182137.26299999998",
        "src_id": "8686",
        "weight": "9.837796128699548e-05"
      }
    },
    {
      "type": "Feature",
      "id": "1569",
      "geometry": {
        "type": "Point",
        "coordinates": [
          -51.975553,
          -51.820445
        ]
      },
      "properties": {
        "label": "Beet",
        "level": 4,
        "pos": "-284170.44,-186815.44700000001",
        "src_id": "8690",
        "weight": "9.90479281531572e-05"
      }
    },
    {
      "type": "Feature",
      "id": "1565",
      "geometry": {
        "type": "Point",
        "coordinates": [
          -51.438237,
          -50.098101
        ]
      },
      "properties": {
        "label": "Hops",
        "level": 4,
        "pos": "-281778.677,-174257.946",
        "src_id": "8731",
        "weight": "9.90479281531572e-05"
      }
    },
    {
      "type": "Feature",
      "id": "1561",
      "geometry": {
        "type": "Point",
        "coordinates": [
          -56.369544,
          -50.841819
        ]
      },
      "properties": {
        "label": "Red currant",
        "level": 4,
        "pos": "-303729.484,-179623.373",
        "src_id": "8879",
        "weight": "9.837796128699548e-05"
      }
    },
    {
      "type": "Feature",
      "id": "209",
      "geometry": {
        "type": "Point",
        "coordinates": [
          -57.520701,
          -49.161545
        ]
      },
      "properties": {
        "label": "Disability",
        "level": 2,
        "pos": "-308853.644,-167618.50100000002",
        "src_id": "175257",
        "weight": "0.0014952621091935154"
      }
    },
    {
      "type": "Feature",
      "id": "1512",
      "geometry": {
        "type": "Point",
        "coordinates": [
          -53.087341,
          -50.878284
        ]
      },
      "properties": {
        "label": "Androgens",
        "level": 4,
        "pos": "-289119.359,-179888.631",
        "src_id": "170311",
        "weight": "9.871294472007634e-05"
      }
    },
    {
      "type": "Feature",
      "id": "1511",
      "geometry": {
        "type": "Point",
        "coordinates": [
          -49.80977,
          -51.528786
        ]
      },
      "properties": {
        "label": "Angina pectoris",
        "level": 4,
        "pos": "-274529.86299999995,-184655.883",
        "src_id": "170329",
        "weight": "9.837796128699548e-05"
      }
    },
    {
      "type": "Feature",
      "id": "1502",
      "geometry": {
        "type": "Point",
        "coordinates": [
          -53.871354,
          -51.519928
        ]
      },
      "properties": {
        "label": "Antisocial behaviour",
        "level": 4,
        "pos": "-292609.24799999996,-184590.507",
        "src_id": "170646",
        "weight": "9.837796128699548e-05"
      }
    },
    {
      "type": "Feature",
      "id": "1485",
      "geometry": {
        "type": "Point",
        "coordinates": [
          -50.150195,
          -50.530293
        ]
      },
      "properties": {
        "label": "Autoimmune thyroiditis",
        "level": 4,
        "pos": "-276045.204,-177365.63799999998",
        "src_id": "171148",
        "weight": "9.837796128699548e-05"
      }
    },
    {
      "type": "Feature",
      "id": "1480",
      "geometry": {
        "type": "Point",
        "coordinates": [
          -47.589907,
          -50.452338
        ]
      },
      "properties": {
        "label": "Azotaemia",
        "level": 4,
        "pos": "-264648.547,-176803.011",
        "src_id": "171178",
        "weight": "9.837796128699548e-05"
      }
    },
    {
      "type": "Feature",
      "id": "1464",
      "geometry": {
        "type": "Point",
        "coordinates": [
          -48.420311,
          -52.706474
        ]
      },
      "properties": {
        "label": "Bladder cancer",
        "level": 4,
        "pos": "-268344.93600000005,-193463.02399999998",
        "src_id": "171782",
        "weight": "9.837796128699548e-05"
      }
    },
    {
      "type": "Feature",
      "id": "1457",
      "geometry": {
        "type": "Point",
        "coordinates": [
          -47.310028,
          -51.481573
        ]
      },
      "properties": {
        "label": "Blood disorder",
        "level": 4,
        "pos": "-263402.72,-184307.601",
        "src_id": "172101",
        "weight": "9.837796128699548e-05"
      }
    },
    {
      "type": "Feature",
      "id": "1454",
      "geometry": {
        "type": "Point",
        "coordinates": [
          -46.887272,
          -52.157952
        ]
      },
      "properties": {
        "label": "Blood lead normal",
        "level": 4,
        "pos": "-261520.90199999997,-189332.02399999998",
        "src_id": "172252",
        "weight": "9.938291158623806e-05"
      }
    },
    {
      "type": "Feature",
      "id": "1431",
      "geometry": {
        "type": "Point",
        "coordinates": [
          -47.87815,
          -51.165059
        ]
      },
      "properties": {
        "label": "Bundle branch block left",
        "level": 4,
        "pos": "-265931.61,-181981.987",
        "src_id": "172807",
        "weight": "9.837796128699548e-05"
      }
    },
    {
      "type": "Feature",
      "id": "1427",
      "geometry": {
        "type": "Point",
        "coordinates": [
          -50.374933,
          -52.511757
        ]
      },
      "properties": {
        "label": "Calcinosis",
        "level": 4,
        "pos": "-277045.578,-191990.68399999998",
        "src_id": "172883",
        "weight": "9.837796128699548e-05"
      }
    },
    {
      "type": "Feature",
      "id": "1415",
      "geometry": {
        "type": "Point",
        "coordinates": [
          -56.960237,
          -51.468149
        ]
      },
      "properties": {
        "label": "Chemical poisoning",
        "level": 4,
        "pos": "-306358.843,-184208.64299999998",
        "src_id": "173507",
        "weight": "9.837796128699548e-05"
      }
    },
    {
      "type": "Feature",
      "id": "1408",
      "geometry": {
        "type": "Point",
        "coordinates": [
          -55.945775,
          -50.503182
        ]
      },
      "properties": {
        "label": "Chronic paroxysmal hemicrania",
        "level": 4,
        "pos": "-301843.145,-177169.856",
        "src_id": "173727",
        "weight": "9.837796128699548e-05"
      }
    },
    {
      "type": "Feature",
      "id": "1407",
      "geometry": {
        "type": "Point",
        "coordinates": [
          -49.758812,
          -50.181008
        ]
      },
      "properties": {
        "label": "Chronic sinusitis",
        "level": 4,
        "pos": "-274303.03400000004,-174851.908",
        "src_id": "173733",
        "weight": "9.837796128699548e-05"
      }
    },
    {
      "type": "Feature",
      "id": "1405",
      "geometry": {
        "type": "Point",
        "coordinates": [
          -53.862507,
          -46.713763
        ]
      },
      "properties": {
        "label": "Circumstantiality",
        "level": 4,
        "pos": "-292569.874,-150837.34999999998",
        "src_id": "173763",
        "weight": "9.837796128699548e-05"
      }
    },
    {
      "type": "Feature",
      "id": "1401",
      "geometry": {
        "type": "Point",
        "coordinates": [
          -56.113748,
          -45.655283
        ]
      },
      "properties": {
        "label": "Cluttering",
        "level": 4,
        "pos": "-302590.85099999997,-143817.07700000002",
        "src_id": "173815",
        "weight": "9.837796128699548e-05"
      }
    },
    {
      "type": "Feature",
      "id": "1392",
      "geometry": {
        "type": "Point",
        "coordinates": [
          -57.679166,
          -50.130676
        ]
      },
      "properties": {
        "label": "Compulsions",
        "level": 4,
        "pos": "-309559.02200000006,-174491.195",
        "src_id": "174031",
        "weight": "9.871294472007634e-05"
      }
    },
    {
      "type": "Feature",
      "id": "1368",
      "geometry": {
        "type": "Point",
        "coordinates": [
          -55.481261,
          -50.121786
        ]
      },
      "properties": {
        "label": "Dermoid cyst",
        "level": 4,
        "pos": "-299775.448,-174427.534",
        "src_id": "175060",
        "weight": "9.837796128699548e-05"
      }
    },
    {
      "type": "Feature",
      "id": "1367",
      "geometry": {
        "type": "Point",
        "coordinates": [
          -53.06734,
          -49.772819
        ]
      },
      "properties": {
        "label": "Diabetic neuropathy",
        "level": 4,
        "pos": "-289030.327,-171937.453",
        "src_id": "175170",
        "weight": "9.837796128699548e-05"
      }
    },
    {
      "type": "Feature",
      "id": "1359",
      "geometry": {
        "type": "Point",
        "coordinates": [
          -50.226564,
          -49.511395
        ]
      },
      "properties": {
        "label": "Divorced parents",
        "level": 4,
        "pos": "-276385.13999999996,-170083.759",
        "src_id": "175316",
        "weight": "9.837796128699548e-05"
      }
    },
    {
      "type": "Feature",
      "id": "1343",
      "geometry": {
        "type": "Point",
        "coordinates": [
          -53.10151,
          -48.46484
        ]
      },
      "properties": {
        "label": "Ear piercing",
        "level": 4,
        "pos": "-289182.433,-162760.447",
        "src_id": "175543",
        "weight": "9.837796128699548e-05"
      }
    },
    {
      "type": "Feature",
      "id": "1341",
      "geometry": {
        "type": "Point",
        "coordinates": [
          -54.381248,
          -48.122723
        ]
      },
      "properties": {
        "label": "Early retirement",
        "level": 4,
        "pos": "-294878.95300000004,-160399.305",
        "src_id": "175554",
        "weight": "9.871294472007634e-05"
      }
    },
    {
      "type": "Feature",
      "id": "1336",
      "geometry": {
        "type": "Point",
        "coordinates": [
          -50.793354,
          -48.297422
        ]
      },
      "properties": {
        "label": "Elder abuse",
        "level": 4,
        "pos": "-278908.103,-161603.027",
        "src_id": "175647",
        "weight": "9.837796128699548e-05"
      }
    },
    {
      "type": "Feature",
      "id": "1330",
      "geometry": {
        "type": "Point",
        "coordinates": [
          -55.549236,
          -49.425756
        ]
      },
      "properties": {
        "label": "Endocarditis",
        "level": 4,
        "pos": "-300078.027,-169478.67299999998",
        "src_id": "175857",
        "weight": "9.837796128699548e-05"
      }
    },
    {
      "type": "Feature",
      "id": "1327",
      "geometry": {
        "type": "Point",
        "coordinates": [
          -51.245128,
          -48.823562
        ]
      },
      "properties": {
        "label": "Ephelides",
        "level": 4,
        "pos": "-280919.09099999996,-165253.345",
        "src_id": "176056",
        "weight": "9.871294472007634e-05"
      }
    },
    {
      "type": "Feature",
      "id": "1326",
      "geometry": {
        "type": "Point",
        "coordinates": [
          -53.044023,
          -49.171623
        ]
      },
      "properties": {
        "label": "Epidermal naevus",
        "level": 4,
        "pos": "-288926.543,-167689.27099999998",
        "src_id": "176065",
        "weight": "9.837796128699548e-05"
      }
    },
    {
      "type": "Feature",
      "id": "1317",
      "geometry": {
        "type": "Point",
        "coordinates": [
          -57.319237,
          -49.786407
        ]
      },
      "properties": {
        "label": "Facial pain",
        "level": 4,
        "pos": "-307956.865,-172034.06699999998",
        "src_id": "176491",
        "weight": "9.837796128699548e-05"
      }
    },
    {
      "type": "Feature",
      "id": "1307",
      "geometry": {
        "type": "Point",
        "coordinates": [
          -57.045841,
          -48.192061
        ]
      },
      "properties": {
        "label": "Foetal monitoring",
        "level": 4,
        "pos": "-306739.886,-160876.56999999998",
        "src_id": "176809",
        "weight": "9.837796128699548e-05"
      }
    },
    {
      "type": "Feature",
      "id": "1305",
      "geometry": {
        "type": "Point",
        "coordinates": [
          -59.419683,
          -48.871802
        ]
      },
      "properties": {
        "label": "Foot deformity",
        "level": 4,
        "pos": "-317306.611,-165589.936",
        "src_id": "176849",
        "weight": "9.837796128699548e-05"
      }
    },
    {
      "type": "Feature",
      "id": "1293",
      "geometry": {
        "type": "Point",
        "coordinates": [
          -52.658632,
          -45.89287
        ]
      },
      "properties": {
        "label": "Gene sequencing",
        "level": 4,
        "pos": "-287211.03699999995,-145381.145",
        "src_id": "177266",
        "weight": "9.871294472007634e-05"
      }
    },
    {
      "type": "Feature",
      "id": "1241",
      "geometry": {
        "type": "Point",
        "coordinates": [
          -47.329862,
          -46.085623
        ]
      },
      "properties": {
        "label": "Hypervigilance",
        "level": 4,
        "pos": "-263491.011,-146654.99",
        "src_id": "178551",
        "weight": "9.871294472007634e-05"
      }
    },
    {
      "type": "Feature",
      "id": "1232",
      "geometry": {
        "type": "Point",
        "coordinates": [
          -48.710776,
          -47.423759
        ]
      },
      "properties": {
        "label": "Immune system disorder",
        "level": 4,
        "pos": "-269637.886,-155623.77599999998",
        "src_id": "178763",
        "weight": "9.837796128699548e-05"
      }
    },
    {
      "type": "Feature",
      "id": "1229",
      "geometry": {
        "type": "Point",
        "coordinates": [
          -48.224153,
          -46.938742
        ]
      },
      "properties": {
        "label": "Impatience",
        "level": 4,
        "pos": "-267471.78,-152347.16499999998",
        "src_id": "178801",
        "weight": "9.837796128699548e-05"
      }
    },
    {
      "type": "Feature",
      "id": "1224",
      "geometry": {
        "type": "Point",
        "coordinates": [
          -51.940057,
          -47.083181
        ]
      },
      "properties": {
        "label": "Influenza immunisation",
        "level": 4,
        "pos": "-284012.443,-153319.823",
        "src_id": "179013",
        "weight": "9.837796128699548e-05"
      }
    },
    {
      "type": "Feature",
      "id": "1216",
      "geometry": {
        "type": "Point",
        "coordinates": [
          -49.874726,
          -46.626256
        ]
      },
      "properties": {
        "label": "Ischaemia",
        "level": 4,
        "pos": "-274819.0,-150251.799",
        "src_id": "179440",
        "weight": "9.871294472007634e-05"
      }
    },
    {
      "type": "Feature",
      "id": "1214",
      "geometry": {
        "type": "Point",
        "coordinates": [
          -48.554206,
          -48.203157
        ]
      },
      "properties": {
        "label": "Jaw fracture",
        "level": 4,
        "pos": "-268940.945,-160953.008",
        "src_id": "179478",
        "weight": "9.871294472007634e-05"
      }
    },
    {
      "type": "Feature",
      "id": "1190",
      "geometry": {
        "type": "Point",
        "coordinates": [
          -50.754149,
          -49.171962
        ]
      },
      "properties": {
        "label": "Logorrhoea",
        "level": 4,
        "pos": "-278733.588,-167691.652",
        "src_id": "180113",
        "weight": "9.938291158623806e-05"
      }
    },
    {
      "type": "Feature",
      "id": "1186",
      "geometry": {
        "type": "Point",
        "coordinates": [
          -48.829909,
          -49.040183
        ]
      },
      "properties": {
        "label": "Lung infection",
        "level": 4,
        "pos": "-270168.192,-166767.38499999998",
        "src_id": "180195",
        "weight": "9.837796128699548e-05"
      }
    },
    {
      "type": "Feature",
      "id": "1175",
      "geometry": {
        "type": "Point",
        "coordinates": [
          -48.508476,
          -49.841228
        ]
      },
      "properties": {
        "label": "Medication error",
        "level": 4,
        "pos": "-268737.39,-172424.16600000003",
        "src_id": "180661",
        "weight": "9.871294472007634e-05"
      }
    },
    {
      "type": "Feature",
      "id": "1174",
      "geometry": {
        "type": "Point",
        "coordinates": [
          -46.310015,
          -48.488164
        ]
      },
      "properties": {
        "label": "Melanodermia",
        "level": 4,
        "pos": "-258951.348,-162922.0",
        "src_id": "180686",
        "weight": "9.938291158623806e-05"
      }
    },
    {
      "type": "Feature",
      "id": "1170",
      "geometry": {
        "type": "Point",
        "coordinates": [
          -45.361417,
          -47.674592
        ]
      },
      "properties": {
        "label": "Meningitis viral",
        "level": 4,
        "pos": "-254728.844,-157330.16900000002",
        "src_id": "180740",
        "weight": "9.90479281531572e-05"
      }
    },
    {
      "type": "Feature",
      "id": "1167",
      "geometry": {
        "type": "Point",
        "coordinates": [
          -45.565759,
          -47.162789
        ]
      },
      "properties": {
        "label": "Mental disability",
        "level": 4,
        "pos": "-255638.432,-153857.025",
        "src_id": "180779",
        "weight": "9.871294472007634e-05"
      }
    },
    {
      "type": "Feature",
      "id": "1157",
      "geometry": {
        "type": "Point",
        "coordinates": [
          -52.039123,
          -47.775283
        ]
      },
      "properties": {
        "label": "Moderate mental retardation",
        "level": 4,
        "pos": "-284453.411,-158017.47",
        "src_id": "181067",
        "weight": "9.837796128699548e-05"
      }
    },
    {
      "type": "Feature",
      "id": "1155",
      "geometry": {
        "type": "Point",
        "coordinates": [
          -49.0811,
          -46.192849
        ]
      },
      "properties": {
        "label": "Morose",
        "level": 4,
        "pos": "-271286.322,-147365.544",
        "src_id": "181127",
        "weight": "9.871294472007634e-05"
      }
    },
    {
      "type": "Feature",
      "id": "1154",
      "geometry": {
        "type": "Point",
        "coordinates": [
          -47.04735,
          -46.469047
        ]
      },
      "properties": {
        "label": "Multiple allergies",
        "level": 4,
        "pos": "-262233.456,-149202.224",
        "src_id": "181196",
        "weight": "9.837796128699548e-05"
      }
    },
    {
      "type": "Feature",
      "id": "1142",
      "geometry": {
        "type": "Point",
        "coordinates": [
          -54.340031,
          -46.343993
        ]
      },
      "properties": {
        "label": "Neck surgery",
        "level": 4,
        "pos": "-294695.483,-148369.475",
        "src_id": "181555",
        "weight": "9.837796128699548e-05"
      }
    },
    {
      "type": "Feature",
      "id": "1139",
      "geometry": {
        "type": "Point",
        "coordinates": [
          -57.98114,
          -47.29661
        ]
      },
      "properties": {
        "label": "Neonatal asphyxia",
        "level": 4,
        "pos": "-310903.196,-154761.902",
        "src_id": "181597",
        "weight": "9.837796128699548e-05"
      }
    },
    {
      "type": "Feature",
      "id": "1123",
      "geometry": {
        "type": "Point",
        "coordinates": [
          -55.600881,
          -48.828432
        ]
      },
      "properties": {
        "label": "Obsessive-compulsive disorder",
        "level": 4,
        "pos": "-300307.91900000005,-165287.307",
        "src_id": "181988",
        "weight": "9.837796128699548e-05"
      }
    },
    {
      "type": "Feature",
      "id": "1114",
      "geometry": {
        "type": "Point",
        "coordinates": [
          -59.154002,
          -48.5336
        ]
      },
      "properties": {
        "label": "Open fracture",
        "level": 4,
        "pos": "-316123.984,-163236.91700000002",
        "src_id": "182234",
        "weight": "9.837796128699548e-05"
      }
    },
    {
      "type": "Feature",
      "id": "1101",
      "geometry": {
        "type": "Point",
        "coordinates": [
          -55.033707,
          -47.382066
        ]
      },
      "properties": {
        "label": "Oxygen saturation",
        "level": 4,
        "pos": "-297783.251,-155340.92799999999",
        "src_id": "182603",
        "weight": "9.837796128699548e-05"
      }
    },
    {
      "type": "Feature",
      "id": "1098",
      "geometry": {
        "type": "Point",
        "coordinates": [
          -57.193597,
          -46.936897
        ]
      },
      "properties": {
        "label": "Paraplegia",
        "level": 4,
        "pos": "-307397.59500000003,-152334.75",
        "src_id": "182836",
        "weight": "9.90479281531572e-05"
      }
    },
    {
      "type": "Feature",
      "id": "1095",
      "geometry": {
        "type": "Point",
        "coordinates": [
          -55.972169,
          -47.737971
        ]
      },
      "properties": {
        "label": "Parosmia",
        "level": 4,
        "pos": "-301960.639,-157762.634",
        "src_id": "182907",
        "weight": "9.837796128699548e-05"
      }
    },
    {
      "type": "Feature",
      "id": "1091",
      "geometry": {
        "type": "Point",
        "coordinates": [
          -56.969309,
          -46.541917
        ]
      },
      "properties": {
        "label": "Peripheral coldness",
        "level": 4,
        "pos": "-306399.224,-149688.352",
        "src_id": "183178",
        "weight": "9.90479281531572e-05"
      }
    },
    {
      "type": "Feature",
      "id": "1089",
      "geometry": {
        "type": "Point",
        "coordinates": [
          -48.902467,
          -48.635444
        ]
      },
      "properties": {
        "label": "Peroneal nerve palsy",
        "level": 4,
        "pos": "-270491.174,-163943.83",
        "src_id": "183290",
        "weight": "9.871294472007634e-05"
      }
    },
    {
      "type": "Feature",
      "id": "1084",
      "geometry": {
        "type": "Point",
        "coordinates": [
          -48.223007,
          -47.822241
        ]
      },
      "properties": {
        "label": "Physical disability",
        "level": 4,
        "pos": "-267466.684,-158338.448",
        "src_id": "183463",
        "weight": "9.871294472007634e-05"
      }
    },
    {
      "type": "Feature",
      "id": "1077",
      "geometry": {
        "type": "Point",
        "coordinates": [
          -54.688713,
          -45.868856
        ]
      },
      "properties": {
        "label": "Pleurisy",
        "level": 4,
        "pos": "-296247.57399999996,-145222.762",
        "src_id": "183656",
        "weight": "9.837796128699548e-05"
      }
    },
    {
      "type": "Feature",
      "id": "1076",
      "geometry": {
        "type": "Point",
        "coordinates": [
          -58.372602,
          -47.748763
        ]
      },
      "properties": {
        "label": "Pneumonia aspiration",
        "level": 4,
        "pos": "-312645.72,-157836.324",
        "src_id": "183688",
        "weight": "9.871294472007634e-05"
      }
    },
    {
      "type": "Feature",
      "id": "1075",
      "geometry": {
        "type": "Point",
        "coordinates": [
          -56.566854,
          -46.046932
        ]
      },
      "properties": {
        "label": "Pneumonia viral",
        "level": 4,
        "pos": "-304607.77,-146398.942",
        "src_id": "183717",
        "weight": "9.837796128699548e-05"
      }
    },
    {
      "type": "Feature",
      "id": "1058",
      "geometry": {
        "type": "Point",
        "coordinates": [
          -55.686865,
          -45.195585
        ]
      },
      "properties": {
        "label": "Psoriasis",
        "level": 4,
        "pos": "-300690.66199999995,-140809.548",
        "src_id": "184425",
        "weight": "9.960623387495865e-05"
      }
    },
    {
      "type": "Feature",
      "id": "1052",
      "geometry": {
        "type": "Point",
        "coordinates": [
          -55.741518,
          -46.985274
        ]
      },
      "properties": {
        "label": "Rabies",
        "level": 4,
        "pos": "-300933.94,-152660.21699999998",
        "src_id": "184679",
        "weight": "9.90479281531572e-05"
      }
    },
    {
      "type": "Feature",
      "id": "1045",
      "geometry": {
        "type": "Point",
        "coordinates": [
          -51.323511,
          -46.267159
        ]
      },
      "properties": {
        "label": "Renal failure chronic",
        "level": 4,
        "pos": "-281267.99899999995,-147858.78",
        "src_id": "185037",
        "weight": "9.837796128699548e-05"
      }
    },
    {
      "type": "Feature",
      "id": "1024",
      "geometry": {
        "type": "Point",
        "coordinates": [
          -53.715886,
          -45.071743
        ]
      },
      "properties": {
        "label": "Self-medication",
        "level": 4,
        "pos": "-291917.207,-140003.492",
        "src_id": "185698",
        "weight": "9.871294472007634e-05"
      }
    },
    {
      "type": "Feature",
      "id": "1022",
      "geometry": {
        "type": "Point",
        "coordinates": [
          -51.043963,
          -44.694987
        ]
      },
      "properties": {
        "label": "Sense of oppression",
        "level": 4,
        "pos": "-280023.637,-137561.941",
        "src_id": "185736",
        "weight": "9.960623387495865e-05"
      }
    },
    {
      "type": "Feature",
      "id": "1016",
      "geometry": {
        "type": "Point",
        "coordinates": [
          -53.977289,
          -45.488773
        ]
      },
      "properties": {
        "label": "Shoplifting",
        "level": 4,
        "pos": "-293080.804,-142724.874",
        "src_id": "185830",
        "weight": "9.837796128699548e-05"
      }
    },
    {
      "type": "Feature",
      "id": "1010",
      "geometry": {
        "type": "Point",
        "coordinates": [
          -47.570252,
          -45.460147
        ]
      },
      "properties": {
        "label": "Sjogren's syndrome",
        "level": 4,
        "pos": "-264561.06,-142537.42500000002",
        "src_id": "185913",
        "weight": "9.837796128699548e-05"
      }
    },
    {
      "type": "Feature",
      "id": "1004",
      "geometry": {
        "type": "Point",
        "coordinates": [
          -49.567048,
          -44.244919
        ]
      },
      "properties": {
        "label": "Skin test",
        "level": 4,
        "pos": "-273449.42600000004,-134666.029",
        "src_id": "185978",
        "weight": "9.837796128699548e-05"
      }
    },
    {
      "type": "Feature",
      "id": "1003",
      "geometry": {
        "type": "Point",
        "coordinates": [
          -50.267082,
          -45.836111
        ]
      },
      "properties": {
        "label": "Skin wrinkling",
        "level": 4,
        "pos": "-276565.496,-145006.886",
        "src_id": "185989",
        "weight": "9.871294472007634e-05"
      }
    },
    {
      "type": "Feature",
      "id": "995",
      "geometry": {
        "type": "Point",
        "coordinates": [
          -45.331046,
          -45.060142
        ]
      },
      "properties": {
        "label": "Status migrainosus",
        "level": 4,
        "pos": "-254593.65,-139928.066",
        "src_id": "186375",
        "weight": "9.837796128699548e-05"
      }
    },
    {
      "type": "Feature",
      "id": "994",
      "geometry": {
        "type": "Point",
        "coordinates": [
          -52.052395,
          -45.466207
        ]
      },
      "properties": {
        "label": "Sterilisation",
        "level": 4,
        "pos": "-284512.489,-142577.098",
        "src_id": "186395",
        "weight": "0.00010027620074112037"
      }
    },
    {
      "type": "Feature",
      "id": "988",
      "geometry": {
        "type": "Point",
        "coordinates": [
          -50.29958,
          -45.057587
        ]
      },
      "properties": {
        "label": "Sturge-Weber syndrome",
        "level": 4,
        "pos": "-276710.16,-139911.461",
        "src_id": "186484",
        "weight": "9.871294472007634e-05"
      }
    },
    {
      "type": "Feature",
      "id": "960",
      "geometry": {
        "type": "Point",
        "coordinates": [
          -47.416187,
          -44.313348
        ]
      },
      "properties": {
        "label": "Toxicologic test",
        "level": 4,
        "pos": "-263875.274,-135104.887",
        "src_id": "187231",
        "weight": "9.871294472007634e-05"
      }
    },
    {
      "type": "Feature",
      "id": "952",
      "geometry": {
        "type": "Point",
        "coordinates": [
          -50.77202,
          -43.884811
        ]
      },
      "properties": {
        "label": "Trismus",
        "level": 4,
        "pos": "-278813.13999999996,-132364.868",
        "src_id": "187436",
        "weight": "9.837796128699548e-05"
      }
    },
    {
      "type": "Feature",
      "id": "949",
      "geometry": {
        "type": "Point",
        "coordinates": [
          -49.133237,
          -43.839111
        ]
      },
      "properties": {
        "label": "Tuberculosis",
        "level": 4,
        "pos": "-271518.403,-132073.84300000002",
        "src_id": "187483",
        "weight": "9.938291158623806e-05"
      }
    },
    {
      "type": "Feature",
      "id": "944",
      "geometry": {
        "type": "Point",
        "coordinates": [
          -44.721806,
          -45.729105
        ]
      },
      "properties": {
        "label": "Urinary hesitation",
        "level": 4,
        "pos": "-251881.735,-144302.346",
        "src_id": "187833",
        "weight": "9.837796128699548e-05"
      }
    },
    {
      "type": "Feature",
      "id": "937",
      "geometry": {
        "type": "Point",
        "coordinates": [
          -46.765119,
          -44.701311
        ]
      },
      "properties": {
        "label": "Vaginismus",
        "level": 4,
        "pos": "-260977.15699999998,-137602.789",
        "src_id": "188244",
        "weight": "9.837796128699548e-05"
      }
    },
    {
      "type": "Feature",
      "id": "925",
      "geometry": {
        "type": "Point",
        "coordinates": [
          -54.30231,
          -44.636505
        ]
      },
      "properties": {
        "label": "Visual acuity reduced",
        "level": 4,
        "pos": "-294527.57,-137184.38499999998",
        "src_id": "188582",
        "weight": "9.90479281531572e-05"
      }
    },
    {
      "type": "Feature",
      "id": "914",
      "geometry": {
        "type": "Point",
        "coordinates": [
          -52.794857,
          -44.246965
        ]
      },
      "properties": {
        "label": "Wrist fracture",
        "level": 4,
        "pos": "-287817.425,-134679.143",
        "src_id": "188907",
        "weight": "9.837796128699548e-05"
      }
    },
    {
      "type": "Feature",
      "id": "900",
      "geometry": {
        "type": "Point",
        "coordinates": [
          -48.164919,
          -44.706815
        ]
      },
      "properties": {
        "label": "Passer",
        "level": 4,
        "pos": "-267208.108,-137638.34600000002",
        "src_id": "240589",
        "weight": "9.837796128699548e-05"
      }
    },
    {
      "type": "Feature",
      "id": "1738",
      "geometry": {
        "type": "Point",
        "coordinates": [
          -12.015287,
          -45.512263
        ]
      },
      "properties": {
        "label": "Pancrelipase",
        "level": 4,
        "pos": "-106294.716,-142878.758",
        "src_id": "80",
        "weight": "9.872537638831299e-05"
      }
    },
    {
      "type": "Feature",
      "id": "20",
      "geometry": {
        "type": "Point",
        "coordinates": [
          -21.234541,
          -58.866106
        ]
      },
      "properties": {
        "label": "Anxiety",
        "level": 1,
        "pos": "-147332.524,-243893.012",
        "src_id": "170661",
        "weight": "0.007191629624041699"
      }
    },
    {
      "type": "Feature",
      "id": "1734",
      "geometry": {
        "type": "Point",
        "coordinates": [
          -17.004984,
          -46.330029
        ]
      },
      "properties": {
        "label": "Glutamic Acid",
        "level": 4,
        "pos": "-128505.42899999999,-148276.613",
        "src_id": "134",
        "weight": "9.872537638831299e-05"
      }
    },
    {
      "type": "Feature",
      "id": "1732",
      "geometry": {
        "type": "Point",
        "coordinates": [
          -14.392441,
          -45.819618
        ]
      },
      "properties": {
        "label": "Creatine",
        "level": 4,
        "pos": "-116876.17899999999,-144898.213",
        "src_id": "140",
        "weight": "9.849138611099358e-05"
      }
    },
    {
      "type": "Feature",
      "id": "1731",
      "geometry": {
        "type": "Point",
        "coordinates": [
          -7.993929,
          -45.905168
        ]
      },
      "properties": {
        "label": "Phentermine",
        "level": 4,
        "pos": "-88394.388,-145462.285",
        "src_id": "182",
        "weight": "9.849138611099358e-05"
      }
    },
    {
      "type": "Feature",
      "id": "1729",
      "geometry": {
        "type": "Point",
        "coordinates": [
          -18.163583,
          -46.835703
        ]
      },
      "properties": {
        "label": "Erythromycin",
        "level": 4,
        "pos": "-133662.716,-151654.888",
        "src_id": "190",
        "weight": "9.849138611099358e-05"
      }
    },
    {
      "type": "Feature",
      "id": "1728",
      "geometry": {
        "type": "Point",
        "coordinates": [
          -11.673719,
          -46.31301
        ]
      },
      "properties": {
        "label": "Azithromycin",
        "level": 4,
        "pos": "-104774.295,-148163.46",
        "src_id": "198",
        "weight": "9.849138611099358e-05"
      }
    },
    {
      "type": "Feature",
      "id": "1726",
      "geometry": {
        "type": "Point",
        "coordinates": [
          -9.976404,
          -45.581493
        ]
      },
      "properties": {
        "label": "Pantoprazole",
        "level": 4,
        "pos": "-97219.012,-143332.663",
        "src_id": "204",
        "weight": "9.849138611099358e-05"
      }
    },
    {
      "type": "Feature",
      "id": "1724",
      "geometry": {
        "type": "Point",
        "coordinates": [
          -9.972399,
          -46.079899
        ]
      },
      "properties": {
        "label": "Temazepam",
        "level": 4,
        "pos": "-97201.175,-146617.098",
        "src_id": "222",
        "weight": "9.884237152697269e-05"
      }
    },
    {
      "type": "Feature",
      "id": "1723",
      "geometry": {
        "type": "Point",
        "coordinates": [
          -16.23957,
          -47.128244
        ]
      },
      "properties": {
        "label": "Cabergoline",
        "level": 4,
        "pos": "-125098.331,-153623.809",
        "src_id": "239",
        "weight": "9.849138611099358e-05"
      }
    },
    {
      "type": "Feature",
      "id": "53",
      "geometry": {
        "type": "Point",
        "coordinates": [
          -23.941624,
          -38.189596
        ]
      },
      "properties": {
        "label": "Levetiracetam",
        "level": 1,
        "pos": "-159382.604,-97659.575",
        "src_id": "1186",
        "weight": "0.006882236948488494"
      }
    },
    {
      "type": "Feature",
      "id": "59",
      "geometry": {
        "type": "Point",
        "coordinates": [
          -12.198959,
          -55.775713
        ]
      },
      "properties": {
        "label": "Grand mal convulsion",
        "level": 1,
        "pos": "-107112.303,-217593.213",
        "src_id": "177516",
        "weight": "0.007439468297569785"
      }
    },
    {
      "type": "Feature",
      "id": "117",
      "geometry": {
        "type": "Point",
        "coordinates": [
          -6.765993,
          -59.706985
        ]
      },
      "properties": {
        "label": "Surgery",
        "level": 1,
        "pos": "-82928.455,-251453.068",
        "src_id": "186589",
        "weight": "0.004030986189366922"
      }
    },
    {
      "type": "Feature",
      "id": "9",
      "geometry": {
        "type": "Point",
        "coordinates": [
          -30.824959,
          -53.374203
        ]
      },
      "properties": {
        "label": "Electroencephalogram",
        "level": 1,
        "pos": "-190022.493,-198562.479",
        "src_id": "175720",
        "weight": "0.008190389638790598"
      }
    },
    {
      "type": "Feature",
      "id": "1718",
      "geometry": {
        "type": "Point",
        "coordinates": [
          -19.035802,
          -46.451977
        ]
      },
      "properties": {
        "label": "Methadone",
        "level": 4,
        "pos": "-137545.241,-149088.436",
        "src_id": "323",
        "weight": "9.849138611099358e-05"
      }
    },
    {
      "type": "Feature",
      "id": "1711",
      "geometry": {
        "type": "Point",
        "coordinates": [
          -11.608113,
          -45.947691
        ]
      },
      "properties": {
        "label": "Clozapine",
        "level": 4,
        "pos": "-104482.26,-145742.994",
        "src_id": "353",
        "weight": "9.849138611099358e-05"
      }
    },
    {
      "type": "Feature",
      "id": "1710",
      "geometry": {
        "type": "Point",
        "coordinates": [
          -4.99746,
          -46.223367
        ]
      },
      "properties": {
        "label": "Amlodipine",
        "level": 4,
        "pos": "-75056.16399999999,-147568.031",
        "src_id": "371",
        "weight": "9.849138611099358e-05"
      }
    },
    {
      "type": "Feature",
      "id": "1709",
      "geometry": {
        "type": "Point",
        "coordinates": [
          -16.772462,
          -45.931019
        ]
      },
      "properties": {
        "label": "Phenylpropanolamine",
        "level": 4,
        "pos": "-127470.404,-145632.911",
        "src_id": "386",
        "weight": "9.872537638831299e-05"
      }
    },
    {
      "type": "Feature",
      "id": "1695",
      "geometry": {
        "type": "Point",
        "coordinates": [
          -21.200751,
          -47.938753
        ]
      },
      "properties": {
        "label": "Atropine",
        "level": 4,
        "pos": "-147182.112,-159136.132",
        "src_id": "559",
        "weight": "9.849138611099358e-05"
      }
    },
    {
      "type": "Feature",
      "id": "1692",
      "geometry": {
        "type": "Point",
        "coordinates": [
          -19.781781,
          -47.179969
        ]
      },
      "properties": {
        "label": "Fluticasone propionate",
        "level": 4,
        "pos": "-140865.83,-153973.068",
        "src_id": "575",
        "weight": "9.849138611099358e-05"
      }
    },
    {
      "type": "Feature",
      "id": "1688",
      "geometry": {
        "type": "Point",
        "coordinates": [
          -15.139155,
          -45.378651
        ]
      },
      "properties": {
        "label": "Mycophenolate mofetil",
        "level": 4,
        "pos": "-120200.041,-142004.307",
        "src_id": "674",
        "weight": "9.849138611099358e-05"
      }
    },
    {
      "type": "Feature",
      "id": "1684",
      "geometry": {
        "type": "Point",
        "coordinates": [
          -12.727971,
          -47.069096
        ]
      },
      "properties": {
        "label": "Procaine",
        "level": 4,
        "pos": "-109467.102,-153224.847",
        "src_id": "707",
        "weight": "9.849138611099358e-05"
      }
    },
    {
      "type": "Feature",
      "id": "1683",
      "geometry": {
        "type": "Point",
        "coordinates": [
          -21.187647,
          -47.541701
        ]
      },
      "properties": {
        "label": "Lisinopril",
        "level": 4,
        "pos": "-147123.78100000002,-156425.106",
        "src_id": "708",
        "weight": "9.907636180429212e-05"
      }
    },
    {
      "type": "Feature",
      "id": "1682",
      "geometry": {
        "type": "Point",
        "coordinates": [
          -6.937511,
          -47.201836
        ]
      },
      "properties": {
        "label": "Nitroglycerin",
        "level": 4,
        "pos": "-83691.944,-154120.816",
        "src_id": "713",
        "weight": "9.849138611099358e-05"
      }
    },
    {
      "type": "Feature",
      "id": "1677",
      "geometry": {
        "type": "Point",
        "coordinates": [
          -8.740547,
          -47.217326
        ]
      },
      "properties": {
        "label": "Propofol",
        "level": 4,
        "pos": "-91717.816,-154225.52300000002",
        "src_id": "804",
        "weight": "9.849138611099358e-05"
      }
    },
    {
      "type": "Feature",
      "id": "1654",
      "geometry": {
        "type": "Point",
        "coordinates": [
          -15.612283,
          -46.688472
        ]
      },
      "properties": {
        "label": "Selegiline",
        "level": 4,
        "pos": "-122306.08200000001,-150668.02000000002",
        "src_id": "1022",
        "weight": "9.849138611099358e-05"
      }
    },
    {
      "type": "Feature",
      "id": "1650",
      "geometry": {
        "type": "Point",
        "coordinates": [
          -13.058222,
          -45.886961
        ]
      },
      "properties": {
        "label": "Orlistat",
        "level": 4,
        "pos": "-110937.152,-145342.166",
        "src_id": "1067",
        "weight": "9.872537638831299e-05"
      }
    },
    {
      "type": "Feature",
      "id": "1646",
      "geometry": {
        "type": "Point",
        "coordinates": [
          -14.304539,
          -46.326525
        ]
      },
      "properties": {
        "label": "Diphenylpyraline",
        "level": 4,
        "pos": "-116484.904,-148253.31399999998",
        "src_id": "1130",
        "weight": "9.849138611099358e-05"
      }
    },
    {
      "type": "Feature",
      "id": "1645",
      "geometry": {
        "type": "Point",
        "coordinates": [
          -12.479919,
          -47.540205
        ]
      },
      "properties": {
        "label": "Naloxone",
        "level": 4,
        "pos": "-108362.93999999999,-156414.93399999998",
        "src_id": "1167",
        "weight": "9.849138611099358e-05"
      }
    },
    {
      "type": "Feature",
      "id": "1642",
      "geometry": {
        "type": "Point",
        "coordinates": [
          -15.917498,
          -47.51648
        ]
      },
      "properties": {
        "label": "Clarithromycin",
        "level": 4,
        "pos": "-123664.689,-156253.603",
        "src_id": "1195",
        "weight": "9.849138611099358e-05"
      }
    },
    {
      "type": "Feature",
      "id": "1627",
      "geometry": {
        "type": "Point",
        "coordinates": [
          -18.560832,
          -48.260001
        ]
      },
      "properties": {
        "label": "Methamphetamine",
        "level": 4,
        "pos": "-135431.003,-161344.839",
        "src_id": "1511",
        "weight": "9.849138611099358e-05"
      }
    },
    {
      "type": "Feature",
      "id": "1622",
      "geometry": {
        "type": "Point",
        "coordinates": [
          -7.797131,
          -46.441416
        ]
      },
      "properties": {
        "label": "gamma-Aminobutyric acid",
        "level": 4,
        "pos": "-87518.379,-149018.06",
        "src_id": "2399",
        "weight": "9.849138611099358e-05"
      }
    },
    {
      "type": "Feature",
      "id": "1618",
      "geometry": {
        "type": "Point",
        "coordinates": [
          -8.177801,
          -47.604068
        ]
      },
      "properties": {
        "label": "Butyric Acid",
        "level": 4,
        "pos": "-89212.856,-156849.582",
        "src_id": "3363",
        "weight": "9.849138611099358e-05"
      }
    },
    {
      "type": "Feature",
      "id": "1616",
      "geometry": {
        "type": "Point",
        "coordinates": [
          -20.209298,
          -48.169761
        ]
      },
      "properties": {
        "label": "Urea",
        "level": 4,
        "pos": "-142768.84000000003,-160723.006",
        "src_id": "3677",
        "weight": "9.849138611099358e-05"
      }
    },
    {
      "type": "Feature",
      "id": "1605",
      "geometry": {
        "type": "Point",
        "coordinates": [
          -11.95511,
          -48.594706
        ]
      },
      "properties": {
        "label": "Nitrous oxide",
        "level": 4,
        "pos": "-106026.852,-163660.886",
        "src_id": "5750",
        "weight": "9.849138611099358e-05"
      }
    },
    {
      "type": "Feature",
      "id": "1602",
      "geometry": {
        "type": "Point",
        "coordinates": [
          -10.968619,
          -46.721446
        ]
      },
      "properties": {
        "label": "Tyramine",
        "level": 4,
        "pos": "-101635.672,-150888.81399999998",
        "src_id": "7811",
        "weight": "9.849138611099358e-05"
      }
    },
    {
      "type": "Feature",
      "id": "1595",
      "geometry": {
        "type": "Point",
        "coordinates": [
          -9.614111,
          -48.114202
        ]
      },
      "properties": {
        "label": "Ubidecarenone",
        "level": 4,
        "pos": "-95606.334,-160340.695",
        "src_id": "8210",
        "weight": "9.872537638831299e-05"
      }
    },
    {
      "type": "Feature",
      "id": "1593",
      "geometry": {
        "type": "Point",
        "coordinates": [
          -7.700369,
          -47.949599
        ]
      },
      "properties": {
        "label": "Tianeptine",
        "level": 4,
        "pos": "-87087.664,-159210.47400000002",
        "src_id": "8229",
        "weight": "9.849138611099358e-05"
      }
    },
    {
      "type": "Feature",
      "id": "1590",
      "geometry": {
        "type": "Point",
        "coordinates": [
          -4.602994,
          -46.716604
        ]
      },
      "properties": {
        "label": "Candida albicans",
        "level": 4,
        "pos": "-73300.273,-150856.381",
        "src_id": "8508",
        "weight": "9.872537638831299e-05"
      }
    },
    {
      "type": "Feature",
      "id": "1589",
      "geometry": {
        "type": "Point",
        "coordinates": [
          -14.369394,
          -47.111315
        ]
      },
      "properties": {
        "label": "Almond",
        "level": 4,
        "pos": "-116773.588,-153509.584",
        "src_id": "8574",
        "weight": "9.872537638831299e-05"
      }
    },
    {
      "type": "Feature",
      "id": "1583",
      "geometry": {
        "type": "Point",
        "coordinates": [
          -9.722828,
          -47.575113
        ]
      },
      "properties": {
        "label": "Lettuce",
        "level": 4,
        "pos": "-96090.258,-156652.448",
        "src_id": "8609",
        "weight": "9.872537638831299e-05"
      }
    },
    {
      "type": "Feature",
      "id": "1579",
      "geometry": {
        "type": "Point",
        "coordinates": [
          -13.973347,
          -47.502867
        ]
      },
      "properties": {
        "label": "Pineapple",
        "level": 4,
        "pos": "-115010.656,-156161.057",
        "src_id": "8628",
        "weight": "9.849138611099358e-05"
      }
    },
    {
      "type": "Feature",
      "id": "1577",
      "geometry": {
        "type": "Point",
        "coordinates": [
          -18.693644,
          -48.614189
        ]
      },
      "properties": {
        "label": "Sesame seed",
        "level": 4,
        "pos": "-136022.19199999998,-163796.18099999998",
        "src_id": "8635",
        "weight": "9.872537638831299e-05"
      }
    },
    {
      "type": "Feature",
      "id": "1572",
      "geometry": {
        "type": "Point",
        "coordinates": [
          -10.034787,
          -48.459969
        ]
      },
      "properties": {
        "label": "Blackberry",
        "level": 4,
        "pos": "-97478.894,-162726.72499999998",
        "src_id": "8678",
        "weight": "9.907636180429212e-05"
      }
    },
    {
      "type": "Feature",
      "id": "1567",
      "geometry": {
        "type": "Point",
        "coordinates": [
          -10.102558,
          -47.156216
        ]
      },
      "properties": {
        "label": "Eggplant",
        "level": 4,
        "pos": "-97780.557,-153812.637",
        "src_id": "8694",
        "weight": "9.849138611099358e-05"
      }
    },
    {
      "type": "Feature",
      "id": "1563",
      "geometry": {
        "type": "Point",
        "coordinates": [
          -7.939143,
          -48.844219
        ]
      },
      "properties": {
        "label": "Urtica dioica pollen",
        "level": 4,
        "pos": "-88150.52,-165397.438",
        "src_id": "8802",
        "weight": "9.849138611099358e-05"
      }
    },
    {
      "type": "Feature",
      "id": "1560",
      "geometry": {
        "type": "Point",
        "coordinates": [
          -18.972313,
          -47.808861
        ]
      },
      "properties": {
        "label": "Acheta domesticus",
        "level": 4,
        "pos": "-137262.631,-158246.95500000002",
        "src_id": "8882",
        "weight": "9.931035208161153e-05"
      }
    },
    {
      "type": "Feature",
      "id": "1559",
      "geometry": {
        "type": "Point",
        "coordinates": [
          -11.356147,
          -47.151898
        ]
      },
      "properties": {
        "label": "Venison",
        "level": 4,
        "pos": "-103360.679,-153783.48500000002",
        "src_id": "8931",
        "weight": "9.849138611099358e-05"
      }
    },
    {
      "type": "Feature",
      "id": "1553",
      "geometry": {
        "type": "Point",
        "coordinates": [
          -21.516449,
          -49.300927
        ]
      },
      "properties": {
        "label": "Chlorine",
        "level": 4,
        "pos": "-148587.379,-168598.565",
        "src_id": "9054",
        "weight": "0.00010083128888418774"
      }
    },
    {
      "type": "Feature",
      "id": "1550",
      "geometry": {
        "type": "Point",
        "coordinates": [
          -12.953886,
          -46.686391
        ]
      },
      "properties": {
        "label": "Silicon dioxide",
        "level": 4,
        "pos": "-110472.719,-150654.089",
        "src_id": "9077",
        "weight": "9.849138611099358e-05"
      }
    },
    {
      "type": "Feature",
      "id": "1543",
      "geometry": {
        "type": "Point",
        "coordinates": [
          -13.689912,
          -48.973078
        ]
      },
      "properties": {
        "label": "Creatinine",
        "level": 4,
        "pos": "-113749.003,-166297.663",
        "src_id": "9515",
        "weight": "9.849138611099358e-05"
      }
    },
    {
      "type": "Feature",
      "id": "1542",
      "geometry": {
        "type": "Point",
        "coordinates": [
          -21.822731,
          -48.968432
        ]
      },
      "properties": {
        "label": "Gadolinium",
        "level": 4,
        "pos": "-149950.742,-166265.15699999998",
        "src_id": "9755",
        "weight": "9.849138611099358e-05"
      }
    },
    {
      "type": "Feature",
      "id": "1541",
      "geometry": {
        "type": "Point",
        "coordinates": [
          -9.1174,
          -46.78838
        ]
      },
      "properties": {
        "label": "Theanine",
        "level": 4,
        "pos": "-93395.307,-151337.402",
        "src_id": "10098",
        "weight": "9.849138611099358e-05"
      }
    },
    {
      "type": "Feature",
      "id": "1540",
      "geometry": {
        "type": "Point",
        "coordinates": [
          -10.884556,
          -47.533843
        ]
      },
      "properties": {
        "label": "Ozone",
        "level": 4,
        "pos": "-101261.475,-156371.65899999999",
        "src_id": "10159",
        "weight": "9.884237152697269e-05"
      }
    },
    {
      "type": "Feature",
      "id": "1539",
      "geometry": {
        "type": "Point",
        "coordinates": [
          -13.02635,
          -47.907171
        ]
      },
      "properties": {
        "label": "Passiflora incarnata flower",
        "level": 4,
        "pos": "-110795.27799999999,-158919.726",
        "src_id": "11006",
        "weight": "9.884237152697269e-05"
      }
    },
    {
      "type": "Feature",
      "id": "1536",
      "geometry": {
        "type": "Point",
        "coordinates": [
          -2.109949,
          -48.14674
        ]
      },
      "properties": {
        "label": "Accident at work",
        "level": 4,
        "pos": "-62202.943,-160564.552",
        "src_id": "169614",
        "weight": "9.872537638831299e-05"
      }
    },
    {
      "type": "Feature",
      "id": "1535",
      "geometry": {
        "type": "Point",
        "coordinates": [
          -5.828403,
          -49.302918
        ]
      },
      "properties": {
        "label": "Accidental death",
        "level": 4,
        "pos": "-78754.95,-168612.587",
        "src_id": "169615",
        "weight": "9.849138611099358e-05"
      }
    },
    {
      "type": "Feature",
      "id": "1534",
      "geometry": {
        "type": "Point",
        "coordinates": [
          -4.776042,
          -48.911191
        ]
      },
      "properties": {
        "label": "Accidental overdose",
        "level": 4,
        "pos": "-74070.564,-165865.024",
        "src_id": "169618",
        "weight": "9.849138611099358e-05"
      }
    },
    {
      "type": "Feature",
      "id": "1529",
      "geometry": {
        "type": "Point",
        "coordinates": [
          -2.164423,
          -48.510359
        ]
      },
      "properties": {
        "label": "Adverse drug reaction",
        "level": 4,
        "pos": "-62445.419,-163075.802",
        "src_id": "169884",
        "weight": "9.849138611099358e-05"
      }
    },
    {
      "type": "Feature",
      "id": "1524",
      "geometry": {
        "type": "Point",
        "coordinates": [
          -14.615315,
          -48.252324
        ]
      },
      "properties": {
        "label": "Airway complication of anaesthesia",
        "level": 4,
        "pos": "-117868.26299999999,-161291.903",
        "src_id": "169923",
        "weight": "9.849138611099358e-05"
      }
    },
    {
      "type": "Feature",
      "id": "1520",
      "geometry": {
        "type": "Point",
        "coordinates": [
          -4.258835,
          -47.118511
        ]
      },
      "properties": {
        "label": "Allergy to animal",
        "level": 4,
        "pos": "-71768.31199999999,-153558.13",
        "src_id": "170012",
        "weight": "9.872537638831299e-05"
      }
    },
    {
      "type": "Feature",
      "id": "1505",
      "geometry": {
        "type": "Point",
        "coordinates": [
          -8.306087,
          -48.465328
        ]
      },
      "properties": {
        "label": "Anoxia",
        "level": 4,
        "pos": "-89783.896,-162763.825",
        "src_id": "170458",
        "weight": "9.849138611099358e-05"
      }
    },
    {
      "type": "Feature",
      "id": "1501",
      "geometry": {
        "type": "Point",
        "coordinates": [
          -6.570137,
          -48.385502
        ]
      },
      "properties": {
        "label": "Apparent death",
        "level": 4,
        "pos": "-82056.63900000001,-162211.482",
        "src_id": "170770",
        "weight": "9.907636180429212e-05"
      }
    },
    {
      "type": "Feature",
      "id": "1493",
      "geometry": {
        "type": "Point",
        "coordinates": [
          -4.648749,
          -48.470623
        ]
      },
      "properties": {
        "label": "Aspiration",
        "level": 4,
        "pos": "-73503.94300000001,-162800.49500000002",
        "src_id": "171004",
        "weight": "9.931035208161153e-05"
      }
    },
    {
      "type": "Feature",
      "id": "1490",
      "geometry": {
        "type": "Point",
        "coordinates": [
          -21.281541,
          -48.604308
        ]
      },
      "properties": {
        "label": "Atrial fibrillation",
        "level": 4,
        "pos": "-147541.725,-163727.55599999998",
        "src_id": "171069",
        "weight": "9.884237152697269e-05"
      }
    },
    {
      "type": "Feature",
      "id": "1483",
      "geometry": {
        "type": "Point",
        "coordinates": [
          -13.207048,
          -49.449414
        ]
      },
      "properties": {
        "label": "Autonomic neuropathy",
        "level": 4,
        "pos": "-111599.621,-169645.723",
        "src_id": "171160",
        "weight": "9.872537638831299e-05"
      }
    },
    {
      "type": "Feature",
      "id": "1477",
      "geometry": {
        "type": "Point",
        "coordinates": [
          -14.125143,
          -48.620387
        ]
      },
      "properties": {
        "label": "Ballismus",
        "level": 4,
        "pos": "-115686.35,-163839.233",
        "src_id": "171248",
        "weight": "9.849138611099358e-05"
      }
    },
    {
      "type": "Feature",
      "id": "1474",
      "geometry": {
        "type": "Point",
        "coordinates": [
          -0.572248,
          -47.769583
        ]
      },
      "properties": {
        "label": "Benign familial neonatal convulsions",
        "level": 4,
        "pos": "-55358.15,-157978.527",
        "src_id": "171356",
        "weight": "9.849138611099358e-05"
      }
    },
    {
      "type": "Feature",
      "id": "1469",
      "geometry": {
        "type": "Point",
        "coordinates": [
          -2.140978,
          -49.571065
        ]
      },
      "properties": {
        "label": "Biopsy liver",
        "level": 4,
        "pos": "-62341.058,-170505.99",
        "src_id": "171638",
        "weight": "9.872537638831299e-05"
      }
    },
    {
      "type": "Feature",
      "id": "1467",
      "geometry": {
        "type": "Point",
        "coordinates": [
          -7.346487,
          -46.852614
        ]
      },
      "properties": {
        "label": "Biopsy skin",
        "level": 4,
        "pos": "-85512.41500000001,-151768.422",
        "src_id": "171706",
        "weight": "9.849138611099358e-05"
      }
    },
    {
      "type": "Feature",
      "id": "1453",
      "geometry": {
        "type": "Point",
        "coordinates": [
          -16.389799,
          -47.885765
        ]
      },
      "properties": {
        "label": "Blood magnesium",
        "level": 4,
        "pos": "-125767.05099999999,-158773.132",
        "src_id": "172259",
        "weight": "9.849138611099358e-05"
      }
    },
    {
      "type": "Feature",
      "id": "1448",
      "geometry": {
        "type": "Point",
        "coordinates": [
          -16.390819,
          -48.834143
        ]
      },
      "properties": {
        "label": "Bone densitometry",
        "level": 4,
        "pos": "-125771.593,-165327.15",
        "src_id": "172466",
        "weight": "9.849138611099358e-05"
      }
    },
    {
      "type": "Feature",
      "id": "1446",
      "geometry": {
        "type": "Point",
        "coordinates": [
          -5.139002,
          -47.987073
        ]
      },
      "properties": {
        "label": "Bone marrow transplant",
        "level": 4,
        "pos": "-75686.207,-159467.467",
        "src_id": "172516",
        "weight": "9.849138611099358e-05"
      }
    },
    {
      "type": "Feature",
      "id": "1435",
      "geometry": {
        "type": "Point",
        "coordinates": [
          -8.166607,
          -49.302483
        ]
      },
      "properties": {
        "label": "Breast mass",
        "level": 4,
        "pos": "-89163.02799999999,-168609.527",
        "src_id": "172684",
        "weight": "9.849138611099358e-05"
      }
    },
    {
      "type": "Feature",
      "id": "1428",
      "geometry": {
        "type": "Point",
        "coordinates": [
          -5.16129,
          -47.599819
        ]
      },
      "properties": {
        "label": "Caffeine consumption",
        "level": 4,
        "pos": "-75785.42199999999,-156820.64299999998",
        "src_id": "172877",
        "weight": "9.849138611099358e-05"
      }
    },
    {
      "type": "Feature",
      "id": "1424",
      "geometry": {
        "type": "Point",
        "coordinates": [
          1.097477,
          -48.864869
        ]
      },
      "properties": {
        "label": "Cardiac ablation",
        "level": 4,
        "pos": "-47925.682,-165541.551",
        "src_id": "173015",
        "weight": "9.849138611099358e-05"
      }
    },
    {
      "type": "Feature",
      "id": "1416",
      "geometry": {
        "type": "Point",
        "coordinates": [
          -11.145816,
          -49.086241
        ]
      },
      "properties": {
        "label": "Cerebral haemorrhage",
        "level": 4,
        "pos": "-102424.43000000001,-167090.144",
        "src_id": "173375",
        "weight": "9.849138611099358e-05"
      }
    },
    {
      "type": "Feature",
      "id": "1395",
      "geometry": {
        "type": "Point",
        "coordinates": [
          -24.427474,
          -49.631001
        ]
      },
      "properties": {
        "label": "Complex regional pain syndrome",
        "level": 4,
        "pos": "-161545.267,-170930.617",
        "src_id": "174012",
        "weight": "9.872537638831299e-05"
      }
    },
    {
      "type": "Feature",
      "id": "1393",
      "geometry": {
        "type": "Point",
        "coordinates": [
          -19.263896,
          -49.391234
        ]
      },
      "properties": {
        "label": "Compression fracture",
        "level": 4,
        "pos": "-138560.564,-169235.054",
        "src_id": "174029",
        "weight": "9.849138611099358e-05"
      }
    },
    {
      "type": "Feature",
      "id": "1357",
      "geometry": {
        "type": "Point",
        "coordinates": [
          -7.076605,
          -51.863262
        ]
      },
      "properties": {
        "label": "Drug hypersensitivity",
        "level": 4,
        "pos": "-84311.093,-187133.655",
        "src_id": "175372",
        "weight": "9.872537638831299e-05"
      }
    },
    {
      "type": "Feature",
      "id": "1352",
      "geometry": {
        "type": "Point",
        "coordinates": [
          -10.807235,
          -49.756456
        ]
      },
      "properties": {
        "label": "Dry throat",
        "level": 4,
        "pos": "-100917.299,-171821.133",
        "src_id": "175423",
        "weight": "9.872537638831299e-05"
      }
    },
    {
      "type": "Feature",
      "id": "1350",
      "geometry": {
        "type": "Point",
        "coordinates": [
          -9.778002,
          -50.469422
        ]
      },
      "properties": {
        "label": "Dysaesthesia",
        "level": 4,
        "pos": "-96335.864,-176926.235",
        "src_id": "175467",
        "weight": "9.849138611099358e-05"
      }
    },
    {
      "type": "Feature",
      "id": "1349",
      "geometry": {
        "type": "Point",
        "coordinates": [
          -7.375546,
          -50.815758
        ]
      },
      "properties": {
        "label": "Dyscalculia",
        "level": 4,
        "pos": "-85641.767,-179433.916",
        "src_id": "175470",
        "weight": "9.884237152697269e-05"
      }
    },
    {
      "type": "Feature",
      "id": "1345",
      "geometry": {
        "type": "Point",
        "coordinates": [
          -16.275429,
          -49.198036
        ]
      },
      "properties": {
        "label": "Dysthymic disorder",
        "level": 4,
        "pos": "-125257.953,-167874.821",
        "src_id": "175510",
        "weight": "9.872537638831299e-05"
      }
    },
    {
      "type": "Feature",
      "id": "1334",
      "geometry": {
        "type": "Point",
        "coordinates": [
          -8.691562,
          -51.504935
        ]
      },
      "properties": {
        "label": "Electrocardiogram normal",
        "level": 4,
        "pos": "-91499.774,-184479.89",
        "src_id": "175663",
        "weight": "9.849138611099358e-05"
      }
    },
    {
      "type": "Feature",
      "id": "1319",
      "geometry": {
        "type": "Point",
        "coordinates": [
          -0.503657,
          -49.225932
        ]
      },
      "properties": {
        "label": "Eye irritation",
        "level": 4,
        "pos": "-55052.833999999995,-168070.899",
        "src_id": "176416",
        "weight": "9.849138611099358e-05"
      }
    },
    {
      "type": "Feature",
      "id": "1303",
      "geometry": {
        "type": "Point",
        "coordinates": [
          -11.617976,
          -50.494989
        ]
      },
      "properties": {
        "label": "Formication",
        "level": 4,
        "pos": "-104526.15699999999,-177110.722",
        "src_id": "176868",
        "weight": "9.872537638831299e-05"
      }
    },
    {
      "type": "Feature",
      "id": "1296",
      "geometry": {
        "type": "Point",
        "coordinates": [
          -1.99563,
          -49.913838
        ]
      },
      "properties": {
        "label": "Gastric ulcer",
        "level": 4,
        "pos": "-61694.066999999995,-172941.53",
        "src_id": "177111",
        "weight": "9.849138611099358e-05"
      }
    },
    {
      "type": "Feature",
      "id": "1295",
      "geometry": {
        "type": "Point",
        "coordinates": [
          -19.385375,
          -49.010592
        ]
      },
      "properties": {
        "label": "Gastroenteritis",
        "level": 4,
        "pos": "-139101.30000000002,-166560.174",
        "src_id": "177145",
        "weight": "9.872537638831299e-05"
      }
    },
    {
      "type": "Feature",
      "id": "1291",
      "geometry": {
        "type": "Point",
        "coordinates": [
          -8.890577,
          -50.083934
        ]
      },
      "properties": {
        "label": "Genetic counselling",
        "level": 4,
        "pos": "-92385.64700000001,-174156.564",
        "src_id": "177279",
        "weight": "9.849138611099358e-05"
      }
    },
    {
      "type": "Feature",
      "id": "1284",
      "geometry": {
        "type": "Point",
        "coordinates": [
          -6.814087,
          -49.774625
        ]
      },
      "properties": {
        "label": "Gliosis",
        "level": 4,
        "pos": "-83142.543,-171950.289",
        "src_id": "177390",
        "weight": "9.849138611099358e-05"
      }
    },
    {
      "type": "Feature",
      "id": "1274",
      "geometry": {
        "type": "Point",
        "coordinates": [
          -1.738292,
          -48.883591
        ]
      },
      "properties": {
        "label": "Haemorrhagic stroke",
        "level": 4,
        "pos": "-60548.577000000005,-165672.251",
        "src_id": "177707",
        "weight": "9.849138611099358e-05"
      }
    },
    {
      "type": "Feature",
      "id": "1267",
      "geometry": {
        "type": "Point",
        "coordinates": [
          -13.441405,
          -50.859762
        ]
      },
      "properties": {
        "label": "Heart alternation",
        "level": 4,
        "pos": "-112642.817,-179753.874",
        "src_id": "177794",
        "weight": "9.849138611099358e-05"
      }
    },
    {
      "type": "Feature",
      "id": "1258",
      "geometry": {
        "type": "Point",
        "coordinates": [
          -11.029682,
          -50.088496
        ]
      },
      "properties": {
        "label": "Hernia",
        "level": 4,
        "pos": "-101907.475,-174189.20700000002",
        "src_id": "178084",
        "weight": "9.907636180429212e-05"
      }
    },