{
  "type": "FeatureCollection",
  "features": [
    {
      "type": "Feature",
      "id": "594",
      "geometry": {
        "type": "Point",
        "coordinates": [
          3.410141,
          -11.194949
        ]
      },
      "properties": {
        "label": "Cetuximab",
        "level": 1,
        "pos": "1734450.6923151657,5482483.837672137",
        "src_id": "2",
        "weight": "0.0009217109554026744"
      }
    },
    {
      "type": "Feature",
      "id": "560",
      "geometry": {
        "type": "Point",
        "coordinates": [
          12.19497,
          -1.496841
        ]
      },
      "properties": {
        "label": "Pegfilgrastim",
        "level": 1,
        "pos": "7637358.107670231,13685465.1459871",
        "src_id": "19",
        "weight": "0.0010096155476091318"
      }
    },
    {
      "type": "Feature",
      "id": "1773",
      "geometry": {
        "type": "Point",
        "coordinates": [
          1.916006,
          -11.363757
        ]
      },
      "properties": {
        "label": "Pegvisomant",
        "level": 5,
        "pos": "730476.822198797,5337957.53040105",
        "src_id": "78",
        "weight": "0.00011281830419910772"
      }
    },
    {
      "type": "Feature",
      "id": "1734",
      "geometry": {
        "type": "Point",
        "coordinates": [
          2.192075,
          -11.990102
        ]
      },
      "properties": {
        "label": "Epothilone D",
        "level": 4,
        "pos": "915979.1875313569,4800947.751590145",
        "src_id": "1785",
        "weight": "0.00014365899815427558"
      }
    },
    {
      "type": "Feature",
      "id": "3386",
      "geometry": {
        "type": "Point",
        "coordinates": [
          2.054558,
          -11.56969
        ]
      },
      "properties": {
        "label": "Fidarestat",
        "level": 5,
        "pos": "823575.7048544154,5161529.901955842",
        "src_id": "1922",
        "weight": "4.349359321306256e-05"
      }
    },
    {
      "type": "Feature",
      "id": "1191",
      "geometry": {
        "type": "Point",
        "coordinates": [
          2.206516,
          -12.235915
        ]
      },
      "properties": {
        "label": "Calcipotriol",
        "level": 3,
        "pos": "925682.730320615,4589858.120247149",
        "src_id": "2182",
        "weight": "0.0002755628278187749"
      }
    },
    {
      "type": "Feature",
      "id": "685",
      "geometry": {
        "type": "Point",
        "coordinates": [
          3.442744,
          -13.054786
        ]
      },
      "properties": {
        "label": "Ixabepilone",
        "level": 1,
        "pos": "1756357.995067069,3885218.0674857195",
        "src_id": "4567",
        "weight": "0.0007320676644013988"
      }
    },
    {
      "type": "Feature",
      "id": "3385",
      "geometry": {
        "type": "Point",
        "coordinates": [
          2.488109,
          -11.962739
        ]
      },
      "properties": {
        "label": "Voglibose",
        "level": 5,
        "pos": "1114897.6227961013,4824433.393766297",
        "src_id": "4600",
        "weight": "4.349359321306256e-05"
      }
    },
    {
      "type": "Feature",
      "id": "1769",
      "geometry": {
        "type": "Point",
        "coordinates": [
          3.399595,
          -12.324665
        ]
      },
      "properties": {
        "label": "anecortave acetate",
        "level": 5,
        "pos": "1727364.5722177722,4513596.847078221",
        "src_id": "4945",
        "weight": "0.00011281830419910772"
      }
    },
    {
      "type": "Feature",
      "id": "1515",
      "geometry": {
        "type": "Point",
        "coordinates": [
          2.497928,
          -12.195736
        ]
      },
      "properties": {
        "label": "Lasofoxifene",
        "level": 4,
        "pos": "1121494.9311320381,4624375.047483667",
        "src_id": "5477",
        "weight": "0.00017648295058772198"
      }
    },
    {
      "type": "Feature",
      "id": "1700",
      "geometry": {
        "type": "Point",
        "coordinates": [
          3.151218,
          -12.453174
        ]
      },
      "properties": {
        "label": "Asoprisnil",
        "level": 4,
        "pos": "1560468.8510784216,4403125.032682425",
        "src_id": "5742",
        "weight": "0.00012817528263352405"
      }
    },
    {
      "type": "Feature",
      "id": "3208",
      "geometry": {
        "type": "Point",
        "coordinates": [
          2.782742,
          -12.129931
        ]
      },
      "properties": {
        "label": "Dexmethylphenidate",
        "level": 5,
        "pos": "1312874.060420325,4680894.657998335",
        "src_id": "5761",
        "weight": "4.678225346307887e-05"
      }
    },
    {
      "type": "Feature",
      "id": "3378",
      "geometry": {
        "type": "Point",
        "coordinates": [
          3.048068,
          -12.235448
        ]
      },
      "properties": {
        "label": "Metreleptin",
        "level": 5,
        "pos": "1491158.2731166317,4590259.459885873",
        "src_id": "7992",
        "weight": "4.349359321306256e-05"
      }
    },
    {
      "type": "Feature",
      "id": "1025",
      "geometry": {
        "type": "Point",
        "coordinates": [
          2.542731,
          -12.425646
        ]
      },
      "properties": {
        "label": "Landiolol",
        "level": 3,
        "pos": "1151600.4461710146,4426794.411341633",
        "src_id": "9872",
        "weight": "0.0003493129333980536"
      }
    },
    {
      "type": "Feature",
      "id": "5000",
      "geometry": {
        "type": "Point",
        "coordinates": [
          2.228625,
          -11.758921
        ]
      },
      "properties": {
        "label": "Colorectal cancer metastatic",
        "level": 5,
        "pos": "940539.234103712,4999296.946048284",
        "src_id": "173948",
        "weight": "3.5901913250639724e-05"
      }
    },
    {
      "type": "Feature",
      "id": "613",
      "geometry": {
        "type": "Point",
        "coordinates": [
          10.384139,
          -3.408129
        ]
      },
      "properties": {
        "label": "Anakinra",
        "level": 2,
        "pos": "6420581.908516838,12079160.822658919",
        "src_id": "26",
        "weight": "0.0006854322955168763"
      }
    },
    {
      "type": "Feature",
      "id": "760",
      "geometry": {
        "type": "Point",
        "coordinates": [
          6.789733,
          -7.521613
        ]
      },
      "properties": {
        "label": "Ibritumomab tiuxetan",
        "level": 2,
        "pos": "4005344.762077866,8608862.48712175",
        "src_id": "75",
        "weight": "0.0006142940177688593"
      }
    },
    {
      "type": "Feature",
      "id": "571",
      "geometry": {
        "type": "Point",
        "coordinates": [
          12.119348,
          -2.613044
        ]
      },
      "properties": {
        "label": "Tenofovir disoproxil",
        "level": 1,
        "pos": "7586543.865503083,12747659.250757284",
        "src_id": "291",
        "weight": "0.0009357611255514337"
      }
    },
    {
      "type": "Feature",
      "id": "343",
      "geometry": {
        "type": "Point",
        "coordinates": [
          17.937903,
          4.306479
        ]
      },
      "properties": {
        "label": "Gefitinib",
        "level": 1,
        "pos": "11496283.238388648,18561610.177483708",
        "src_id": "308",
        "weight": "0.0011314963743790413"
      }
    },
    {
      "type": "Feature",
      "id": "546",
      "geometry": {
        "type": "Point",
        "coordinates": [
          14.635324,
          -0.03289
        ]
      },
      "properties": {
        "label": "Emtricitabine",
        "level": 1,
        "pos": "9277137.665383099,14914773.27557419",
        "src_id": "865",
        "weight": "0.0009347967727906894"
      }
    },
    {
      "type": "Feature",
      "id": "990",
      "geometry": {
        "type": "Point",
        "coordinates": [
          15.599053,
          1.286073
        ]
      },
      "properties": {
        "label": "Tipranavir",
        "level": 2,
        "pos": "9924709.005171461,16022293.600100994",
        "src_id": "918",
        "weight": "0.0005270673719664609"
      }
    },
    {
      "type": "Feature",
      "id": "903",
      "geometry": {
        "type": "Point",
        "coordinates": [
          16.16461,
          1.822629
        ]
      },
      "properties": {
        "label": "Desloratadine",
        "level": 2,
        "pos": "10304731.096656263,16472965.043773394",
        "src_id": "953",
        "weight": "0.0006366096652766414"
      }
    },
    {
      "type": "Feature",
      "id": "587",
      "geometry": {
        "type": "Point",
        "coordinates": [
          15.792961,
          1.515798
        ]
      },
      "properties": {
        "label": "Lumiracoxib",
        "level": 1,
        "pos": "10055003.975976296,16215233.034817945",
        "src_id": "1266",
        "weight": "0.000760448692830453"
      }
    },
    {
      "type": "Feature",
      "id": "565",
      "geometry": {
        "type": "Point",
        "coordinates": [
          9.968605,
          -0.585637
        ]
      },
      "properties": {
        "label": "Lopinavir",
        "level": 2,
        "pos": "6141366.4936083555,14450666.180770673",
        "src_id": "1533",
        "weight": "0.0006687161944670262"
      }
    },
    {
      "type": "Feature",
      "id": "869",
      "geometry": {
        "type": "Point",
        "coordinates": [
          10.290316,
          -0.414089
        ]
      },
      "properties": {
        "label": "Deferasirox",
        "level": 2,
        "pos": "6357538.325871164,14594706.874934388",
        "src_id": "1541",
        "weight": "0.0005189054870922484"
      }
    },
    {
      "type": "Feature",
      "id": "6459",
      "geometry": {
        "type": "Point",
        "coordinates": [
          10.845723,
          -2.727424
        ]
      },
      "properties": {
        "label": "Acute febrile neutrophilic dermatosis",
        "level": 5,
        "pos": "6730740.430602746,12651519.257896362",
        "src_id": "169736",
        "weight": "2.838282250982141e-05"
      }
    },
    {
      "type": "Feature",
      "id": "1118",
      "geometry": {
        "type": "Point",
        "coordinates": [
          3.196267,
          -15.067536
        ]
      },
      "properties": {
        "label": "Alvocidib",
        "level": 3,
        "pos": "1590739.546090765,2142968.7080784338",
        "src_id": "3300",
        "weight": "0.00027025834546784276"
      }
    },
    {
      "type": "Feature",
      "id": "1404",
      "geometry": {
        "type": "Point",
        "coordinates": [
          3.441576,
          -14.903591
        ]
      },
      "properties": {
        "label": "Icatibant",
        "level": 4,
        "pos": "1755573.0508892885,2285467.0253411555",
        "src_id": "5471",
        "weight": "0.00021979249894422118"
      }
    },
    {
      "type": "Feature",
      "id": "1535",
      "geometry": {
        "type": "Point",
        "coordinates": [
          5.517186,
          -13.9665
        ]
      },
      "properties": {
        "label": "Temsirolimus",
        "level": 4,
        "pos": "3150265.492859913,3097927.766899796",
        "src_id": "5536",
        "weight": "0.00017312483862939453"
      }
    },
    {
      "type": "Feature",
      "id": "2465",
      "geometry": {
        "type": "Point",
        "coordinates": [
          3.254828,
          -14.724261
        ]
      },
      "properties": {
        "label": "Priralfinamide",
        "level": 5,
        "pos": "1630088.8498373087,2441212.8726791474",
        "src_id": "5722",
        "weight": "8.691246628007659e-05"
      }
    },
    {
      "type": "Feature",
      "id": "1392",
      "geometry": {
        "type": "Point",
        "coordinates": [
          3.031227,
          -14.87634
        ]
      },
      "properties": {
        "label": "Efaproxiral",
        "level": 4,
        "pos": "1479841.6342029253,2309142.156139645",
        "src_id": "7479",
        "weight": "0.00018059186802693776"
      }
    },
    {
      "type": "Feature",
      "id": "4146",
      "geometry": {
        "type": "Point",
        "coordinates": [
          2.887786,
          -14.674686
        ]
      },
      "properties": {
        "label": "Perifosine",
        "level": 5,
        "pos": "1383457.679010968,2484245.971173421",
        "src_id": "5717",
        "weight": "2.943337805686841e-05"
      }
    },
    {
      "type": "Feature",
      "id": "4193",
      "geometry": {
        "type": "Point",
        "coordinates": [
          2.606004,
          -14.600453
        ]
      },
      "properties": {
        "label": "Glucarpidase",
        "level": 5,
        "pos": "1194115.8818059212,2548664.0093437433",
        "src_id": "7857",
        "weight": "2.7700659211059657e-05"
      }
    },
    {
      "type": "Feature",
      "id": "2253",
      "geometry": {
        "type": "Point",
        "coordinates": [
          8.995464,
          -4.726575
        ]
      },
      "properties": {
        "label": "Canakinumab",
        "level": 5,
        "pos": "5487471.4803312365,10969345.571592886",
        "src_id": "5452",
        "weight": "8.103912573474909e-05"
      }
    },
    {
      "type": "Feature",
      "id": "519",
      "geometry": {
        "type": "Point",
        "coordinates": [
          6.408223,
          -9.439642
        ]
      },
      "properties": {
        "label": "Bortezomib",
        "level": 1,
        "pos": "3748992.0315174176,6980561.070375446",
        "src_id": "179",
        "weight": "0.0008516174589830954"
      }
    },
    {
      "type": "Feature",
      "id": "696",
      "geometry": {
        "type": "Point",
        "coordinates": [
          11.272354,
          -5.893664
        ]
      },
      "properties": {
        "label": "Adefovir Dipivoxil",
        "level": 1,
        "pos": "7017412.314596845,9985191.009557176",
        "src_id": "704",
        "weight": "0.000734801345815369"
      }
    },
    {
      "type": "Feature",
      "id": "713",
      "geometry": {
        "type": "Point",
        "coordinates": [
          9.948041,
          -5.207463
        ]
      },
      "properties": {
        "label": "Vorinostat",
        "level": 1,
        "pos": "6127549.232403519,10564058.022449056",
        "src_id": "2413",
        "weight": "0.0007660023626719703"
      }
    },
    {
      "type": "Feature",
      "id": "1027",
      "geometry": {
        "type": "Point",
        "coordinates": [
          8.637801,
          -6.167503
        ]
      },
      "properties": {
        "label": "Nilotinib",
        "level": 3,
        "pos": "5247141.875701254,9753990.722571673",
        "src_id": "4590",
        "weight": "0.000345329450044185"
      }
    },
    {
      "type": "Feature",
      "id": "1837",
      "geometry": {
        "type": "Point",
        "coordinates": [
          6.98662,
          -8.955924
        ]
      },
      "properties": {
        "label": "Dexlansoprazole",
        "level": 4,
        "pos": "4137641.6244438505,7391992.442649809",
        "src_id": "4994",
        "weight": "0.00014591249024862554"
      }
    },
    {
      "type": "Feature",
      "id": "2647",
      "geometry": {
        "type": "Point",
        "coordinates": [
          6.836973,
          -8.753583
        ]
      },
      "properties": {
        "label": "Lestaurtinib",
        "level": 5,
        "pos": "4037087.346181208,7563931.114840155",
        "src_id": "5622",
        "weight": "7.487688683288816e-05"
      }
    },
    {
      "type": "Feature",
      "id": "2618",
      "geometry": {
        "type": "Point",
        "coordinates": [
          6.19434,
          -8.540487
        ]
      },
      "properties": {
        "label": "Axitinib",
        "level": 5,
        "pos": "3605274.2922537723,7744908.587720569",
        "src_id": "5708",
        "weight": "6.825223553431376e-05"
      }
    },
    {
      "type": "Feature",
      "id": "1086",
      "geometry": {
        "type": "Point",
        "coordinates": [
          12.99416,
          -2.52216
        ]
      },
      "properties": {
        "label": "Denosumab",
        "level": 3,
        "pos": "8174368.320779215,12824044.215761054",
        "src_id": "5719",
        "weight": "0.0003207043248779182"
      }
    },
    {
      "type": "Feature",
      "id": "1459",
      "geometry": {
        "type": "Point",
        "coordinates": [
          5.96941,
          -8.390517
        ]
      },
      "properties": {
        "label": "Carfilzomib",
        "level": 4,
        "pos": "3454134.14061917,7872214.176084995",
        "src_id": "7848",
        "weight": "0.00022001933605469637"
      }
    },
    {
      "type": "Feature",
      "id": "1715",
      "geometry": {
        "type": "Point",
        "coordinates": [
          6.465052,
          -8.634354
        ]
      },
      "properties": {
        "label": "Blinatumomab",
        "level": 4,
        "pos": "3787177.518443352,7665202.010218715",
        "src_id": "7998",
        "weight": "0.00014597664085199612"
      }
    },
    {
      "type": "Feature",
      "id": "3419",
      "geometry": {
        "type": "Point",
        "coordinates": [
          6.73352,
          -8.532655
        ]
      },
      "properties": {
        "label": "Alosetron",
        "level": 5,
        "pos": "3967573.24320433,7751558.146435146",
        "src_id": "955",
        "weight": "6.005683310910569e-05"
      }
    },
    {
      "type": "Feature",
      "id": "328",
      "geometry": {
        "type": "Point",
        "coordinates": [
          9.792066,
          -4.183453
        ]
      },
      "properties": {
        "label": "Ritonavir",
        "level": 2,
        "pos": "6022742.46458903,11426745.911168253",
        "src_id": "492",
        "weight": "0.00045943658932954054"
      }
    },
    {
      "type": "Feature",
      "id": "1177",
      "geometry": {
        "type": "Point",
        "coordinates": [
          12.057309,
          -1.671627
        ]
      },
      "properties": {
        "label": "Agomelatine",
        "level": 4,
        "pos": "7544857.452392392,13538655.029647272",
        "src_id": "5685",
        "weight": "0.0002381613042530461"
      }
    },
    {
      "type": "Feature",
      "id": "2382",
      "geometry": {
        "type": "Point",
        "coordinates": [
          11.346727,
          -2.511575
        ]
      },
      "properties": {
        "label": "Combretastatin",
        "level": 5,
        "pos": "7067386.499169118,12832940.034249023",
        "src_id": "10241",
        "weight": "8.197136337193858e-05"
      }
    },
    {
      "type": "Feature",
      "id": "533",
      "geometry": {
        "type": "Point",
        "coordinates": [
          21.693663,
          8.316367
        ]
      },
      "properties": {
        "label": "Enfuvirtide",
        "level": 1,
        "pos": "14019941.459024476,21949636.888369657",
        "src_id": "102",
        "weight": "0.000991389289108246"
      }
    },
    {
      "type": "Feature",
      "id": "689",
      "geometry": {
        "type": "Point",
        "coordinates": [
          22.638615,
          8.597132
        ]
      },
      "properties": {
        "label": "Caspofungin",
        "level": 1,
        "pos": "14654895.658380568,22187964.604717594",
        "src_id": "507",
        "weight": "0.0008793276447376148"
      }
    },
    {
      "type": "Feature",
      "id": "373",
      "geometry": {
        "type": "Point",
        "coordinates": [
          20.373034,
          6.559063
        ]
      },
      "properties": {
        "label": "Bosentan",
        "level": 1,
        "pos": "13132553.445002373,20461586.67197697",
        "src_id": "546",
        "weight": "0.0009643685767219644"
      }
    },
    {
      "type": "Feature",
      "id": "606",
      "geometry": {
        "type": "Point",
        "coordinates": [
          20.197617,
          6.722619
        ]
      },
      "properties": {
        "label": "Mycophenolic acid",
        "level": 2,
        "pos": "13014682.75229141,20599839.341946784",
        "src_id": "1010",
        "weight": "0.0005090547884202342"
      }
    },
    {
      "type": "Feature",
      "id": "507",
      "geometry": {
        "type": "Point",
        "coordinates": [
          16.07587,
          2.576209
        ]
      },
      "properties": {
        "label": "Rosuvastatin",
        "level": 1,
        "pos": "10245102.972592585,17106157.936985243",
        "src_id": "1082",
        "weight": "0.0007777704093352201"
      }
    },
    {
      "type": "Feature",
      "id": "2513",
      "geometry": {
        "type": "Point",
        "coordinates": [
          16.510461,
          3.234376
        ]
      },
      "properties": {
        "label": "Ipilimumab",
        "level": 5,
        "pos": "10537123.46262091,17659483.462521225",
        "src_id": "5462",
        "weight": "8.685850972219836e-05"
      }
    },
    {
      "type": "Feature",
      "id": "597",
      "geometry": {
        "type": "Point",
        "coordinates": [
          16.765489,
          1.720073
        ]
      },
      "properties": {
        "label": "Nesiritide",
        "level": 1,
        "pos": "10708487.438592277,16386814.94097798",
        "src_id": "4621",
        "weight": "0.0009444605474357639"
      }
    },
    {
      "type": "Feature",
      "id": "1235",
      "geometry": {
        "type": "Point",
        "coordinates": [
          16.615212,
          2.130668
        ]
      },
      "properties": {
        "label": "Vatalanib",
        "level": 4,
        "pos": "10607509.6181417,16731755.535886547",
        "src_id": "4601",
        "weight": "0.0002474347691750474"
      }
    },
    {
      "type": "Feature",
      "id": "2560",
      "geometry": {
        "type": "Point",
        "coordinates": [
          16.49788,
          1.667168
        ]
      },
      "properties": {
        "label": "Carbopol 974P",
        "level": 5,
        "pos": "10528669.60023258,16342375.972928435",
        "src_id": "5014",
        "weight": "9.772858309777382e-05"
      }
    },
    {
      "type": "Feature",
      "id": "2894",
      "geometry": {
        "type": "Point",
        "coordinates": [
          18.592708,
          3.828138
        ]
      },
      "properties": {
        "label": "Indisulam",
        "level": 5,
        "pos": "11936275.213510554,18158969.258487932",
        "src_id": "5571",
        "weight": "7.04635922339616e-05"
      }
    },
    {
      "type": "Feature",
      "id": "2753",
      "geometry": {
        "type": "Point",
        "coordinates": [
          16.680844,
          1.824471
        ]
      },
      "properties": {
        "label": "Laquinimod",
        "level": 5,
        "pos": "10651610.830867236,16474512.053099595",
        "src_id": "5747",
        "weight": "7.100872918655645e-05"
      }
    },
    {
      "type": "Feature",
      "id": "1616",
      "geometry": {
        "type": "Point",
        "coordinates": [
          15.845946,
          1.413311
        ]
      },
      "properties": {
        "label": "Gadofosveset trisodium",
        "level": 4,
        "pos": "10090606.739094907,16129154.945215346",
        "src_id": "5765",
        "weight": "0.00018577699109885955"
      }
    },
    {
      "type": "Feature",
      "id": "1614",
      "geometry": {
        "type": "Point",
        "coordinates": [
          13.970064,
          -0.162058
        ]
      },
      "properties": {
        "label": "Oblimersen",
        "level": 4,
        "pos": "8830120.591107301,14806320.651049037",
        "src_id": "10889",
        "weight": "0.00019497088662990598"
      }
    },
    {
      "type": "Feature",
      "id": "3709",
      "geometry": {
        "type": "Point",
        "coordinates": [
          19.418317,
          4.540325
        ]
      },
      "properties": {
        "label": "Ethiodized oil",
        "level": 5,
        "pos": "12491037.915642984,18758538.65322897",
        "src_id": "951",
        "weight": "4.91683371359699e-05"
      }
    },
    {
      "type": "Feature",
      "id": "3524",
      "geometry": {
        "type": "Point",
        "coordinates": [
          21.309189,
          6.182618
        ]
      },
      "properties": {
        "label": "Zosuquidar",
        "level": 5,
        "pos": "13761596.40813648,20143550.82059017",
        "src_id": "5466",
        "weight": "5.3861276797442e-05"
      }
    },
    {
      "type": "Feature",
      "id": "3262",
      "geometry": {
        "type": "Point",
        "coordinates": [
          12.823944,
          -0.970991
        ]
      },
      "properties": {
        "label": "Etilevodopa",
        "level": 5,
        "pos": "8059993.003899846,14127084.41232058",
        "src_id": "5654",
        "weight": "5.5277870771872894e-05"
      }
    },
    {
      "type": "Feature",
      "id": "3557",
      "geometry": {
        "type": "Point",
        "coordinates": [
          14.49162,
          0.171089
        ]
      },
      "properties": {
        "label": "Dibotermin alfa",
        "level": 5,
        "pos": "9180576.256134432,15086037.850457072",
        "src_id": "9311",
        "weight": "5.3984684039911957e-05"
      }
    },
    {
      "type": "Feature",
      "id": "1541",
      "geometry": {
        "type": "Point",
        "coordinates": [
          16.412844,
          1.986772
        ]
      },
      "properties": {
        "label": "Vinflunine",
        "level": 4,
        "pos": "10471530.095906904,16610859.270161105",
        "src_id": "9313",
        "weight": "0.00015823045415935006"
      }
    },
    {
      "type": "Feature",
      "id": "941",
      "geometry": {
        "type": "Point",
        "coordinates": [
          16.983689,
          3.107614
        ]
      },
      "properties": {
        "label": "Selegiline",
        "level": 3,
        "pos": "10855105.700143494,17552887.569497418",
        "src_id": "1022",
        "weight": "0.00027176231876728307"
      }
    },
    {
      "type": "Feature",
      "id": "1215",
      "geometry": {
        "type": "Point",
        "coordinates": [
          14.001005,
          0.32933
        ]
      },
      "properties": {
        "label": "Lapatinib",
        "level": 3,
        "pos": "8850910.741947958,15218902.33431218",
        "src_id": "1242",
        "weight": "0.0003588424536449816"
      }
    },
    {
      "type": "Feature",
      "id": "1365",
      "geometry": {
        "type": "Point",
        "coordinates": [
          20.770717,
          5.852513
        ]
      },
      "properties": {
        "label": "Cilomilast",
        "level": 4,
        "pos": "13399773.805498933,19864850.86488321",
        "src_id": "3624",
        "weight": "0.00023565448198455005"
      }
    },
    {
      "type": "Feature",
      "id": "753",
      "geometry": {
        "type": "Point",
        "coordinates": [
          19.89198,
          5.213198
        ]
      },
      "properties": {
        "label": "Tocilizumab",
        "level": 2,
        "pos": "12809312.165558508,19325553.63516398",
        "src_id": "5528",
        "weight": "0.0006154134167625618"
      }
    },
    {
      "type": "Feature",
      "id": "3496",
      "geometry": {
        "type": "Point",
        "coordinates": [
          5.145836,
          -15.6116
        ]
      },
      "properties": {
        "label": "Uracil",
        "level": 5,
        "pos": "2900739.5145921386,1669283.7184051734",
        "src_id": "3228",
        "weight": "7.697371368930107e-05"
      }
    },
    {
      "type": "Feature",
      "id": "4641",
      "geometry": {
        "type": "Point",
        "coordinates": [
          5.441911,
          -15.635124
        ]
      },
      "properties": {
        "label": "Hepatectomy",
        "level": 5,
        "pos": "3099685.26050775,1648775.5025043224",
        "src_id": "177862",
        "weight": "4.063031139570666e-05"
      }
    },
    {
      "type": "Feature",
      "id": "428",
      "geometry": {
        "type": "Point",
        "coordinates": [
          18.933223,
          8.953755
        ]
      },
      "properties": {
        "label": "Darbepoetin alfa",
        "level": 1,
        "pos": "12165081.842599533,22490940.390062097",
        "src_id": "12",
        "weight": "0.0010129274041265023"
      }
    },
    {
      "type": "Feature",
      "id": "322",
      "geometry": {
        "type": "Point",
        "coordinates": [
          17.44828,
          6.385129
        ]
      },
      "properties": {
        "label": "Alemtuzumab",
        "level": 1,
        "pos": "11167284.590472175,20314610.932167713",
        "src_id": "82",
        "weight": "0.0011133451830804997"
      }
    },
    {
      "type": "Feature",
      "id": "789",
      "geometry": {
        "type": "Point",
        "coordinates": [
          20.628975,
          9.676803
        ]
      },
      "properties": {
        "label": "Alefacept",
        "level": 2,
        "pos": "13304531.141172184,23106144.186907403",
        "src_id": "87",
        "weight": "0.0005564106897322968"
      }
    },
    {
      "type": "Feature",
      "id": "629",
      "geometry": {
        "type": "Point",
        "coordinates": [
          20.756535,
          10.564545
        ]
      },
      "properties": {
        "label": "Efalizumab",
        "level": 1,
        "pos": "13390244.38688807,23863300.40540303",
        "src_id": "90",
        "weight": "0.0008119471057986142"
      }
    },
    {
      "type": "Feature",
      "id": "517",
      "geometry": {
        "type": "Point",
        "coordinates": [
          21.230825,
          11.683209
        ]
      },
      "properties": {
        "label": "Pimecrolimus",
        "level": 1,
        "pos": "13708940.405617671,24820555.566172287",
        "src_id": "327",
        "weight": "0.0009915391499522041"
      }
    },
    {
      "type": "Feature",
      "id": "608",
      "geometry": {
        "type": "Point",
        "coordinates": [
          20.818302,
          11.654911
        ]
      },
      "properties": {
        "label": "Telithromycin",
        "level": 1,
        "pos": "13431747.952721024,24796294.394551136",
        "src_id": "962",
        "weight": "0.0008932092135476258"
      }
    },
    {
      "type": "Feature",
      "id": "459",
      "geometry": {
        "type": "Point",
        "coordinates": [
          18.827399,
          11.261043
        ]
      },
      "properties": {
        "label": "Prasterone",
        "level": 2,
        "pos": "12093974.396196093,24458869.398762453",
        "src_id": "1633",
        "weight": "0.0004559143523149565"
      }
    },
    {
      "type": "Feature",
      "id": "601",
      "geometry": {
        "type": "Point",
        "coordinates": [
          20.27905,
          10.885177
        ]
      },
      "properties": {
        "label": "Ximelagatran",
        "level": 2,
        "pos": "13069401.739888458,24137296.959375225",
        "src_id": "4620",
        "weight": "0.0006574546048704421"
      }
    },
    {
      "type": "Feature",
      "id": "859",
      "geometry": {
        "type": "Point",
        "coordinates": [
          19.708091,
          11.121708
        ]
      },
      "properties": {
        "label": "Teriparatide",
        "level": 2,
        "pos": "12685749.394602489,24339612.74979475",
        "src_id": "5535",
        "weight": "0.00049316584108434"
      }
    },
    {
      "type": "Feature",
      "id": "497",
      "geometry": {
        "type": "Point",
        "coordinates": [
          15.413763,
          5.126444
        ]
      },
      "properties": {
        "label": "Dutasteride",
        "level": 1,
        "pos": "9800204.045304975,19252415.275167547",
        "src_id": "1110",
        "weight": "0.0010300789134302269"
      }
    },
    {
      "type": "Feature",
      "id": "382",
      "geometry": {
        "type": "Point",
        "coordinates": [
          18.682878,
          8.525547
        ]
      },
      "properties": {
        "label": "Natalizumab",
        "level": 2,
        "pos": "11996864.087379722,22127183.395338938",
        "src_id": "101",
        "weight": "0.0006462096844952086"
      }
    },
    {
      "type": "Feature",
      "id": "271",
      "geometry": {
        "type": "Point",
        "coordinates": [
          18.490025,
          8.688309
        ]
      },
      "properties": {
        "label": "Imatinib",
        "level": 1,
        "pos": "11867278.126689821,22265398.47960592",
        "src_id": "606",
        "weight": "0.0008930823862417737"
      }
    },
    {
      "type": "Feature",
      "id": "276",
      "geometry": {
        "type": "Point",
        "coordinates": [
          18.282195,
          8.430933
        ]
      },
      "properties": {
        "label": "Doxorubicin",
        "level": 2,
        "pos": "11727628.32876662,22046865.2128633",
        "src_id": "983",
        "weight": "0.00046241828472375513"
      }
    },
    {
      "type": "Feature",
      "id": "339",
      "geometry": {
        "type": "Point",
        "coordinates": [
          18.059224,
          7.912102
        ]
      },
      "properties": {
        "label": "Everolimus",
        "level": 3,
        "pos": "11577804.069174089,21606773.776896443",
        "src_id": "1523",
        "weight": "0.0003774419441663236"
      }
    },
    {
      "type": "Feature",
      "id": "1641",
      "geometry": {
        "type": "Point",
        "coordinates": [
          21.532231,
          11.544207
        ]
      },
      "properties": {
        "label": "Aminopterin",
        "level": 4,
        "pos": "13911468.054294398,24701407.422548708",
        "src_id": "7837",
        "weight": "0.00016207983992855849"
      }
    },
    {
      "type": "Feature",
      "id": "2926",
      "geometry": {
        "type": "Point",
        "coordinates": [
          21.796444,
          11.450365
        ]
      },
      "properties": {
        "label": "Mibefradil",
        "level": 5,
        "pos": "14089004.051878506,24621002.042419568",
        "src_id": "1335",
        "weight": "6.065692986641559e-05"
      }
    },
    {
      "type": "Feature",
      "id": "3059",
      "geometry": {
        "type": "Point",
        "coordinates": [
          21.305575,
          11.334641
        ]
      },
      "properties": {
        "label": "Rapacuronium",
        "level": 5,
        "pos": "13759167.725482643,24521885.158105183",
        "src_id": "4556",
        "weight": "5.660825512033329e-05"
      }
    },
    {
      "type": "Feature",
      "id": "553",
      "geometry": {
        "type": "Point",
        "coordinates": [
          22.453201,
          12.949311
        ]
      },
      "properties": {
        "label": "Botulinum Toxin Type B",
        "level": 1,
        "pos": "14530307.94506917,25908668.634653322",
        "src_id": "41",
        "weight": "0.0009014581881778"
      }
    },
    {
      "type": "Feature",
      "id": "598",
      "geometry": {
        "type": "Point",
        "coordinates": [
          21.947715,
          12.239019
        ]
      },
      "properties": {
        "label": "Eletriptan",
        "level": 1,
        "pos": "14190649.882286489,25297585.080539946",
        "src_id": "207",
        "weight": "0.0008020786577466954"
      }
    },
    {
      "type": "Feature",
      "id": "1643",
      "geometry": {
        "type": "Point",
        "coordinates": [
          21.511252,
          12.142691
        ]
      },
      "properties": {
        "label": "Abetimus",
        "level": 4,
        "pos": "13897371.2017436,25214840.040617064",
        "src_id": "5731",
        "weight": "0.0001598418923065245"
      }
    },
    {
      "type": "Feature",
      "id": "1762",
      "geometry": {
        "type": "Point",
        "coordinates": [
          21.574433,
          13.560059
        ]
      },
      "properties": {
        "label": "Abarelix",
        "level": 4,
        "pos": "13939825.557572275,26435503.095024597",
        "src_id": "99",
        "weight": "0.00013368238544493057"
      }
    },
    {
      "type": "Feature",
      "id": "719",
      "geometry": {
        "type": "Point",
        "coordinates": [
          22.294107,
          13.895138
        ]
      },
      "properties": {
        "label": "Rofecoxib",
        "level": 3,
        "pos": "14423405.807718005,26725116.136760853",
        "src_id": "520",
        "weight": "0.0003836120759422941"
      }
    },
    {
      "type": "Feature",
      "id": "1826",
      "geometry": {
        "type": "Point",
        "coordinates": [
          22.104137,
          13.396025
        ]
      },
      "properties": {
        "label": "Colesevelam",
        "level": 4,
        "pos": "14295756.417033864,26293875.972861387",
        "src_id": "916",
        "weight": "0.00013674106914477827"
      }
    },
    {
      "type": "Feature",
      "id": "812",
      "geometry": {
        "type": "Point",
        "coordinates": [
          21.733592,
          13.710546
        ]
      },
      "properties": {
        "label": "Natural alpha interferon",
        "level": 3,
        "pos": "14046771.343296802,26565520.01108492",
        "src_id": "4929",
        "weight": "0.0003929200933343115"
      }
    },
    {
      "type": "Feature",
      "id": "2420",
      "geometry": {
        "type": "Point",
        "coordinates": [
          21.672115,
          13.279487
        ]
      },
      "properties": {
        "label": "Trimegestone",
        "level": 5,
        "pos": "14005461.892374018,26193316.023416765",
        "src_id": "10753",
        "weight": "8.849809078249714e-05"
      }
    },
    {
      "type": "Feature",
      "id": "1807",
      "geometry": {
        "type": "Point",
        "coordinates": [
          22.158728,
          13.916018
        ]
      },
      "properties": {
        "label": "Amprenavir",
        "level": 4,
        "pos": "14332438.537044339,26743176.577494115",
        "src_id": "687",
        "weight": "0.00015973402846137326"
      }
    },
    {
      "type": "Feature",
      "id": "3343",
      "geometry": {
        "type": "Point",
        "coordinates": [
          21.368084,
          13.365642
        ]
      },
      "properties": {
        "label": "Dofetilide",
        "level": 5,
        "pos": "13801170.326981453,26267653.622628603",
        "src_id": "195",
        "weight": "5.829615119198504e-05"
      }
    },
    {
      "type": "Feature",
      "id": "3390",
      "geometry": {
        "type": "Point",
        "coordinates": [
          22.011889,
          13.565236
        ]
      },
      "properties": {
        "label": "Dydrogesterone",
        "level": 5,
        "pos": "14233771.160871606,26439974.666711453",
        "src_id": "368",
        "weight": "6.007280565271417e-05"
      }
    },
    {
      "type": "Feature",
      "id": "3387",
      "geometry": {
        "type": "Point",
        "coordinates": [
          21.524878,
          13.334335
        ]
      },
      "properties": {
        "label": "Trimetrexate",
        "level": 5,
        "pos": "13906527.491184413,26240637.883133158",
        "src_id": "1141",
        "weight": "6.007280565271417e-05"
      }
    },
    {
      "type": "Feature",
      "id": "3379",
      "geometry": {
        "type": "Point",
        "coordinates": [
          22.03794,
          13.181298
        ]
      },
      "properties": {
        "label": "Capravirine",
        "level": 5,
        "pos": "14251275.56557203,26108626.007991992",
        "src_id": "7495",
        "weight": "6.007280565271417e-05"
      }
    },
    {
      "type": "Feature",
      "id": "3377",
      "geometry": {
        "type": "Point",
        "coordinates": [
          22.129186,
          13.152614
        ]
      },
      "properties": {
        "label": "Synthetic Conjugated Estrogens, B",
        "level": 5,
        "pos": "14312587.9149102,26083892.36693855",
        "src_id": "8257",
        "weight": "6.007280565271417e-05"
      }
    },
    {
      "type": "Feature",
      "id": "1902",
      "geometry": {
        "type": "Point",
        "coordinates": [
          21.787988,
          13.497823
        ]
      },
      "properties": {
        "label": "Micafungin",
        "level": 4,
        "pos": "14083322.50496072,26381757.29766553",
        "src_id": "1125",
        "weight": "0.00015170961121552734"
      }
    },
    {
      "type": "Feature",
      "id": "2436",
      "geometry": {
        "type": "Point",
        "coordinates": [
          21.869214,
          13.293132
        ]
      },
      "properties": {
        "label": "Tezosentan",
        "level": 5,
        "pos": "14137901.623990558,26205087.336371597",
        "src_id": "5666",
        "weight": "9.844525295207145e-05"
      }
    },
    {
      "type": "Feature",
      "id": "2430",
      "geometry": {
        "type": "Point",
        "coordinates": [
          21.387931,
          13.635355
        ]
      },
      "properties": {
        "label": "Eczema",
        "level": 4,
        "pos": "13814506.62357796,26500546.326693945",
        "src_id": "175613",
        "weight": "0.00014898401379658807"
      }
    },
    {
      "type": "Feature",
      "id": "391",
      "geometry": {
        "type": "Point",
        "coordinates": [
          21.047178,
          14.180733
        ]
      },
      "properties": {
        "label": "Ezetimibe",
        "level": 1,
        "pos": "13585539.711757647,26972289.617918193",
        "src_id": "959",
        "weight": "0.0010894612491933154"
      }
    },
    {
      "type": "Feature",
      "id": "821",
      "geometry": {
        "type": "Point",
        "coordinates": [
          20.77969,
          13.71756
        ]
      },
      "properties": {
        "label": "Ertapenem",
        "level": 3,
        "pos": "13405802.944756476,26571581.30001715",
        "src_id": "294",
        "weight": "0.0003582751730199862"
      }
    },
    {
      "type": "Feature",
      "id": "1400",
      "geometry": {
        "type": "Point",
        "coordinates": [
          20.367488,
          13.48517
        ]
      },
      "properties": {
        "label": "Anidulafungin",
        "level": 4,
        "pos": "13128826.923220865,26370831.510283336",
        "src_id": "352",
        "weight": "0.00020461638580879986"
      }
    },
    {
      "type": "Feature",
      "id": "862",
      "geometry": {
        "type": "Point",
        "coordinates": [
          19.992846,
          13.508803
        ]
      },
      "properties": {
        "label": "Eplerenone",
        "level": 3,
        "pos": "12877088.433270792,26391238.201599956",
        "src_id": "686",
        "weight": "0.00040244734313937537"
      }
    },
    {
      "type": "Feature",
      "id": "489",
      "geometry": {
        "type": "Point",
        "coordinates": [
          20.016065,
          13.744735
        ]
      },
      "properties": {
        "label": "Clopidogrel",
        "level": 2,
        "pos": "12892690.691379014,26595070.011177883",
        "src_id": "744",
        "weight": "0.0004825308726021377"
      }
    },
    {
      "type": "Feature",
      "id": "2334",
      "geometry": {
        "type": "Point",
        "coordinates": [
          19.738495,
          13.082929
        ]
      },
      "properties": {
        "label": "Torcetrapib",
        "level": 5,
        "pos": "12706179.150729144,26023815.565291762",
        "src_id": "5532",
        "weight": "9.427028670118431e-05"
      }
    },
    {
      "type": "Feature",
      "id": "1075",
      "geometry": {
        "type": "Point",
        "coordinates": [
          21.101644,
          13.698909
        ]
      },
      "properties": {
        "label": "Mepolizumab",
        "level": 3,
        "pos": "13622137.763439588,26555462.51483832",
        "src_id": "5700",
        "weight": "0.00031399290698037456"
      }
    },
    {
      "type": "Feature",
      "id": "3569",
      "geometry": {
        "type": "Point",
        "coordinates": [
          21.349564,
          13.193974
        ]
      },
      "properties": {
        "label": "Idursulfase",
        "level": 5,
        "pos": "13788725.960407212,26119557.941409834",
        "src_id": "1254",
        "weight": "4.3061234073154183e-05"
      }
    },
    {
      "type": "Feature",
      "id": "3568",
      "geometry": {
        "type": "Point",
        "coordinates": [
          20.720823,
          13.313188
        ]
      },
      "properties": {
        "label": "Vildagliptin",
        "level": 5,
        "pos": "13366247.899772717,26222390.995859537",
        "src_id": "4598",
        "weight": "4.3061234073154183e-05"
      }
    },
    {
      "type": "Feature",
      "id": "3567",
      "geometry": {
        "type": "Point",
        "coordinates": [
          20.293999,
          13.263336
        ]
      },
      "properties": {
        "label": "Alfimeprase",
        "level": 5,
        "pos": "13079446.39576223,26179382.82553191",
        "src_id": "4637",
        "weight": "4.3061234073154183e-05"
      }
    },
    {
      "type": "Feature",
      "id": "3566",
      "geometry": {
        "type": "Point",
        "coordinates": [
          21.188706,
          13.224615
        ]
      },
      "properties": {
        "label": "Canfosfamide",
        "level": 5,
        "pos": "13680638.49545767,26145984.02083021",
        "src_id": "4681",
        "weight": "4.3061234073154183e-05"
      }
    },
    {
      "type": "Feature",
      "id": "3565",
      "geometry": {
        "type": "Point",
        "coordinates": [
          19.84251,
          13.142181
        ]
      },
      "properties": {
        "label": "Labetuzumab",
        "level": 5,
        "pos": "12776071.420672007,26074896.82605509",
        "src_id": "4787",
        "weight": "4.3061234073154183e-05"
      }
    },
    {
      "type": "Feature",
      "id": "3564",
      "geometry": {
        "type": "Point",
        "coordinates": [
          20.536149,
          13.294236
        ]
      },
      "properties": {
        "label": "Tetomilast",
        "level": 5,
        "pos": "13242157.38791249,26206040.109694194",
        "src_id": "4954",
        "weight": "4.3061234073154183e-05"
      }
    },
    {
      "type": "Feature",
      "id": "3562",
      "geometry": {
        "type": "Point",
        "coordinates": [
          20.118809,
          13.228426
        ]
      },
      "properties": {
        "label": "Repinotan",
        "level": 5,
        "pos": "12961728.487684676,26149270.56769128",
        "src_id": "5640",
        "weight": "4.3061234073154183e-05"
      }
    },
    {
      "type": "Feature",
      "id": "3561",
      "geometry": {
        "type": "Point",
        "coordinates": [
          20.908648,
          13.309756
        ]
      },
      "properties": {
        "label": "Enclomiphene",
        "level": 5,
        "pos": "13492455.266282672,26219429.95269714",
        "src_id": "5794",
        "weight": "4.3061234073154183e-05"
      }
    },
    {
      "type": "Feature",
      "id": "5984",
      "geometry": {
        "type": "Point",
        "coordinates": [
          21.054574,
          13.480594
        ]
      },
      "properties": {
        "label": "Cangrelor",
        "level": 5,
        "pos": "13590509.739418516,26366881.094641596",
        "src_id": "5605",
        "weight": "3.1411218064049905e-05"
      }
    },
    {
      "type": "Feature",
      "id": "2512",
      "geometry": {
        "type": "Point",
        "coordinates": [
          19.495029,
          12.431351
        ]
      },
      "properties": {
        "label": "Thrombin",
        "level": 5,
        "pos": "12542583.652911676,25462886.664922457",
        "src_id": "9184",
        "weight": "0.00011926488876836063"
      }
    },
    {
      "type": "Feature",
      "id": "1229",
      "geometry": {
        "type": "Point",
        "coordinates": [
          19.34604,
          13.342931
        ]
      },
      "properties": {
        "label": "Pegaptanib",
        "level": 3,
        "pos": "12442471.700787054,26248055.15111999",
        "src_id": "4617",
        "weight": "0.00026913066621054357"
      }
    },
    {
      "type": "Feature",
      "id": "1696",
      "geometry": {
        "type": "Point",
        "coordinates": [
          18.947176,
          12.831061
        ]
      },
      "properties": {
        "label": "Miglustat",
        "level": 4,
        "pos": "12174457.752631966,25806816.44973827",
        "src_id": "408",
        "weight": "0.00013385503554765298"
      }
    },
    {
      "type": "Feature",
      "id": "1447",
      "geometry": {
        "type": "Point",
        "coordinates": [
          19.268367,
          12.956318
        ]
      },
      "properties": {
        "label": "Cinacalcet",
        "level": 4,
        "pos": "12390279.644742502,25914705.860597875",
        "src_id": "998",
        "weight": "0.0001915221656246438"
      }
    },
    {
      "type": "Feature",
      "id": "1068",
      "geometry": {
        "type": "Point",
        "coordinates": [
          19.030975,
          13.096311
        ]
      },
      "properties": {
        "label": "Solifenacin",
        "level": 3,
        "pos": "12230765.808589345,26035351.35782874",
        "src_id": "1524",
        "weight": "0.00028560175185111643"
      }
    },
    {
      "type": "Feature",
      "id": "966",
      "geometry": {
        "type": "Point",
        "coordinates": [
          17.864432,
          7.774261
        ]
      },
      "properties": {
        "label": "Telmisartan",
        "level": 3,
        "pos": "11446914.821105942,21489946.927675754",
        "src_id": "952",
        "weight": "0.00032863937851760667"
      }
    },
    {
      "type": "Feature",
      "id": "1055",
      "geometry": {
        "type": "Point",
        "coordinates": [
          16.80347,
          6.869722
        ]
      },
      "properties": {
        "label": "Alendronic acid",
        "level": 3,
        "pos": "10734008.964134378,20724223.766406316",
        "src_id": "617",
        "weight": "0.0003952261652566047"
      }
    },
    {
      "type": "Feature",
      "id": "654",
      "geometry": {
        "type": "Point",
        "coordinates": [
          13.440951,
          6.398379
        ]
      },
      "properties": {
        "label": "Prilocaine",
        "level": 3,
        "pos": "8474586.32334554,20325805.82191273",
        "src_id": "736",
        "weight": "0.00037662041948279906"
      }
    },
    {
      "type": "Feature",
      "id": "2350",
      "geometry": {
        "type": "Point",
        "coordinates": [
          13.176726,
          4.977032
        ]
      },
      "properties": {
        "label": "Abatacept",
        "level": 5,
        "pos": "8297042.373913355,19126476.097273707",
        "src_id": "1264",
        "weight": "9.13828750653854e-05"
      }
    },
    {
      "type": "Feature",
      "id": "5914",
      "geometry": {
        "type": "Point",
        "coordinates": [
          18.674346,
          10.213938
        ]
      },
      "properties": {
        "label": "Progressive multiple sclerosis",
        "level": 5,
        "pos": "11991131.408064535,23564016.162942935",
        "src_id": "184219",
        "weight": "2.5640297461734896e-05"
      }
    },
    {
      "type": "Feature",
      "id": "2762",
      "geometry": {
        "type": "Point",
        "coordinates": [
          18.76258,
          10.438469
        ]
      },
      "properties": {
        "label": "Progressive multifocal leukoencephalopathy",
        "level": 4,
        "pos": "12050419.2598988,23755641.563954093",
        "src_id": "184218",
        "weight": "0.00012302782044056916"
      }
    },
    {
      "type": "Feature",
      "id": "4130",
      "geometry": {
        "type": "Point",
        "coordinates": [
          18.144393,
          10.631291
        ]
      },
      "properties": {
        "label": "Chronic myeloid leukaemia",
        "level": 5,
        "pos": "11635032.99840819,23920314.621956266",
        "src_id": "173721",
        "weight": "0.00011771036903522345"
      }
    },
    {
      "type": "Feature",
      "id": "6577",
      "geometry": {
        "type": "Point",
        "coordinates": [
          18.473315,
          10.385907
        ]
      },
      "properties": {
        "label": "Gastrointestinal stromal tumour",
        "level": 5,
        "pos": "11856050.070194893,23710770.207083896",
        "src_id": "177224",
        "weight": "2.4160455215342254e-05"
      }
    },
    {
      "type": "Feature",
      "id": "449",
      "geometry": {
        "type": "Point",
        "coordinates": [
          17.975872,
          10.284826
        ]
      },
      "properties": {
        "label": "Cisplatin",
        "level": 3,
        "pos": "11521796.203975089,23624500.643045384",
        "src_id": "502",
        "weight": "0.00035797076349295234"
      }
    },
    {
      "type": "Feature",
      "id": "461",
      "geometry": {
        "type": "Point",
        "coordinates": [
          18.175726,
          10.426797
        ]
      },
      "properties": {
        "label": "Vincristine",
        "level": 3,
        "pos": "11656087.051826544,23745676.320202455",
        "src_id": "528",
        "weight": "0.0003360290056373091"
      }
    },
    {
      "type": "Feature",
      "id": "4086",
      "geometry": {
        "type": "Point",
        "coordinates": [
          18.01632,
          9.721612
        ]
      },
      "properties": {
        "label": "Stomatitis",
        "level": 5,
        "pos": "11548974.991535481,23144312.381158534",
        "src_id": "186424",
        "weight": "8.804945267755679e-05"
      }
    },
    {
      "type": "Feature",
      "id": "3181",
      "geometry": {
        "type": "Point",
        "coordinates": [
          17.834777,
          9.425621
        ]
      },
      "properties": {
        "label": "Astrocytoma, low grade",
        "level": 5,
        "pos": "11426988.347357836,22892281.686111927",
        "src_id": "171047",
        "weight": "8.895194744426978e-05"
      }
    },
    {
      "type": "Feature",
      "id": "1942",
      "geometry": {
        "type": "Point",
        "coordinates": [
          22.846559,
          13.115861
        ]
      },
      "properties": {
        "label": "Amiloride",
        "level": 4,
        "pos": "14794622.181277744,26052205.117804788",
        "src_id": "581",
        "weight": "0.0001401737373350006"
      }
    },
    {
      "type": "Feature",
      "id": "767",
      "geometry": {
        "type": "Point",
        "coordinates": [
          23.79881,
          15.122219
        ]
      },
      "properties": {
        "label": "Drotrecogin alfa",
        "level": 1,
        "pos": "15434480.851351416,27789360.934089586",
        "src_id": "54",
        "weight": "0.0007666220608670227"
      }
    },
    {
      "type": "Feature",
      "id": "2552",
      "geometry": {
        "type": "Point",
        "coordinates": [
          22.98399,
          14.37234
        ]
      },
      "properties": {
        "label": "Clofazimine",
        "level": 5,
        "pos": "14886967.50472847,27138293.99289159",
        "src_id": "831",
        "weight": "8.102587613154775e-05"
      }
    },
    {
      "type": "Feature",
      "id": "2550",
      "geometry": {
        "type": "Point",
        "coordinates": [
          22.425999,
          14.276874
        ]
      },
      "properties": {
        "label": "Seocalcitol",
        "level": 5,
        "pos": "14512029.430384897,27055566.12575051",
        "src_id": "4013",
        "weight": "8.102587613154775e-05"
      }
    },
    {
      "type": "Feature",
      "id": "1948",
      "geometry": {
        "type": "Point",
        "coordinates": [
          22.625413,
          14.995415
        ]
      },
      "properties": {
        "label": "Licofelone",
        "level": 4,
        "pos": "14646024.210908405,27679107.23012094",
        "src_id": "4449",
        "weight": "0.0001427899340976177"
      }
    },
    {
      "type": "Feature",
      "id": "2586",
      "geometry": {
        "type": "Point",
        "coordinates": [
          24.037853,
          15.506005
        ]
      },
      "properties": {
        "label": "Ospemifene",
        "level": 5,
        "pos": "15595103.907304775,28123459.833767843",
        "src_id": "4652",
        "weight": "9.095595063829417e-05"
      }
    },
    {
      "type": "Feature",
      "id": "1520",
      "geometry": {
        "type": "Point",
        "coordinates": [
          23.606023,
          14.775024
        ]
      },
      "properties": {
        "label": "Troxacitabine",
        "level": 4,
        "pos": "15304938.615894217,27487636.909440514",
        "src_id": "4672",
        "weight": "0.0001829325951100737"
      }
    },
    {
      "type": "Feature",
      "id": "2549",
      "geometry": {
        "type": "Point",
        "coordinates": [
          23.541458,
          14.484578
        ]
      },
      "properties": {
        "label": "Pradefovir Mesylate",
        "level": 5,
        "pos": "15261554.418331657,27235600.2360438",
        "src_id": "5100",
        "weight": "8.102587613154775e-05"
      }
    },
    {
      "type": "Feature",
      "id": "2548",
      "geometry": {
        "type": "Point",
        "coordinates": [
          23.337355,
          14.120121
        ]
      },
      "properties": {
        "label": "Oglufanide",
        "level": 5,
        "pos": "15124409.163912995,26919805.738085978",
        "src_id": "5243",
        "weight": "8.102587613154775e-05"
      }
    },
    {
      "type": "Feature",
      "id": "2584",
      "geometry": {
        "type": "Point",
        "coordinates": [
          22.746752,
          14.53149
        ]
      },
      "properties": {
        "label": "Ciluprevir",
        "level": 5,
        "pos": "14727557.249792881,27276286.030173287",
        "src_id": "5317",
        "weight": "9.095595063829417e-05"
      }
    },
    {
      "type": "Feature",
      "id": "1221",
      "geometry": {
        "type": "Point",
        "coordinates": [
          23.528883,
          14.88574
        ]
      },
      "properties": {
        "label": "Rimonabant",
        "level": 4,
        "pos": "15253104.907674767,27583800.104863163",
        "src_id": "5443",
        "weight": "0.0002494467288451644"
      }
    },
    {
      "type": "Feature",
      "id": "1899",
      "geometry": {
        "type": "Point",
        "coordinates": [
          23.416346,
          14.794505
        ]
      },
      "properties": {
        "label": "Pixantrone",
        "level": 4,
        "pos": "15177486.698111817,27504553.539784472",
        "src_id": "5468",
        "weight": "0.00013193581228214282"
      }
    },
    {
      "type": "Feature",
      "id": "3090",
      "geometry": {
        "type": "Point",
        "coordinates": [
          22.92569,
          14.706728
        ]
      },
      "properties": {
        "label": "Ferumoxytol",
        "level": 5,
        "pos": "14847793.681602793,27428342.26460985",
        "src_id": "5488",
        "weight": "6.292799246692454e-05"
      }
    },
    {
      "type": "Feature",
      "id": "2547",
      "geometry": {
        "type": "Point",
        "coordinates": [
          22.529806,
          14.597959
        ]
      },
      "properties": {
        "label": "Maribavir",
        "level": 5,
        "pos": "14581781.9153985,27333947.735736452",
        "src_id": "5499",
        "weight": "8.102587613154775e-05"
      }
    },
    {
      "type": "Feature",
      "id": "1481",
      "geometry": {
        "type": "Point",
        "coordinates": [
          22.919458,
          14.965956
        ]
      },
      "properties": {
        "label": "Arzoxifene",
        "level": 4,
        "pos": "14843605.78748905,27653502.78624897",
        "src_id": "5511",
        "weight": "0.00016358319353085825"
      }
    },
    {
      "type": "Feature",
      "id": "2546",
      "geometry": {
        "type": "Point",
        "coordinates": [
          22.462143,
          14.227829
        ]
      },
      "properties": {
        "label": "Alvimopan",
        "level": 5,
        "pos": "14536316.26452486,27013079.33122569",
        "src_id": "5529",
        "weight": "8.102587613154775e-05"
      }
    },
    {
      "type": "Feature",
      "id": "3183",
      "geometry": {
        "type": "Point",
        "coordinates": [
          23.532864,
          14.370768
        ]
      },
      "properties": {
        "label": "Radium Ra 223 Dichloride",
        "level": 5,
        "pos": "15255780.307130974,27136931.237374853",
        "src_id": "7872",
        "weight": "5.553394878015505e-05"
      }
    },
    {
      "type": "Feature",
      "id": "3182",
      "geometry": {
        "type": "Point",
        "coordinates": [
          23.034325,
          14.783984
        ]
      },
      "properties": {
        "label": "Ortataxel",
        "level": 5,
        "pos": "14920789.86902087,27495417.816061534",
        "src_id": "9341",
        "weight": "5.553394878015505e-05"
      }
    },
    {
      "type": "Feature",
      "id": "2286",
      "geometry": {
        "type": "Point",
        "coordinates": [
          22.272844,
          13.835649
        ]
      },
      "properties": {
        "label": "Soblidotin",
        "level": 5,
        "pos": "14409117.955072185,26673668.472930543",
        "src_id": "10317",
        "weight": "8.673773379445213e-05"
      }
    },
    {
      "type": "Feature",
      "id": "2542",
      "geometry": {
        "type": "Point",
        "coordinates": [
          23.392773,
          14.182429
        ]
      },
      "properties": {
        "label": "Amithiozone",
        "level": 5,
        "pos": "15161646.73693218,26973758.18353272",
        "src_id": "10462",
        "weight": "8.102587613154775e-05"
      }
    },
    {
      "type": "Feature",
      "id": "1859",
      "geometry": {
        "type": "Point",
        "coordinates": [
          22.398347,
          14.197829
        ]
      },
      "properties": {
        "label": "Urocortin-2",
        "level": 5,
        "pos": "14493448.63522856,26987095.885838255",
        "src_id": "10660",
        "weight": "0.00011335303232039512"
      }
    },
    {
      "type": "Feature",
      "id": "2541",
      "geometry": {
        "type": "Point",
        "coordinates": [
          22.427258,
          14.355917
        ]
      },
      "properties": {
        "label": "Valopicitabine",
        "level": 5,
        "pos": "14512875.618773954,27124059.87885125",
        "src_id": "10955",
        "weight": "8.102587613154775e-05"
      }
    },
    {
      "type": "Feature",
      "id": "2040",
      "geometry": {
        "type": "Point",
        "coordinates": [
          22.677657,
          14.974405
        ]
      },
      "properties": {
        "label": "Estradiol acetate",
        "level": 4,
        "pos": "14681129.4501804,27660845.953216244",
        "src_id": "10984",
        "weight": "0.0001199197969103888"
      }
    },
    {
      "type": "Feature",
      "id": "2355",
      "geometry": {
        "type": "Point",
        "coordinates": [
          23.34437,
          14.213849
        ]
      },
      "properties": {
        "label": "Denileukin diftitox",
        "level": 5,
        "pos": "15129122.92416972,27000970.326771863",
        "src_id": "4",
        "weight": "9.848678717779257e-05"
      }
    },
    {
      "type": "Feature",
      "id": "2354",
      "geometry": {
        "type": "Point",
        "coordinates": [
          23.322313,
          14.97112
        ]
      },
      "properties": {
        "label": "Zanamivir",
        "level": 5,
        "pos": "15114301.479789374,27657991.22786531",
        "src_id": "545",
        "weight": "9.848678717779257e-05"
      }
    },
    {
      "type": "Feature",
      "id": "1593",
      "geometry": {
        "type": "Point",
        "coordinates": [
          23.535065,
          15.472317
        ]
      },
      "properties": {
        "label": "Imiquimod",
        "level": 4,
        "pos": "15257258.925536413,28094108.500972178",
        "src_id": "710",
        "weight": "0.00019085908576135555"
      }
    },
    {
      "type": "Feature",
      "id": "1592",
      "geometry": {
        "type": "Point",
        "coordinates": [
          23.806619,
          14.730612
        ]
      },
      "properties": {
        "label": "Lanoteplase",
        "level": 4,
        "pos": "15439727.580701089,27449076.676983085",
        "src_id": "5507",
        "weight": "0.00019085908576135557"
      }
    },
    {
      "type": "Feature",
      "id": "2348",
      "geometry": {
        "type": "Point",
        "coordinates": [
          23.432205,
          14.288538
        ]
      },
      "properties": {
        "label": "Enrasentan",
        "level": 5,
        "pos": "15188142.720012182,27065672.56429271",
        "src_id": "5618",
        "weight": "9.848678717779257e-05"
      }
    },
    {
      "type": "Feature",
      "id": "2347",
      "geometry": {
        "type": "Point",
        "coordinates": [
          23.474338,
          14.753879
        ]
      },
      "properties": {
        "label": "Benidipine",
        "level": 5,
        "pos": "15216454.160181187,27469277.294503663",
        "src_id": "8171",
        "weight": "9.848678717779257e-05"
      }
    },
    {
      "type": "Feature",
      "id": "2346",
      "geometry": {
        "type": "Point",
        "coordinates": [
          22.470145,
          14.313897
        ]
      },
      "properties": {
        "label": "Manidipine",
        "level": 5,
        "pos": "14541693.314291963,27087645.241745893",
        "src_id": "8178",
        "weight": "9.848678717779257e-05"
      }
    },
    {
      "type": "Feature",
      "id": "2345",
      "geometry": {
        "type": "Point",
        "coordinates": [
          22.42811,
          14.335389
        ]
      },
      "properties": {
        "label": "Mizolastine",
        "level": 5,
        "pos": "14513448.039068395,27106269.670883037",
        "src_id": "10171",
        "weight": "9.848678717779257e-05"
      }
    },
    {
      "type": "Feature",
      "id": "2473",
      "geometry": {
        "type": "Point",
        "coordinates": [
          22.557954,
          14.410781
        ]
      },
      "properties": {
        "label": "Reteplase",
        "level": 5,
        "pos": "14600695.725949652,27171614.955752864",
        "src_id": "15",
        "weight": "0.00010241024325848408"
      }
    },
    {
      "type": "Feature",
      "id": "2471",
      "geometry": {
        "type": "Point",
        "coordinates": [
          23.324221,
          14.996312
        ]
      },
      "properties": {
        "label": "Dexrazoxane",
        "level": 5,
        "pos": "15115583.936684106,27679887.523122746",
        "src_id": "370",
        "weight": "0.00010241024325848408"
      }
    },
    {
      "type": "Feature",
      "id": "2411",
      "geometry": {
        "type": "Point",
        "coordinates": [
          23.1232,
          14.943123
        ]
      },
      "properties": {
        "label": "Formoterol",
        "level": 5,
        "pos": "14980508.87133042,27633659.715021476",
        "src_id": "969",
        "weight": "0.00011797302085009573"
      }
    },
    {
      "type": "Feature",
      "id": "2468",
      "geometry": {
        "type": "Point",
        "coordinates": [
          23.546359,
          14.570839
        ]
      },
      "properties": {
        "label": "Tanomastat",
        "level": 5,
        "pos": "15264847.723592672,27310419.002611883",
        "src_id": "5530",
        "weight": "0.00010241024325848409"
      }
    },
    {
      "type": "Feature",
      "id": "2467",
      "geometry": {
        "type": "Point",
        "coordinates": [
          23.655063,
          14.531177
        ]
      },
      "properties": {
        "label": "Semaxanib",
        "level": 5,
        "pos": "15337890.854621986,27276014.873470988",
        "src_id": "5601",
        "weight": "0.00010241024325848409"
      }
    },
    {
      "type": "Feature",
      "id": "2466",
      "geometry": {
        "type": "Point",
        "coordinates": [
          22.592471,
          14.887088
        ]
      },
      "properties": {
        "label": "Ravuconazole",
        "level": 5,
        "pos": "14623889.422870316,27584970.98862168",
        "src_id": "5604",
        "weight": "0.00010241024325848409"
      }
    },
    {
      "type": "Feature",
      "id": "2219",
      "geometry": {
        "type": "Point",
        "coordinates": [
          22.591578,
          14.632453
        ]
      },
      "properties": {
        "label": "Cerivastatin",
        "level": 5,
        "pos": "14623289.24414449,27363877.89653475",
        "src_id": "428",
        "weight": "0.00010054345477630538"
      }
    },
    {
      "type": "Feature",
      "id": "2195",
      "geometry": {
        "type": "Point",
        "coordinates": [
          23.241745,
          14.499084
        ]
      },
      "properties": {
        "label": "Binodenoson",
        "level": 5,
        "pos": "15060164.764790026,27248179.98873004",
        "src_id": "4575",
        "weight": "0.00010420295478721549"
      }
    },
    {
      "type": "Feature",
      "id": "2847",
      "geometry": {
        "type": "Point",
        "coordinates": [
          23.554036,
          14.539645
        ]
      },
      "properties": {
        "label": "Picoplatin",
        "level": 5,
        "pos": "15270006.304031411,27283359.901481397",
        "src_id": "4596",
        "weight": "5.981050001272752e-05"
      }
    },
    {
      "type": "Feature",
      "id": "3384",
      "geometry": {
        "type": "Point",
        "coordinates": [
          22.657451,
          14.709573
        ]
      },
      "properties": {
        "label": "Oritavancin",
        "level": 5,
        "pos": "14667551.87087223,27430812.204702962",
        "src_id": "4631",
        "weight": "4.637947307599908e-05"
      }
    },
    {
      "type": "Feature",
      "id": "2573",
      "geometry": {
        "type": "Point",
        "coordinates": [
          22.915015,
          14.664963
        ]
      },
      "properties": {
        "label": "Clevidipine",
        "level": 5,
        "pos": "14840620.570623029,27392091.276937567",
        "src_id": "4638",
        "weight": "7.204389781997001e-05"
      }
    },
    {
      "type": "Feature",
      "id": "2143",
      "geometry": {
        "type": "Point",
        "coordinates": [
          22.743618,
          14.29987
        ]
      },
      "properties": {
        "label": "Asimadoline",
        "level": 5,
        "pos": "14725451.266417315,27075490.57826811",
        "src_id": "4794",
        "weight": "0.00011191304442251358"
      }
    },
    {
      "type": "Feature",
      "id": "2846",
      "geometry": {
        "type": "Point",
        "coordinates": [
          23.135934,
          14.715598
        ]
      },
      "properties": {
        "label": "Paclitaxel docosahexaenoic acid",
        "level": 5,
        "pos": "14989065.729686854,27436042.565564383",
        "src_id": "4953",
        "weight": "5.981050001272752e-05"
      }
    },
    {
      "type": "Feature",
      "id": "3525",
      "geometry": {
        "type": "Point",
        "coordinates": [
          22.777654,
          14.760969
        ]
      },
      "properties": {
        "label": "gallium maltolate",
        "level": 5,
        "pos": "14748321.75537922,27475432.53425594",
        "src_id": "5046",
        "weight": "5.0123374941777585e-05"
      }
    },
    {
      "type": "Feature",
      "id": "3383",
      "geometry": {
        "type": "Point",
        "coordinates": [
          23.021062,
          14.410671
        ]
      },
      "properties": {
        "label": "Bimosiamose",
        "level": 5,
        "pos": "14911878.108849997,27171519.96071962",
        "src_id": "5472",
        "weight": "4.637947307599908e-05"
      }
    },
    {
      "type": "Feature",
      "id": "3523",
      "geometry": {
        "type": "Point",
        "coordinates": [
          23.013769,
          14.639173
        ]
      },
      "properties": {
        "label": "Exisulind",
        "level": 5,
        "pos": "14906977.815457232,27369709.695626635",
        "src_id": "5508",
        "weight": "5.0123374941777585e-05"
      }
    },
    {
      "type": "Feature",
      "id": "3522",
      "geometry": {
        "type": "Point",
        "coordinates": [
          22.893439,
          14.712311
        ]
      },
      "properties": {
        "label": "Repifermin",
        "level": 5,
        "pos": "14826122.514557166,27433189.236809812",
        "src_id": "5599",
        "weight": "5.0123374941777585e-05"
      }
    },
    {
      "type": "Feature",
      "id": "3382",
      "geometry": {
        "type": "Point",
        "coordinates": [
          22.47559,
          14.422647
        ]
      },
      "properties": {
        "label": "Diethylnorspermine",
        "level": 5,
        "pos": "14545351.54099243,27181902.06100303",
        "src_id": "5608",
        "weight": "4.637947307599908e-05"
      }
    },
    {
      "type": "Feature",
      "id": "2845",
      "geometry": {
        "type": "Point",
        "coordinates": [
          23.055166,
          14.421544
        ]
      },
      "properties": {
        "label": "Meclinertant",
        "level": 5,
        "pos": "14934793.982801413,27180946.18460241",
        "src_id": "5615",
        "weight": "5.981050001272754e-05"
      }
    },
    {
      "type": "Feature",
      "id": "3381",
      "geometry": {
        "type": "Point",
        "coordinates": [
          22.555872,
          14.430454
        ]
      },
      "properties": {
        "label": "Cariporide",
        "level": 5,
        "pos": "14599296.930323588,27188670.18584419",
        "src_id": "5621",
        "weight": "4.637947307599908e-05"
      }
    },
    {
      "type": "Feature",
      "id": "2844",
      "geometry": {
        "type": "Point",
        "coordinates": [
          22.729743,
          14.533728
        ]
      },
      "properties": {
        "label": "Bivatuzumab",
        "level": 5,
        "pos": "14716128.045686051,27278227.210588172",
        "src_id": "5661",
        "weight": "5.981050001272754e-05"
      }
    },
    {
      "type": "Feature",
      "id": "2843",
      "geometry": {
        "type": "Point",
        "coordinates": [
          23.235099,
          14.525324
        ]
      },
      "properties": {
        "label": "Rostaporfin",
        "level": 5,
        "pos": "15055698.91659686,27270938.400588114",
        "src_id": "5729",
        "weight": "5.981050001272754e-05"
      }
    },
    {
      "type": "Feature",
      "id": "2482",
      "geometry": {
        "type": "Point",
        "coordinates": [
          23.441594,
          14.242884
        ]
      },
      "properties": {
        "label": "Belimumab",
        "level": 5,
        "pos": "15194451.9710035,27026120.549612645",
        "src_id": "7838",
        "weight": "7.9896007277184e-05"
      }
    },
    {
      "type": "Feature",
      "id": "2838",
      "geometry": {
        "type": "Point",
        "coordinates": [
          22.84479,
          14.484003
        ]
      },
      "properties": {
        "label": "Mafosfamide",
        "level": 5,
        "pos": "14793433.511388436,27235101.82293029",
        "src_id": "9747",
        "weight": "5.981050001272754e-05"
      }
    },
    {
      "type": "Feature",
      "id": "2837",
      "geometry": {
        "type": "Point",
        "coordinates": [
          23.402685,
          14.422057
        ]
      },
      "properties": {
        "label": "Exatecan",
        "level": 5,
        "pos": "15168307.125313222,27181390.58744058",
        "src_id": "9845",
        "weight": "5.981050001272754e-05"
      }
    },
    {
      "type": "Feature",
      "id": "3373",
      "geometry": {
        "type": "Point",
        "coordinates": [
          23.084365,
          14.601384
        ]
      },
      "properties": {
        "label": "Bizelesin",
        "level": 5,
        "pos": "14954413.927191982,27336919.462773684",
        "src_id": "10008",
        "weight": "4.637947307599908e-05"
      }
    },
    {
      "type": "Feature",
      "id": "3599",
      "geometry": {
        "type": "Point",
        "coordinates": [
          23.607227,
          14.465256
        ]
      },
      "properties": {
        "label": "Ceftobiprole",
        "level": 5,
        "pos": "15305747.90327944,27218845.133661695",
        "src_id": "4636",
        "weight": "4.0616904036071364e-05"
      }
    },
    {
      "type": "Feature",
      "id": "3597",
      "geometry": {
        "type": "Point",
        "coordinates": [
          23.49862,
          14.384142
        ]
      },
      "properties": {
        "label": "Fospropofol",
        "level": 5,
        "pos": "15232769.691274574,27148523.7699621",
        "src_id": "5776",
        "weight": "4.061690403607136e-05"
      }
    },
    {
      "type": "Feature",
      "id": "3592",
      "geometry": {
        "type": "Point",
        "coordinates": [
          23.24938,
          14.442785
        ]
      },
      "properties": {
        "label": "Incyclinide",
        "level": 5,
        "pos": "15065294.876842897,27199361.262406807",
        "src_id": "9319",
        "weight": "4.061690403607136e-05"
      }
    },
    {
      "type": "Feature",
      "id": "3591",
      "geometry": {
        "type": "Point",
        "coordinates": [
          23.400116,
          14.276903
        ]
      },
      "properties": {
        "label": "Bucindolol",
        "level": 5,
        "pos": "15166581.202766778,27055591.940925643",
        "src_id": "10390",
        "weight": "4.061690403607136e-05"
      }
    },
    {
      "type": "Feature",
      "id": "2897",
      "geometry": {
        "type": "Point",
        "coordinates": [
          23.497559,
          13.77051
        ]
      },
      "properties": {
        "label": "Fluticasone propionate",
        "level": 5,
        "pos": "15232057.00016538,26617349.810167138",
        "src_id": "575",
        "weight": "9.8232605108711e-05"
      }
    },
    {
      "type": "Feature",
      "id": "2754",
      "geometry": {
        "type": "Point",
        "coordinates": [
          23.134271,
          13.422055
        ]
      },
      "properties": {
        "label": "Resiniferatoxin",
        "level": 5,
        "pos": "14987947.811679438,26316344.005058672",
        "src_id": "5643",
        "weight": "9.496108175205866e-05"
      }
    },
    {
      "type": "Feature",
      "id": "2922",
      "geometry": {
        "type": "Point",
        "coordinates": [
          23.120956,
          13.385631
        ]
      },
      "properties": {
        "label": "Propiverine",
        "level": 5,
        "pos": "14979001.410927728,26284905.17594246",
        "src_id": "9936",
        "weight": "9.781559100924958e-05"
      }
    },
    {
      "type": "Feature",
      "id": "2921",
      "geometry": {
        "type": "Point",
        "coordinates": [
          23.158921,
          13.42046
        ]
      },
      "properties": {
        "label": "Testosterone enanthate",
        "level": 5,
        "pos": "15004511.57507198,26314966.777605876",
        "src_id": "10977",
        "weight": "9.781559100924958e-05"
      }
    },
    {
      "type": "Feature",
      "id": "2920",
      "geometry": {
        "type": "Point",
        "coordinates": [
          23.346828,
          13.75535
        ]
      },
      "properties": {
        "label": "Testosterone undecanoate",
        "level": 5,
        "pos": "15130774.46723522,26604245.038381025",
        "src_id": "10978",
        "weight": "9.781559100924958e-05"
      }
    },
    {
      "type": "Feature",
      "id": "3706",
      "geometry": {
        "type": "Point",
        "coordinates": [
          22.915872,
          13.554018
        ]
      },
      "properties": {
        "label": "Fumagillin",
        "level": 5,
        "pos": "14841196.543617722,26430285.516720075",
        "src_id": "2500",
        "weight": "4.625693650663834e-05"
      }
    },
    {
      "type": "Feature",
      "id": "2336",
      "geometry": {
        "type": "Point",
        "coordinates": [
          22.891892,
          13.513513
        ]
      },
      "properties": {
        "label": "Eniluracil",
        "level": 5,
        "pos": "14825082.842553616,26395305.20739986",
        "src_id": "3320",
        "weight": "0.00010207277466561244"
      }
    },
    {
      "type": "Feature",
      "id": "3705",
      "geometry": {
        "type": "Point",
        "coordinates": [
          23.232804,
          13.768604
        ]
      },
      "properties": {
        "label": "Bicifadine",
        "level": 5,
        "pos": "15054156.680558484,26615702.383259874",
        "src_id": "4611",
        "weight": "4.625693650663834e-05"
      }
    },
    {
      "type": "Feature",
      "id": "3704",
      "geometry": {
        "type": "Point",
        "coordinates": [
          23.069467,
          13.734309
        ]
      },
      "properties": {
        "label": "Reslizumab",
        "level": 5,
        "pos": "14944403.765237667,26586058.25208583",
        "src_id": "5690",
        "weight": "4.625693650663834e-05"
      }
    },
    {
      "type": "Feature",
      "id": "577",
      "geometry": {
        "type": "Point",
        "coordinates": [
          22.558146,
          15.830837
        ]
      },
      "properties": {
        "label": "Celecoxib",
        "level": 3,
        "pos": "14600824.99168428,28406721.90097257",
        "src_id": "471",
        "weight": "0.00027898190006182914"
      }
    },
    {
      "type": "Feature",
      "id": "1578",
      "geometry": {
        "type": "Point",
        "coordinates": [
          22.833235,
          15.763093
        ]
      },
      "properties": {
        "label": "Nimesulide",
        "level": 4,
        "pos": "14785668.871764787,28347610.211565092",
        "src_id": "4466",
        "weight": "0.00019311064142888863"
      }
    },
    {
      "type": "Feature",
      "id": "1034",
      "geometry": {
        "type": "Point",
        "coordinates": [
          22.503275,
          15.572573
        ]
      },
      "properties": {
        "label": "Saquinavir",
        "level": 3,
        "pos": "14563954.775522266,28181472.28116843",
        "src_id": "1216",
        "weight": "0.00037672878364840496"
      }
    },
    {
      "type": "Feature",
      "id": "2118",
      "geometry": {
        "type": "Point",
        "coordinates": [
          22.356878,
          15.37172
        ]
      },
      "properties": {
        "label": "Genistein",
        "level": 4,
        "pos": "14465583.826438453,28006490.070150636",
        "src_id": "1576",
        "weight": "0.00013193262622552082"
      }
    },
    {
      "type": "Feature",
      "id": "5481",
      "geometry": {
        "type": "Point",
        "coordinates": [
          22.307169,
          15.117383
        ]
      },
      "properties": {
        "label": "Seasonal allergy",
        "level": 5,
        "pos": "14432182.62491898,27785154.63631025",
        "src_id": "185647",
        "weight": "3.9037712190367884e-05"
      }
    },
    {
      "type": "Feature",
      "id": "7835",
      "geometry": {
        "type": "Point",
        "coordinates": [
          21.471799,
          15.241529
        ]
      },
      "properties": {
        "label": "Rosacea",
        "level": 5,
        "pos": "13870860.876557881,27893159.158733618",
        "src_id": "185407",
        "weight": "1.9599234931551667e-05"
      }
    },
    {
      "type": "Feature",
      "id": "8177",
      "geometry": {
        "type": "Point",
        "coordinates": [
          22.039959,
          15.194771
        ]
      },
      "properties": {
        "label": "Acute interstitial pneumonitis",
        "level": 5,
        "pos": "14252632.79114077,27852472.86843064",
        "src_id": "169749",
        "weight": "2.9887169467578378e-05"
      }
    },
    {
      "type": "Feature",
      "id": "4553",
      "geometry": {
        "type": "Point",
        "coordinates": [
          21.752337,
          15.25391
        ]
      },
      "properties": {
        "label": "Left-handedness",
        "level": 5,
        "pos": "14059366.656197732,27903933.542079765",
        "src_id": "179846",
        "weight": "2.7595248098206376e-05"
      }
    },
    {
      "type": "Feature",
      "id": "377",
      "geometry": {
        "type": "Point",
        "coordinates": [
          21.79838,
          16.44485
        ]
      },
      "properties": {
        "label": "Bevacizumab",
        "level": 1,
        "pos": "14090305.097211415,28943410.731687605",
        "src_id": "105",
        "weight": "0.0008618132379693541"
      }
    },
    {
      "type": "Feature",
      "id": "350",
      "geometry": {
        "type": "Point",
        "coordinates": [
          21.505987,
          16.640799
        ]
      },
      "properties": {
        "label": "Tadalafil",
        "level": 1,
        "pos": "13893833.513405824,29115037.88861201",
        "src_id": "806",
        "weight": "0.0009418586561948928"
      }
    },
    {
      "type": "Feature",
      "id": "523",
      "geometry": {
        "type": "Point",
        "coordinates": [
          21.436092,
          16.388901
        ]
      },
      "properties": {
        "label": "Ribavirin",
        "level": 2,
        "pos": "13846867.966489306,28894438.398007166",
        "src_id": "797",
        "weight": "0.0005647220216993701"
      }
    },
    {
      "type": "Feature",
      "id": "1474",
      "geometry": {
        "type": "Point",
        "coordinates": [
          21.490542,
          15.970409
        ]
      },
      "properties": {
        "label": "Tenecteplase",
        "level": 4,
        "pos": "13883455.67880861,28528571.742072776",
        "src_id": "31",
        "weight": "0.00016288864290489642"
      }
    },
    {
      "type": "Feature",
      "id": "2423",
      "geometry": {
        "type": "Point",
        "coordinates": [
          21.267856,
          15.8184
        ]
      },
      "properties": {
        "label": "Rebimastat",
        "level": 5,
        "pos": "13733823.257535119,28395868.546611164",
        "src_id": "5671",
        "weight": "7.302553542550985e-05"
      }
    },
    {
      "type": "Feature",
      "id": "2822",
      "geometry": {
        "type": "Point",
        "coordinates": [
          20.971805,
          15.602781
        ]
      },
      "properties": {
        "label": "Doripenem",
        "level": 5,
        "pos": "13534893.248456364,28207804.219729986",
        "src_id": "5485",
        "weight": "0.00010422296564339789"
      }
    },
    {
      "type": "Feature",
      "id": "1622",
      "geometry": {
        "type": "Point",
        "coordinates": [
          20.45653,
          15.545591
        ]
      },
      "properties": {
        "label": "Peritoneal dialysis",
        "level": 4,
        "pos": "13188657.818856902,28157956.07597154",
        "src_id": "183233",
        "weight": "0.00016271335965029125"
      }
    },
    {
      "type": "Feature",
      "id": "6321",
      "geometry": {
        "type": "Point",
        "coordinates": [
          20.66966,
          15.386363
        ]
      },
      "properties": {
        "label": "Abdominal infection",
        "level": 5,
        "pos": "13331869.030309752,28019241.207063362",
        "src_id": "169498",
        "weight": "2.801884183160285e-05"
      }
    },
    {
      "type": "Feature",
      "id": "1355",
      "geometry": {
        "type": "Point",
        "coordinates": [
          20.365036,
          15.320525
        ]
      },
      "properties": {
        "label": "Pyridoxamine",
        "level": 4,
        "pos": "13127178.887604259,27961916.587355595",
        "src_id": "9345",
        "weight": "0.00026185325380013427"
      }
    },
    {
      "type": "Feature",
      "id": "1152",
      "geometry": {
        "type": "Point",
        "coordinates": [
          20.172207,
          15.485349
        ]
      },
      "properties": {
        "label": "Epigallocatechin Gallate",
        "level": 3,
        "pos": "12997608.888024744,28105462.204081368",
        "src_id": "9779",
        "weight": "0.0003593719271281195"
      }
    },
    {
      "type": "Feature",
      "id": "772",
      "geometry": {
        "type": "Point",
        "coordinates": [
          21.579554,
          15.689225
        ]
      },
      "properties": {
        "label": "Arsenic trioxide",
        "level": 3,
        "pos": "13943266.171834687,28283177.073423773",
        "src_id": "1153",
        "weight": "0.00041129311115644355"
      }
    },
    {
      "type": "Feature",
      "id": "3621",
      "geometry": {
        "type": "Point",
        "coordinates": [
          21.474584,
          15.471725
        ]
      },
      "properties": {
        "label": "Acute coronary syndrome",
        "level": 5,
        "pos": "13872732.59137549,28093593.018188648",
        "src_id": "169732",
        "weight": "8.497953705979282e-05"
      }
    },
    {
      "type": "Feature",
      "id": "6821",
      "geometry": {
        "type": "Point",
        "coordinates": [
          20.042647,
          14.059536
        ]
      },
      "properties": {
        "label": "Becaplermin",
        "level": 5,
        "pos": "12910552.17745635,26867359.709850255",
        "src_id": "95",
        "weight": "2.3554424581508418e-05"
      }
    },
    {
      "type": "Feature",
      "id": "5243",
      "geometry": {
        "type": "Point",
        "coordinates": [
          19.75742,
          14.107559
        ]
      },
      "properties": {
        "label": "Shock hypoglycaemic",
        "level": 5,
        "pos": "12718895.720630342,26908930.08345467",
        "src_id": "185828",
        "weight": "4.647113266504916e-05"
      }
    },
    {
      "type": "Feature",
      "id": "8594",
      "geometry": {
        "type": "Point",
        "coordinates": [
          19.467924,
          14.11497
        ]
      },
      "properties": {
        "label": "Blood thrombin increased",
        "level": 5,
        "pos": "12524370.778536413,26915346.836738948",
        "src_id": "172386",
        "weight": "2.0074228233687556e-05"
      }
    },
    {
      "type": "Feature",
      "id": "955",
      "geometry": {
        "type": "Point",
        "coordinates": [
          33.885065,
          19.544334
        ]
      },
      "properties": {
        "label": "Erythropoietin",
        "level": 4,
        "pos": "22211872.644510258,31680049.236765977",
        "src_id": "16",
        "weight": "0.00019008077560823483"
      }
    },
    {
      "type": "Feature",
      "id": "6910",
      "geometry": {
        "type": "Point",
        "coordinates": [
          32.742098,
          20.7154
        ]
      },
      "properties": {
        "label": "Hysterotomy",
        "level": 6,
        "pos": "21443863.313520424,32727294.678243253",
        "src_id": "178692",
        "weight": "1.892618599477115e-05"
      }
    },
    {
      "type": "Feature",
      "id": "3545",
      "geometry": {
        "type": "Point",
        "coordinates": [
          32.335385,
          18.229032
        ]
      },
      "properties": {
        "label": "Iron deficiency",
        "level": 5,
        "pos": "21170575.11075201,30512821.35522594",
        "src_id": "179432",
        "weight": "7.599152447550934e-05"
      }
    },
    {
      "type": "Feature",
      "id": "6891",
      "geometry": {
        "type": "Point",
        "coordinates": [
          32.43864,
          20.746958
        ]
      },
      "properties": {
        "label": "Nephrogenic anaemia",
        "level": 5,
        "pos": "21239956.373330493,32755625.61704491",
        "src_id": "181659",
        "weight": "2.5194892006220325e-05"
      }
    },
    {
      "type": "Feature",
      "id": "5247",
      "geometry": {
        "type": "Point",
        "coordinates": [
          30.831065,
          16.791657
        ]
      },
      "properties": {
        "label": "Periodic limb movement disorder",
        "level": 5,
        "pos": "20159757.289287243,29247290.66436269",
        "src_id": "183150",
        "weight": "4.460799009532016e-05"
      }
    },
    {
      "type": "Feature",
      "id": "3678",
      "geometry": {
        "type": "Point",
        "coordinates": [
          32.741578,
          18.633852
        ]
      },
      "properties": {
        "label": "Venous insufficiency",
        "level": 5,
        "pos": "21443513.97612309,30871095.84859246",
        "src_id": "188388",
        "weight": "9.20935368802092e-05"
      }
    },
    {
      "type": "Feature",
      "id": "741",
      "geometry": {
        "type": "Point",
        "coordinates": [
          7.873306,
          -11.547463
        ]
      },
      "properties": {
        "label": "Lenalidomide",
        "level": 1,
        "pos": "4733444.422410582,5180578.32877798",
        "src_id": "469",
        "weight": "0.0007277812643897818"
      }
    },
    {
      "type": "Feature",
      "id": "6802",
      "geometry": {
        "type": "Point",
        "coordinates": [
          6.696584,
          -11.123594
        ]
      },
      "properties": {
        "label": "Xaliproden",
        "level": 5,
        "pos": "3942754.3594007157,5543549.369204794",
        "src_id": "5576",
        "weight": "2.097681262613437e-05"
      }
    },
    {
      "type": "Feature",
      "id": "868",
      "geometry": {
        "type": "Point",
        "coordinates": [
          27.87937,
          6.089649
        ]
      },
      "properties": {
        "label": "Clevudine",
        "level": 2,
        "pos": "18176385.770126086,20065041.648333993",
        "src_id": "5745",
        "weight": "0.0004684863162820275"
      }
    },
    {
      "type": "Feature",
      "id": "1234",
      "geometry": {
        "type": "Point",
        "coordinates": [
          11.98229,
          -5.805882
        ]
      },
      "properties": {
        "label": "Prucalopride",
        "level": 4,
        "pos": "7494448.693044548,10059280.558399748",
        "src_id": "5630",
        "weight": "0.00024360506621467232"
      }
    },
    {
      "type": "Feature",
      "id": "1033",
      "geometry": {
        "type": "Point",
        "coordinates": [
          11.150941,
          -5.863767
        ]
      },
      "properties": {
        "label": "Ruboxistaurin",
        "level": 3,
        "pos": "6935829.371986291,10010426.189206",
        "src_id": "9498",
        "weight": "0.00030325272515388844"
      }
    },
    {
      "type": "Feature",
      "id": "3103",
      "geometry": {
        "type": "Point",
        "coordinates": [
          10.908717,
          -5.959596
        ]
      },
      "properties": {
        "label": "Brasofensine",
        "level": 5,
        "pos": "6773068.489220979,9929535.717848195",
        "src_id": "4579",
        "weight": "5.532253820280781e-05"
      }
    },
    {
      "type": "Feature",
      "id": "1351",
      "geometry": {
        "type": "Point",
        "coordinates": [
          12.149841,
          -5.262128
        ]
      },
      "properties": {
        "label": "Dronedarone",
        "level": 4,
        "pos": "7607033.434859121,10517968.254876923",
        "src_id": "4577",
        "weight": "0.0001912910778171283"
      }
    },
    {
      "type": "Feature",
      "id": "396",
      "geometry": {
        "type": "Point",
        "coordinates": [
          10.330061,
          -5.595313
        ]
      },
      "properties": {
        "label": "Cortical dysplasia",
        "level": 3,
        "pos": "6384244.752016396,10236957.515146904",
        "src_id": "174475",
        "weight": "0.0002766383380810223"
      }
    },
    {
      "type": "Feature",
      "id": "3248",
      "geometry": {
        "type": "Point",
        "coordinates": [
          9.604422,
          -6.485883
        ]
      },
      "properties": {
        "label": "Olcegepant",
        "level": 5,
        "pos": "5896656.397329158,9485033.252325328",
        "src_id": "4591",
        "weight": "6.360018546810215e-05"
      }
    },
    {
      "type": "Feature",
      "id": "3247",
      "geometry": {
        "type": "Point",
        "coordinates": [
          8.454701,
          -6.550437
        ]
      },
      "properties": {
        "label": "Prinomastat",
        "level": 5,
        "pos": "5124108.902667426,9430479.747937314",
        "src_id": "4790",
        "weight": "6.360018546810215e-05"
      }
    },
    {
      "type": "Feature",
      "id": "3246",
      "geometry": {
        "type": "Point",
        "coordinates": [
          7.572167,
          -6.954272
        ]
      },
      "properties": {
        "label": "Resiquimod",
        "level": 5,
        "pos": "4531096.110543839,9089041.960621472",
        "src_id": "5650",
        "weight": "6.360018546810217e-05"
      }
    },
    {
      "type": "Feature",
      "id": "895",
      "geometry": {
        "type": "Point",
        "coordinates": [
          10.47689,
          -4.555173
        ]
      },
      "properties": {
        "label": "Mecasermin",
        "level": 2,
        "pos": "6482905.266271768,11113731.297121083",
        "src_id": "1260",
        "weight": "0.0004906963743959091"
      }
    },
    {
      "type": "Feature",
      "id": "769",
      "geometry": {
        "type": "Point",
        "coordinates": [
          14.055092,
          -2.955842
        ]
      },
      "properties": {
        "label": "Sunitinib",
        "level": 2,
        "pos": "8887254.383507686,12459497.681056395",
        "src_id": "1251",
        "weight": "0.0006687923407330301"
      }
    },
    {
      "type": "Feature",
      "id": "1761",
      "geometry": {
        "type": "Point",
        "coordinates": [
          19.712135,
          7.48328
        ]
      },
      "properties": {
        "label": "Bexarotene",
        "level": 5,
        "pos": "12688466.724299623,21243450.751380432",
        "src_id": "298",
        "weight": "0.00011328065803469127"
      }
    },
    {
      "type": "Feature",
      "id": "1283",
      "geometry": {
        "type": "Point",
        "coordinates": [
          20.290567,
          8.168863
        ]
      },
      "properties": {
        "label": "Bimatoprost",
        "level": 4,
        "pos": "13077140.362008618,21824496.140079867",
        "src_id": "891",
        "weight": "0.00022494591586615095"
      }
    },
    {
      "type": "Feature",
      "id": "1516",
      "geometry": {
        "type": "Point",
        "coordinates": [
          22.070256,
          9.072745
        ]
      },