{
  "type": "FeatureCollection",
  "features": [
    {
      "type": "Feature",
      "id": "731",
      "geometry": {
        "type": "Point",
        "coordinates": [
          36.720637,
          17.235899
        ]
      },
      "properties": {
        "label": "Leuprolide",
        "level": 3,
        "pos": "8600555.904721363,3850866.95284321",
        "src_id": "7",
        "weight": "0.00044124164017156657"
      }
    },
    {
      "type": "Feature",
      "id": "636",
      "geometry": {
        "type": "Point",
        "coordinates": [
          39.689434,
          17.207679
        ]
      },
      "properties": {
        "label": "Endometriosis",
        "level": 3,
        "pos": "9469907.779307168,3839577.8324557375",
        "src_id": "175911",
        "weight": "0.00029605179264923854"
      }
    },
    {
      "type": "Feature",
      "id": "205",
      "geometry": {
        "type": "Point",
        "coordinates": [
          33.168963,
          16.920358
        ]
      },
      "properties": {
        "label": "Hysterectomy",
        "level": 2,
        "pos": "7560520.231348312,3724733.889604716",
        "src_id": "178681",
        "weight": "0.0012588873929955308"
      }
    },
    {
      "type": "Feature",
      "id": "152",
      "geometry": {
        "type": "Point",
        "coordinates": [
          31.105563,
          18.318592
        ]
      },
      "properties": {
        "label": "Blood oestrogen",
        "level": 2,
        "pos": "6956295.468214125,4285325.844997133",
        "src_id": "172274",
        "weight": "0.0020426610987560032"
      }
    },
    {
      "type": "Feature",
      "id": "543",
      "geometry": {
        "type": "Point",
        "coordinates": [
          38.187086,
          17.486214
        ]
      },
      "properties": {
        "label": "Conjugated estrogens",
        "level": 3,
        "pos": "9029975.71654555,3951079.8628569255",
        "src_id": "277",
        "weight": "0.0007383008591053057"
      }
    },
    {
      "type": "Feature",
      "id": "1090",
      "geometry": {
        "type": "Point",
        "coordinates": [
          36.358156,
          17.076159
        ]
      },
      "properties": {
        "label": "Uterine leiomyoma",
        "level": 4,
        "pos": "8494410.565252583,3786986.7846957278",
        "src_id": "188107",
        "weight": "0.00012862426078286786"
      }
    },
    {
      "type": "Feature",
      "id": "1373",
      "geometry": {
        "type": "Point",
        "coordinates": [
          36.131677,
          17.461501
        ]
      },
      "properties": {
        "label": "Uterine cancer",
        "level": 4,
        "pos": "8428090.914155865,3941180.268979572",
        "src_id": "188072",
        "weight": "0.00010703090247025224"
      }
    },
    {
      "type": "Feature",
      "id": "126",
      "geometry": {
        "type": "Point",
        "coordinates": [
          29.05763,
          19.748265
        ]
      },
      "properties": {
        "label": "Contraception",
        "level": 1,
        "pos": "6356599.854780875,4863228.675458535",
        "src_id": "174350",
        "weight": "0.002071574534298967"
      }
    },
    {
      "type": "Feature",
      "id": "522",
      "geometry": {
        "type": "Point",
        "coordinates": [
          34.35513,
          17.990063
        ]
      },
      "properties": {
        "label": "Testosterone",
        "level": 3,
        "pos": "7907865.054125218,4153215.490948485",
        "src_id": "611",
        "weight": "0.0006213599762224777"
      }
    },
    {
      "type": "Feature",
      "id": "890",
      "geometry": {
        "type": "Point",
        "coordinates": [
          33.713261,
          17.725009
        ]
      },
      "properties": {
        "label": "Estradiol",
        "level": 4,
        "pos": "7719906.812982341,4046809.6948192073",
        "src_id": "769",
        "weight": "0.00013506657246164068"
      }
    },
    {
      "type": "Feature",
      "id": "840",
      "geometry": {
        "type": "Point",
        "coordinates": [
          33.737949,
          18.844223
        ]
      },
      "properties": {
        "label": "Hormone replacement therapy",
        "level": 4,
        "pos": "7727136.163407502,4497220.702638375",
        "src_id": "178305",
        "weight": "0.00016105801317328202"
      }
    },
    {
      "type": "Feature",
      "id": "711",
      "geometry": {
        "type": "Point",
        "coordinates": [
          34.17597,
          18.466083
        ]
      },
      "properties": {
        "label": "Hormone therapy",
        "level": 3,
        "pos": "7855401.898866237,4344717.212847034",
        "src_id": "178307",
        "weight": "0.00021185087857386597"
      }
    },
    {
      "type": "Feature",
      "id": "689",
      "geometry": {
        "type": "Point",
        "coordinates": [
          33.860553,
          19.327908
        ]
      },
      "properties": {
        "label": "Progesterone",
        "level": 3,
        "pos": "7763038.285150204,4692792.248416633",
        "src_id": "184202",
        "weight": "0.0004217577555368052"
      }
    },
    {
      "type": "Feature",
      "id": "791",
      "geometry": {
        "type": "Point",
        "coordinates": [
          33.250326,
          19.549591
        ]
      },
      "properties": {
        "label": "Hormone level abnormal",
        "level": 4,
        "pos": "7584345.853824142,4782619.944297623",
        "src_id": "178304",
        "weight": "0.0001418456615592529"
      }
    },
    {
      "type": "Feature",
      "id": "703",
      "geometry": {
        "type": "Point",
        "coordinates": [
          41.557645,
          17.81787
        ]
      },
      "properties": {
        "label": "Desipramine",
        "level": 3,
        "pos": "10016975.187919676,4084070.767569355",
        "src_id": "1135",
        "weight": "0.00047941659942876935"
      }
    },
    {
      "type": "Feature",
      "id": "309",
      "geometry": {
        "type": "Point",
        "coordinates": [
          41.004489,
          16.966775
        ]
      },
      "properties": {
        "label": "Anxiety disorder",
        "level": 3,
        "pos": "9854994.727873338,3743275.0924664573",
        "src_id": "170662",
        "weight": "0.0004990320491142283"
      }
    },
    {
      "type": "Feature",
      "id": "240",
      "geometry": {
        "type": "Point",
        "coordinates": [
          40.964448,
          18.065482
        ]
      },
      "properties": {
        "label": "Major depression",
        "level": 3,
        "pos": "9843269.551555932,4183521.47014396",
        "src_id": "180375",
        "weight": "0.0007731197267248739"
      }
    },
    {
      "type": "Feature",
      "id": "906",
      "geometry": {
        "type": "Point",
        "coordinates": [
          41.077179,
          17.463895
        ]
      },
      "properties": {
        "label": "Muscle atrophy",
        "level": 3,
        "pos": "9876280.496821275,3942139.142255935",
        "src_id": "181237",
        "weight": "0.00025500940650400694"
      }
    },
    {
      "type": "Feature",
      "id": "574",
      "geometry": {
        "type": "Point",
        "coordinates": [
          28.446477,
          15.773955
        ]
      },
      "properties": {
        "label": "Levonorgestrel",
        "level": 3,
        "pos": "6177636.280241214,3268219.765798454",
        "src_id": "357",
        "weight": "0.0008772141505905092"
      }
    },
    {
      "type": "Feature",
      "id": "493",
      "geometry": {
        "type": "Point",
        "coordinates": [
          26.41968,
          17.788224
        ]
      },
      "properties": {
        "label": "Intra-uterine contraceptive device",
        "level": 3,
        "pos": "5584129.970086399,4072172.9074628437",
        "src_id": "179325",
        "weight": "0.0007818801590556453"
      }
    },
    {
      "type": "Feature",
      "id": "215",
      "geometry": {
        "type": "Point",
        "coordinates": [
          31.307091,
          16.604372
        ]
      },
      "properties": {
        "label": "Drug interaction",
        "level": 3,
        "pos": "7015308.829142042,3598634.8007579334",
        "src_id": "175376",
        "weight": "0.0007269626444743708"
      }
    },
    {
      "type": "Feature",
      "id": "448",
      "geometry": {
        "type": "Point",
        "coordinates": [
          31.841367,
          15.999671
        ]
      },
      "properties": {
        "label": "Ethinyl Estradiol",
        "level": 2,
        "pos": "7171760.8025865555,3357893.2565613124",
        "src_id": "963",
        "weight": "0.0015619850407318854"
      }
    },
    {
      "type": "Feature",
      "id": "639",
      "geometry": {
        "type": "Point",
        "coordinates": [
          23.328576,
          16.225955
        ]
      },
      "properties": {
        "label": "Blood copper",
        "level": 3,
        "pos": "4678962.8374137655,3447893.9909935286",
        "src_id": "172045",
        "weight": "0.0002598357149332294"
      }
    },
    {
      "type": "Feature",
      "id": "719",
      "geometry": {
        "type": "Point",
        "coordinates": [
          34.570265,
          16.988603
        ]
      },
      "properties": {
        "label": "Etonogestrel",
        "level": 3,
        "pos": "7970863.044152226,3751995.7878586138",
        "src_id": "285",
        "weight": "0.0007740226345636086"
      }
    },
    {
      "type": "Feature",
      "id": "1358",
      "geometry": {
        "type": "Point",
        "coordinates": [
          34.50391,
          16.457556
        ]
      },
      "properties": {
        "label": "Norethisterone",
        "level": 4,
        "pos": "7951432.3695897125,3540116.507983067",
        "src_id": "703",
        "weight": "0.00013104723863926608"
      }
    },
    {
      "type": "Feature",
      "id": "1252",
      "geometry": {
        "type": "Point",
        "coordinates": [
          34.916824,
          16.057442
        ]
      },
      "properties": {
        "label": "Norgestimate",
        "level": 3,
        "pos": "8072345.713433598,3380861.0364977526",
        "src_id": "943",
        "weight": "0.00018979645829932888"
      }
    },
    {
      "type": "Feature",
      "id": "1147",
      "geometry": {
        "type": "Point",
        "coordinates": [
          34.694201,
          15.151434
        ]
      },
      "properties": {
        "label": "Drospirenone",
        "level": 3,
        "pos": "8007155.088312543,3021414.5334886652",
        "src_id": "1340",
        "weight": "0.00018121569313257025"
      }
    },
    {
      "type": "Feature",
      "id": "1145",
      "geometry": {
        "type": "Point",
        "coordinates": [
          34.531989,
          15.64162
        ]
      },
      "properties": {
        "label": "Norelgestromin",
        "level": 4,
        "pos": "7959654.802481627,3215691.9366428396",
        "src_id": "5773",
        "weight": "0.00016871326631049546"
      }
    },
    {
      "type": "Feature",
      "id": "163",
      "geometry": {
        "type": "Point",
        "coordinates": [
          32.237317,
          18.988587
        ]
      },
      "properties": {
        "label": "Oral contraception",
        "level": 2,
        "pos": "7287706.665010385,4555532.665967932",
        "src_id": "182298",
        "weight": "0.0012175079132257802"
      }
    },
    {
      "type": "Feature",
      "id": "973",
      "geometry": {
        "type": "Point",
        "coordinates": [
          30.488462,
          18.108831
        ]
      },
      "properties": {
        "label": "Sexually active",
        "level": 4,
        "pos": "6775590.141682738,4200946.909364441",
        "src_id": "185816",
        "weight": "0.0001097255559067561"
      }
    },
    {
      "type": "Feature",
      "id": "955",
      "geometry": {
        "type": "Point",
        "coordinates": [
          31.35982,
          18.775861
        ]
      },
      "properties": {
        "label": "Condom",
        "level": 4,
        "pos": "7030749.634542802,4469625.035811286",
        "src_id": "174062",
        "weight": "0.00012029560618740893"
      }
    },
    {
      "type": "Feature",
      "id": "1106",
      "geometry": {
        "type": "Point",
        "coordinates": [
          31.626673,
          19.228992
        ]
      },
      "properties": {
        "label": "Metrorrhagia",
        "level": 4,
        "pos": "7108891.904852582,4652750.315964418",
        "src_id": "180938",
        "weight": "0.00010260914790877862"
      }
    },
    {
      "type": "Feature",
      "id": "1364",
      "geometry": {
        "type": "Point",
        "coordinates": [
          31.729487,
          19.715574
        ]
      },
      "properties": {
        "label": "Desogestrel",
        "level": 4,
        "pos": "7138998.925108147,4849957.904618878",
        "src_id": "295",
        "weight": "9.847897295514072e-05"
      }
    },
    {
      "type": "Feature",
      "id": "947",
      "geometry": {
        "type": "Point",
        "coordinates": [
          31.662006,
          20.205134
        ]
      },
      "properties": {
        "label": "Menorrhagia",
        "level": 4,
        "pos": "7119238.50704022,5048979.276057301",
        "src_id": "180772",
        "weight": "0.00011947248769228464"
      }
    },
    {
      "type": "Feature",
      "id": "311",
      "geometry": {
        "type": "Point",
        "coordinates": [
          19.645203,
          16.770499
        ]
      },
      "properties": {
        "label": "Zinc",
        "level": 2,
        "pos": "3600362.045511278,3664904.1665225215",
        "src_id": "1526",
        "weight": "0.0011279096779673163"
      }
    },
    {
      "type": "Feature",
      "id": "211",
      "geometry": {
        "type": "Point",
        "coordinates": [
          33.961253,
          17.258144
        ]
      },
      "properties": {
        "label": "Progesterone",
        "level": 2,
        "pos": "7792526.230579952,3859767.3924369835",
        "src_id": "385",
        "weight": "0.0016557149881239264"
      }
    },
    {
      "type": "Feature",
      "id": "114",
      "geometry": {
        "type": "Point",
        "coordinates": [
          36.998138,
          17.98143
        ]
      },
      "properties": {
        "label": "Menopause",
        "level": 2,
        "pos": "8681816.459262088,4149747.4264488174",
        "src_id": "180770",
        "weight": "0.0017488500252292446"
      }
    },
    {
      "type": "Feature",
      "id": "589",
      "geometry": {
        "type": "Point",
        "coordinates": [
          37.057103,
          17.548514
        ]
      },
      "properties": {
        "label": "Medroxyprogesterone acetate",
        "level": 3,
        "pos": "8699083.06761979,3976043.1724897083",
        "src_id": "590",
        "weight": "0.0002912647809399465"
      }
    },
    {
      "type": "Feature",
      "id": "1368",
      "geometry": {
        "type": "Point",
        "coordinates": [
          36.369424,
          18.021142
        ]
      },
      "properties": {
        "label": "Chasteberry",
        "level": 4,
        "pos": "8497710.152786197,4165702.8276230586",
        "src_id": "239745",
        "weight": "9.880621385187817e-05"
      }
    },
    {
      "type": "Feature",
      "id": "266",
      "geometry": {
        "type": "Point",
        "coordinates": [
          40.014504,
          18.261405
        ]
      },
      "properties": {
        "label": "Hot flush",
        "level": 3,
        "pos": "9565097.823630953,4262311.7463605665",
        "src_id": "178313",
        "weight": "0.0008685464325033432"
      }
    },
    {
      "type": "Feature",
      "id": "133",
      "geometry": {
        "type": "Point",
        "coordinates": [
          39.936083,
          17.856306
        ]
      },
      "properties": {
        "label": "Puberty",
        "level": 2,
        "pos": "9542133.706893612,4099499.0985261146",
        "src_id": "184462",
        "weight": "0.001268021697009351"
      }
    },
    {
      "type": "Feature",
      "id": "595",
      "geometry": {
        "type": "Point",
        "coordinates": [
          37.358246,
          18.507387
        ]
      },
      "properties": {
        "label": "Erectile dysfunction",
        "level": 3,
        "pos": "8787266.784048565,4361358.498036804",
        "src_id": "176149",
        "weight": "0.0003361850397134691"
      }
    },
    {
      "type": "Feature",
      "id": "424",
      "geometry": {
        "type": "Point",
        "coordinates": [
          37.584506,
          18.039948
        ]
      },
      "properties": {
        "label": "Blood prolactin",
        "level": 3,
        "pos": "8853522.389010375,4173259.68543207",
        "src_id": "172344",
        "weight": "0.0004455094324537178"
      }
    },
    {
      "type": "Feature",
      "id": "835",
      "geometry": {
        "type": "Point",
        "coordinates": [
          37.115518,
          18.970133
        ]
      },
      "properties": {
        "label": "Loss of libido",
        "level": 3,
        "pos": "8716188.579780895,4548075.81481122",
        "src_id": "180131",
        "weight": "0.0001998236460420466"
      }
    },
    {
      "type": "Feature",
      "id": "1010",
      "geometry": {
        "type": "Point",
        "coordinates": [
          36.927532,
          19.443884
        ]
      },
      "properties": {
        "label": "Anovulatory cycle",
        "level": 3,
        "pos": "8661140.705309367,4739771.135053168",
        "src_id": "170456",
        "weight": "0.000248420993301519"
      }
    },
    {
      "type": "Feature",
      "id": "593",
      "geometry": {
        "type": "Point",
        "coordinates": [
          43.08661,
          18.370955
        ]
      },
      "properties": {
        "label": "Night sweats",
        "level": 3,
        "pos": "10464701.761358209,4306405.668299983",
        "src_id": "181827",
        "weight": "0.0002461630794483883"
      }
    },
    {
      "type": "Feature",
      "id": "23",
      "geometry": {
        "type": "Point",
        "coordinates": [
          10.134745,
          -35.019844
        ]
      },
      "properties": {
        "label": "Amnesia",
        "level": 1,
        "pos": "815417.6449102535,-17138708.28678968",
        "src_id": "170136",
        "weight": "0.0032202224800775715"
      }
    },
    {
      "type": "Feature",
      "id": "13",
      "geometry": {
        "type": "Point",
        "coordinates": [
          13.57545,
          -33.734154
        ]
      },
      "properties": {
        "label": "Confusional state",
        "level": 1,
        "pos": "1822958.227098375,-16543446.818685185",
        "src_id": "174071",
        "weight": "0.004795576148027779"
      }
    },
    {
      "type": "Feature",
      "id": "1083",
      "geometry": {
        "type": "Point",
        "coordinates": [
          10.171295,
          -33.280563
        ]
      },
      "properties": {
        "label": "Donepezil",
        "level": 4,
        "pos": "826120.5844951851,-16335580.38067928",
        "src_id": "829",
        "weight": "9.838281511283309e-05"
      }
    },
    {
      "type": "Feature",
      "id": "1279",
      "geometry": {
        "type": "Point",
        "coordinates": [
          8.823394,
          -33.502807
        ]
      },
      "properties": {
        "label": "Senile dementia",
        "level": 4,
        "pos": "431415.0780931809,-16437291.736108495",
        "src_id": "185727",
        "weight": "9.361200075032378e-05"
      }
    },
    {
      "type": "Feature",
      "id": "1484",
      "geometry": {
        "type": "Point",
        "coordinates": [
          11.574989,
          -33.535092
        ]
      },
      "properties": {
        "label": "Anosmia",
        "level": 4,
        "pos": "1237163.6673266476,-16452088.553275248",
        "src_id": "170453",
        "weight": "9.181440567827138e-05"
      }
    },
    {
      "type": "Feature",
      "id": "1163",
      "geometry": {
        "type": "Point",
        "coordinates": [
          7.461878,
          -35.30402
        ]
      },
      "properties": {
        "label": "Therapeutic procedure",
        "level": 4,
        "pos": "32722.889910650254,-17271531.07660048",
        "src_id": "186884",
        "weight": "9.631386496268088e-05"
      }
    },
    {
      "type": "Feature",
      "id": "1161",
      "geometry": {
        "type": "Point",
        "coordinates": [
          7.530303,
          -35.775285
        ]
      },
      "properties": {
        "label": "Transplant",
        "level": 4,
        "pos": "52759.752285931885,-17492831.625529435",
        "src_id": "187334",
        "weight": "9.665072693646289e-05"
      }
    },
    {
      "type": "Feature",
      "id": "4",
      "geometry": {
        "type": "Point",
        "coordinates": [
          17.453361,
          -32.818183
        ]
      },
      "properties": {
        "label": "Electroencephalogram",
        "level": 1,
        "pos": "2958525.485976812,-16124795.566402527",
        "src_id": "175720",
        "weight": "0.0064984604445425965"
      }
    },
    {
      "type": "Feature",
      "id": "24",
      "geometry": {
        "type": "Point",
        "coordinates": [
          10.605325,
          -35.554017
        ]
      },
      "properties": {
        "label": "Loss of consciousness",
        "level": 1,
        "pos": "953217.4853769598,-17388764.76227223",
        "src_id": "180127",
        "weight": "0.0037613193014656224"
      }
    },
    {
      "type": "Feature",
      "id": "35",
      "geometry": {
        "type": "Point",
        "coordinates": [
          12.268289,
          -35.763957
        ]
      },
      "properties": {
        "label": "Tremor",
        "level": 1,
        "pos": "1440182.6723656643,-17487496.781279296",
        "src_id": "187373",
        "weight": "0.0033443064368117574"
      }
    },
    {
      "type": "Feature",
      "id": "1166",
      "geometry": {
        "type": "Point",
        "coordinates": [
          13.619784,
          -31.975726
        ]
      },
      "properties": {
        "label": "Slow speech",
        "level": 4,
        "pos": "1835940.4460585236,-15743539.9782707",
        "src_id": "186023",
        "weight": "9.487107158090454e-05"
      }
    },
    {
      "type": "Feature",
      "id": "1073",
      "geometry": {
        "type": "Point",
        "coordinates": [
          12.319891,
          -32.177035
        ]
      },
      "properties": {
        "label": "Amblyopia",
        "level": 4,
        "pos": "1455293.1352987003,-15834320.31051344",
        "src_id": "170111",
        "weight": "9.971065875040349e-05"
      }
    },
    {
      "type": "Feature",
      "id": "1205",
      "geometry": {
        "type": "Point",
        "coordinates": [
          11.952638,
          -35.119998
        ]
      },
      "properties": {
        "label": "Hypomania",
        "level": 4,
        "pos": "1347750.5336820316,-17185466.816529658",
        "src_id": "178609",
        "weight": "9.586631730981783e-05"
      }
    },
    {
      "type": "Feature",
      "id": "1538",
      "geometry": {
        "type": "Point",
        "coordinates": [
          12.546734,
          -35.330554
        ]
      },
      "properties": {
        "label": "Piper",
        "level": 4,
        "pos": "1521719.423683842,-17283956.566899247",
        "src_id": "240629",
        "weight": "8.755340209167165e-05"
      }
    },
    {
      "type": "Feature",
      "id": "1258",
      "geometry": {
        "type": "Point",
        "coordinates": [
          13.205982,
          -35.442077
        ]
      },
      "properties": {
        "label": "Rheum",
        "level": 4,
        "pos": "1714766.7966919804,-17336226.57469979",
        "src_id": "240698",
        "weight": "9.325431682491884e-05"
      }
    },
    {
      "type": "Feature",
      "id": "49",
      "geometry": {
        "type": "Point",
        "coordinates": [
          13.908966,
          -35.027241
        ]
      },
      "properties": {
        "label": "Computerised tomogram",
        "level": 1,
        "pos": "1920621.5639671166,-17142159.573210567",
        "src_id": "174039",
        "weight": "0.0029940053177553373"
      }
    },
    {
      "type": "Feature",
      "id": "1361",
      "geometry": {
        "type": "Point",
        "coordinates": [
          17.783462,
          -31.104648
        ]
      },
      "properties": {
        "label": "Cyproheptadine",
        "level": 4,
        "pos": "3055188.9625795535,-15352994.164523479",
        "src_id": "423",
        "weight": "9.42235681391084e-05"
      }
    },
    {
      "type": "Feature",
      "id": "1247",
      "geometry": {
        "type": "Point",
        "coordinates": [
          16.592138,
          -31.180052
        ]
      },
      "properties": {
        "label": "Lactic Acid",
        "level": 4,
        "pos": "2706333.7857281086,-15386658.05285182",
        "src_id": "4144",
        "weight": "9.572717418135105e-05"
      }
    },
    {
      "type": "Feature",
      "id": "1124",
      "geometry": {
        "type": "Point",
        "coordinates": [
          16.111165,
          -31.309777
        ]
      },
      "properties": {
        "label": "Circadian rhythm sleep disorder",
        "level": 4,
        "pos": "2565490.859898617,-15444636.393145978",
        "src_id": "173754",
        "weight": "9.855930920908159e-05"
      }
    },
    {
      "type": "Feature",
      "id": "1176",
      "geometry": {
        "type": "Point",
        "coordinates": [
          16.231602,
          -33.891237
        ]
      },
      "properties": {
        "label": "Respiratory failure",
        "level": 4,
        "pos": "2600758.210617741,-16615688.160209775",
        "src_id": "185134",
        "weight": "9.579689057052702e-05"
      }
    },
    {
      "type": "Feature",
      "id": "1351",
      "geometry": {
        "type": "Point",
        "coordinates": [
          20.040691,
          -32.271868
        ]
      },
      "properties": {
        "label": "Chloral hydrate",
        "level": 4,
        "pos": "3716172.703341521,-15877155.187564448",
        "src_id": "1497",
        "weight": "9.426305397819442e-05"
      }
    },
    {
      "type": "Feature",
      "id": "1337",
      "geometry": {
        "type": "Point",
        "coordinates": [
          19.68588,
          -31.682797
        ]
      },
      "properties": {
        "label": "Blood gases",
        "level": 4,
        "pos": "3612273.4434724087,-15611798.102581913",
        "src_id": "172141",
        "weight": "9.414459646093637e-05"
      }
    },
    {
      "type": "Feature",
      "id": "1472",
      "geometry": {
        "type": "Point",
        "coordinates": [
          19.303183,
          -31.616767
        ]
      },
      "properties": {
        "label": "Blood pyruvic acid",
        "level": 4,
        "pos": "3500208.4458899954,-15582159.39982521",
        "src_id": "172349",
        "weight": "9.161156765420942e-05"
      }
    },
    {
      "type": "Feature",
      "id": "1334",
      "geometry": {
        "type": "Point",
        "coordinates": [
          17.169487,
          -31.084148
        ]
      },
      "properties": {
        "label": "Cardiac murmur",
        "level": 4,
        "pos": "2875398.780263888,-15343846.477970485",
        "src_id": "173066",
        "weight": "9.456043011289042e-05"
      }
    },
    {
      "type": "Feature",
      "id": "1649",
      "geometry": {
        "type": "Point",
        "coordinates": [
          14.782434,
          -32.444881
        ]
      },
      "properties": {
        "label": "Complicated migraine",
        "level": 4,
        "pos": "2176398.942654929,-15955417.770600207",
        "src_id": "174014",
        "weight": "8.746555455017805e-05"
      }
    },
    {
      "type": "Feature",
      "id": "1324",
      "geometry": {
        "type": "Point",
        "coordinates": [
          15.633885,
          -31.527038
        ]
      },
      "properties": {
        "label": "Disinhibition",
        "level": 4,
        "pos": "2425729.039670697,-15541916.780415513",
        "src_id": "175271",
        "weight": "9.466891162190547e-05"
      }
    },
    {
      "type": "Feature",
      "id": "1454",
      "geometry": {
        "type": "Point",
        "coordinates": [
          16.696069,
          -33.925581
        ]
      },
      "properties": {
        "label": "Drug screen",
        "level": 4,
        "pos": "2736768.0815464696,-16631500.702865163",
        "src_id": "175398",
        "weight": "9.169053933238145e-05"
      }
    },
    {
      "type": "Feature",
      "id": "1450",
      "geometry": {
        "type": "Point",
        "coordinates": [
          16.888665,
          -33.942983
        ]
      },
      "properties": {
        "label": "Electrocution",
        "level": 4,
        "pos": "2793165.7371750227,-16639514.994774068",
        "src_id": "175718",
        "weight": "9.192745436689752e-05"
      }
    },
    {
      "type": "Feature",
      "id": "1307",
      "geometry": {
        "type": "Point",
        "coordinates": [
          16.86762,
          -33.983818
        ]
      },
      "properties": {
        "label": "Hallucinations, mixed",
        "level": 4,
        "pos": "2787003.1077070325,-16658328.096663542",
        "src_id": "177741",
        "weight": "9.458993994373344e-05"
      }
    },
    {
      "type": "Feature",
      "id": "1432",
      "geometry": {
        "type": "Point",
        "coordinates": [
          14.761063,
          -32.714745
        ]
      },
      "properties": {
        "label": "Hyporeflexia",
        "level": 4,
        "pos": "2170140.6527255606,-16077791.962827982",
        "src_id": "178644",
        "weight": "9.161156765420942e-05"
      }
    },
    {
      "type": "Feature",
      "id": "1296",
      "geometry": {
        "type": "Point",
        "coordinates": [
          16.859111,
          -33.988632
        ]
      },
      "properties": {
        "label": "Intracranial pressure increased",
        "level": 4,
        "pos": "2784511.4008295303,-16660546.623152478",
        "src_id": "179337",
        "weight": "9.414459646093637e-05"
      }
    },
    {
      "type": "Feature",
      "id": "1396",
      "geometry": {
        "type": "Point",
        "coordinates": [
          15.21845,
          -31.785091
        ]
      },
      "properties": {
        "label": "Rebound effect",
        "level": 4,
        "pos": "2304077.128176108,-15657756.531029668",
        "src_id": "184820",
        "weight": "9.191747835865453e-05"
      }
    },
    {
      "type": "Feature",
      "id": "1389",
      "geometry": {
        "type": "Point",
        "coordinates": [
          16.719063,
          -33.991376
        ]
      },
      "properties": {
        "label": "Shared psychotic disorder",
        "level": 4,
        "pos": "2743501.226050261,-16661811.243279539",
        "src_id": "185821",
        "weight": "9.188796852781151e-05"
      }
    },
    {
      "type": "Feature",
      "id": "1265",
      "geometry": {
        "type": "Point",
        "coordinates": [
          14.90776,
          -32.180442
        ]
      },
      "properties": {
        "label": "Vasodilation procedure",
        "level": 4,
        "pos": "2213098.159498354,-15835858.61178871",
        "src_id": "188345",
        "weight": "9.429328452828437e-05"
      }
    },
    {
      "type": "Feature",
      "id": "1638",
      "geometry": {
        "type": "Point",
        "coordinates": [
          14.677515,
          -33.136306
        ]
      },
      "properties": {
        "label": "Electrocardiogram ambulatory",
        "level": 4,
        "pos": "2145675.4162265384,-16269699.063168123",
        "src_id": "175657",
        "weight": "8.75740360591931e-05"
      }
    },
    {
      "type": "Feature",
      "id": "758",
      "geometry": {
        "type": "Point",
        "coordinates": [
          9.225462,
          -36.910383
        ]
      },
      "properties": {
        "label": "Toxicity to various agents",
        "level": 4,
        "pos": "549152.6222623923,-18031321.544638228",
        "src_id": "187230",
        "weight": "0.00011722217272949338"
      }
    },
    {
      "type": "Feature",
      "id": "987",
      "geometry": {
        "type": "Point",
        "coordinates": [
          9.722635,
          -36.753405
        ]
      },
      "properties": {
        "label": "Immobile",
        "level": 4,
        "pos": "694739.4238710366,-17956380.19899586",
        "src_id": "178756",
        "weight": "0.00010119284864083185"
      }
    },
    {
      "type": "Feature",
      "id": "1098",
      "geometry": {
        "type": "Point",
        "coordinates": [
          8.368696,
          -36.39111
        ]
      },
      "properties": {
        "label": "Sick relative",
        "level": 4,
        "pos": "298266.1256517092,-17784003.85710987",
        "src_id": "185859",
        "weight": "9.803842729409972e-05"
      }
    },
    {
      "type": "Feature",
      "id": "1234",
      "geometry": {
        "type": "Point",
        "coordinates": [
          8.10782,
          -36.017188
        ]
      },
      "properties": {
        "label": "Altered state of consciousness",
        "level": 4,
        "pos": "221873.8699541271,-17606935.7564166",
        "src_id": "170085",
        "weight": "9.626222549333801e-05"
      }
    },
    {
      "type": "Feature",
      "id": "981",
      "geometry": {
        "type": "Point",
        "coordinates": [
          8.122102,
          -35.605839
        ]
      },
      "properties": {
        "label": "Local anaesthesia",
        "level": 4,
        "pos": "226055.99525713033,-17413111.749024544",
        "src_id": "180103",
        "weight": "0.00010257312967256986"
      }
    },
    {
      "type": "Feature",
      "id": "34",
      "geometry": {
        "type": "Point",
        "coordinates": [
          9.949174,
          -36.447969
        ]
      },
      "properties": {
        "label": "Fall",
        "level": 1,
        "pos": "761076.9723279553,-17811003.311443955",
        "src_id": "176540",
        "weight": "0.003137051583845913"
      }
    },
    {
      "type": "Feature",
      "id": "42",
      "geometry": {
        "type": "Point",
        "coordinates": [
          8.815967,
          -37.102829
        ]
      },
      "properties": {
        "label": "Crying",
        "level": 1,
        "pos": "429240.13674535096,-18123405.78886277",
        "src_id": "174575",
        "weight": "0.0028911876367234235"
      }
    },
    {
      "type": "Feature",
      "id": "36",
      "geometry": {
        "type": "Point",
        "coordinates": [
          7.696274,
          -37.562151
        ]
      },
      "properties": {
        "label": "Muscle twitching",
        "level": 1,
        "pos": "101360.87447126582,-18344139.10325395",
        "src_id": "181276",
        "weight": "0.0030672693801141954"
      }
    },
    {
      "type": "Feature",
      "id": "122",
      "geometry": {
        "type": "Point",
        "coordinates": [
          9.915965,
          -37.404871
        ]
      },
      "properties": {
        "label": "Tension",
        "level": 2,
        "pos": "751352.1741711594,-18268403.968936626",
        "src_id": "186772",
        "weight": "0.0014315994570725608"
      }
    },
    {
      "type": "Feature",
      "id": "55",
      "geometry": {
        "type": "Point",
        "coordinates": [
          10.649899,
          -37.023044
        ]
      },
      "properties": {
        "label": "Staring",
        "level": 1,
        "pos": "966269.9097021847,-18085200.77907512",
        "src_id": "186369",
        "weight": "0.0025377174498396266"
      }
    },
    {
      "type": "Feature",
      "id": "686",
      "geometry": {
        "type": "Point",
        "coordinates": [
          10.25281,
          -36.848586
        ]
      },
      "properties": {
        "label": "Stress at work",
        "level": 4,
        "pos": "849990.4818267425,-18001800.945692122",
        "src_id": "186465",
        "weight": "0.00013400714768531513"
      }
    },
    {
      "type": "Feature",
      "id": "1317",
      "geometry": {
        "type": "Point",
        "coordinates": [
          9.883351,
          -36.536655
        ]
      },
      "properties": {
        "label": "Essential tremor",
        "level": 4,
        "pos": "741802.0475707692,-17853155.371270455",
        "src_id": "176216",
        "weight": "9.632022030609742e-05"
      }
    },
    {
      "type": "Feature",
      "id": "706",
      "geometry": {
        "type": "Point",
        "coordinates": [
          40.518163,
          18.596627
        ]
      },
      "properties": {
        "label": "Sexual dysfunction",
        "level": 3,
        "pos": "9712584.088367524,4397327.1653062245",
        "src_id": "185812",
        "weight": "0.0004769485065636413"
      }
    },
    {
      "type": "Feature",
      "id": "108",
      "geometry": {
        "type": "Point",
        "coordinates": [
          35.644414,
          -25.56167
        ]
      },
      "properties": {
        "label": "Clonic convulsion",
        "level": 2,
        "pos": "8285405.783778028,-12945222.129179394",
        "src_id": "173791",
        "weight": "0.0015282551059532649"
      }
    },
    {
      "type": "Feature",
      "id": "140",
      "geometry": {
        "type": "Point",
        "coordinates": [
          32.229449,
          -25.592238
        ]
      },
      "properties": {
        "label": "Bite",
        "level": 2,
        "pos": "7285402.6421365375,-12958171.60598337",
        "src_id": "171768",
        "weight": "0.0012281171151503523"
      }
    },
    {
      "type": "Feature",
      "id": "216",
      "geometry": {
        "type": "Point",
        "coordinates": [
          30.482102,
          -23.548261
        ]
      },
      "properties": {
        "label": "Divorced",
        "level": 3,
        "pos": "6773727.556541963,-12099324.642309446",
        "src_id": "175315",
        "weight": "0.0008780806353478486"
      }
    },
    {
      "type": "Feature",
      "id": "73",
      "geometry": {
        "type": "Point",
        "coordinates": [
          34.222349,
          -23.936817
        ]
      },
      "properties": {
        "label": "Nightmare",
        "level": 1,
        "pos": "7868983.067896414,-12261523.698827432",
        "src_id": "181828",
        "weight": "0.0021326262947806308"
      }
    },
    {
      "type": "Feature",
      "id": "1",
      "geometry": {
        "type": "Point",
        "coordinates": [
          21.018772,
          -32.177498
        ]
      },
      "properties": {
        "label": "Convulsion",
        "level": 1,
        "pos": "4002583.669955451,-15834529.498793641",
        "src_id": "174366",
        "weight": "0.024698720508738226"
      }
    },
    {
      "type": "Feature",
      "id": "2",
      "geometry": {
        "type": "Point",
        "coordinates": [
          17.772841,
          -34.177762
        ]
      },
      "properties": {
        "label": "Epilepsy",
        "level": 1,
        "pos": "3052078.696452644,-16747803.519471472",
        "src_id": "176107",
        "weight": "0.013073451190042117"
      }
    },
    {
      "type": "Feature",
      "id": "6",
      "geometry": {
        "type": "Point",
        "coordinates": [
          18.25585,
          -33.883192
        ]
      },
      "properties": {
        "label": "Grand mal convulsion",
        "level": 1,
        "pos": "3193518.270562151,-16611985.240662958",
        "src_id": "177516",
        "weight": "0.0053757387778945705"
      }
    },
    {
      "type": "Feature",
      "id": "9",
      "geometry": {
        "type": "Point",
        "coordinates": [
          17.857326,
          -34.701467
        ]
      },
      "properties": {
        "label": "Surgery",
        "level": 1,
        "pos": "3076818.5571999685,-16990446.96072458",
        "src_id": "186589",
        "weight": "0.004497724510776403"
      }
    },
    {
      "type": "Feature",
      "id": "1742",
      "geometry": {
        "type": "Point",
        "coordinates": [
          19.333599,
          -30.456033
        ]
      },
      "properties": {
        "label": "Pancrelipase",
        "level": 4,
        "pos": "3509114.9144220427,-15064513.883927837",
        "src_id": "80",
        "weight": "9.013563770316561e-05"
      }
    },
    {
      "type": "Feature",
      "id": "3",
      "geometry": {
        "type": "Point",
        "coordinates": [
          21.253694,
          -29.336539
        ]
      },
      "properties": {
        "label": "Levetiracetam",
        "level": 1,
        "pos": "4071375.8561429367,-14571071.176122447",
        "src_id": "1186",
        "weight": "0.006278783505619934"
      }
    },
    {
      "type": "Feature",
      "id": "7",
      "geometry": {
        "type": "Point",
        "coordinates": [
          20.399663,
          -34.945648
        ]
      },
      "properties": {
        "label": "Anxiety",
        "level": 1,
        "pos": "3821290.1644706447,-17104105.424906015",
        "src_id": "170661",
        "weight": "0.005281086369615552"
      }
    },
    {
      "type": "Feature",
      "id": "1741",
      "geometry": {
        "type": "Point",
        "coordinates": [
          21.169885,
          -30.01959
        ]
      },
      "properties": {
        "label": "Glutamic Acid",
        "level": 4,
        "pos": "4046834.2093761726,-14871480.785343712",
        "src_id": "134",
        "weight": "9.013563770316561e-05"
      }
    },
    {
      "type": "Feature",
      "id": "1740",
      "geometry": {
        "type": "Point",
        "coordinates": [
          18.479608,
          -30.898901
        ]
      },
      "properties": {
        "label": "Creatine",
        "level": 4,
        "pos": "3259041.0280772885,-15261274.323232356",
        "src_id": "140",
        "weight": "9.005666602499359e-05"
      }
    },
    {
      "type": "Feature",
      "id": "1739",
      "geometry": {
        "type": "Point",
        "coordinates": [
          18.664113,
          -33.371466
        ]
      },
      "properties": {
        "label": "Phentermine",
        "level": 4,
        "pos": "3313069.523485327,-16377151.105080852",
        "src_id": "182",
        "weight": "9.005666602499359e-05"
      }
    },
    {
      "type": "Feature",
      "id": "1738",
      "geometry": {
        "type": "Point",
        "coordinates": [
          22.673394,
          -33.618049
        ]
      },
      "properties": {
        "label": "Erythromycin",
        "level": 4,
        "pos": "4487106.15216011,-16490135.678356942",
        "src_id": "190",
        "weight": "9.005666602499359e-05"
      }
    },
    {
      "type": "Feature",
      "id": "1737",
      "geometry": {
        "type": "Point",
        "coordinates": [
          21.862286,
          -33.943442
        ]
      },
      "properties": {
        "label": "Azithromycin",
        "level": 4,
        "pos": "4249589.771411662,-16639726.642376252",
        "src_id": "198",
        "weight": "9.005666602499359e-05"
      }
    },
    {
      "type": "Feature",
      "id": "1735",
      "geometry": {
        "type": "Point",
        "coordinates": [
          21.968006,
          -33.920258
        ]
      },
      "properties": {
        "label": "Pantoprazole",
        "level": 4,
        "pos": "4280547.6085530035,-16629049.316885808",
        "src_id": "204",
        "weight": "9.005666602499359e-05"
      }
    },
    {
      "type": "Feature",
      "id": "1734",
      "geometry": {
        "type": "Point",
        "coordinates": [
          20.36934,
          -33.678369
        ]
      },
      "properties": {
        "label": "Temazepam",
        "level": 4,
        "pos": "3812410.82023937,-16517823.277691826",
        "src_id": "222",
        "weight": "9.017512354225163e-05"
      }
    },
    {
      "type": "Feature",
      "id": "1733",
      "geometry": {
        "type": "Point",
        "coordinates": [
          23.425702,
          -33.052662
        ]
      },
      "properties": {
        "label": "Cabergoline",
        "level": 4,
        "pos": "4707404.227317022,-16231549.006739803",
        "src_id": "239",
        "weight": "9.005666602499359e-05"
      }
    },
    {
      "type": "Feature",
      "id": "1732",
      "geometry": {
        "type": "Point",
        "coordinates": [
          18.329155,
          -32.431556
        ]
      },
      "properties": {
        "label": "Methadone",
        "level": 4,
        "pos": "3214983.9176449003,-15949384.889615262",
        "src_id": "323",
        "weight": "9.005666602499359e-05"
      }
    },
    {
      "type": "Feature",
      "id": "1731",
      "geometry": {
        "type": "Point",
        "coordinates": [
          18.144009,
          -30.96736
        ]
      },
      "properties": {
        "label": "Clozapine",
        "level": 4,
        "pos": "3160767.8431162396,-15291770.296224311",
        "src_id": "353",
        "weight": "9.005666602499359e-05"
      }
    },
    {
      "type": "Feature",
      "id": "1730",
      "geometry": {
        "type": "Point",
        "coordinates": [
          22.603136,
          -33.356698
        ]
      },
      "properties": {
        "label": "Amlodipine",
        "level": 4,
        "pos": "4466532.3736989265,-16370394.70435213",
        "src_id": "371",
        "weight": "9.005666602499359e-05"
      }
    },
    {
      "type": "Feature",
      "id": "1729",
      "geometry": {
        "type": "Point",
        "coordinates": [
          23.515793,
          -31.781414
        ]
      },
      "properties": {
        "label": "Phenylpropanolamine",
        "level": 4,
        "pos": "4733785.519371308,-15656103.624165252",
        "src_id": "386",
        "weight": "9.013563770316561e-05"
      }
    },
    {
      "type": "Feature",
      "id": "1726",
      "geometry": {
        "type": "Point",
        "coordinates": [
          22.614418,
          -30.682124
        ]
      },
      "properties": {
        "label": "Atropine",
        "level": 4,
        "pos": "4469836.30851296,-15164850.258813215",
        "src_id": "559",
        "weight": "9.005666602499359e-05"
      }
    },
    {
      "type": "Feature",
      "id": "1725",
      "geometry": {
        "type": "Point",
        "coordinates": [
          23.619171,
          -32.970362
        ]
      },
      "properties": {
        "label": "Fluticasone propionate",
        "level": 4,
        "pos": "4764057.77142151,-16194047.098897545",
        "src_id": "575",
        "weight": "9.005666602499359e-05"
      }
    },
    {
      "type": "Feature",
      "id": "1526",
      "geometry": {
        "type": "Point",
        "coordinates": [
          22.691987,
          -32.713767
        ]
      },
      "properties": {
        "label": "Mycophenolate mofetil",
        "level": 4,
        "pos": "4492550.644072911,-16077347.517191404",
        "src_id": "674",
        "weight": "0.00012724254438135517"
      }
    },
    {
      "type": "Feature",
      "id": "1724",
      "geometry": {
        "type": "Point",
        "coordinates": [
          21.34433,
          -30.452686
        ]
      },
      "properties": {
        "label": "Procaine",
        "level": 4,
        "pos": "4097916.7983317794,-15063030.127596712",
        "src_id": "707",
        "weight": "9.005666602499359e-05"
      }
    },
    {
      "type": "Feature",
      "id": "1524",
      "geometry": {
        "type": "Point",
        "coordinates": [
          17.834825,
          -30.98733
        ]
      },
      "properties": {
        "label": "Lisinopril",
        "level": 4,
        "pos": "3070229.4002158707,-15300670.640025424",
        "src_id": "708",
        "weight": "9.278712402715061e-05"
      }
    },
    {
      "type": "Feature",
      "id": "1723",
      "geometry": {
        "type": "Point",
        "coordinates": [
          21.46077,
          -30.606177
        ]
      },
      "properties": {
        "label": "Nitroglycerin",
        "level": 4,
        "pos": "4132013.9810771807,-15131119.942148328",
        "src_id": "713",
        "weight": "9.005666602499359e-05"
      }
    },
    {
      "type": "Feature",
      "id": "1722",
      "geometry": {
        "type": "Point",
        "coordinates": [
          23.034098,
          -33.496933
        ]
      },
      "properties": {
        "label": "Propofol",
        "level": 4,
        "pos": "4592731.068284115,-16434600.081739638",
        "src_id": "804",
        "weight": "9.005666602499359e-05"
      }
    },
    {
      "type": "Feature",
      "id": "1517",
      "geometry": {
        "type": "Point",
        "coordinates": [
          24.446806,
          -33.030436
        ]
      },
      "properties": {
        "label": "Naloxone",
        "level": 3,
        "pos": "5006413.935244912,-16221417.642589232",
        "src_id": "1167",
        "weight": "0.0002525636413172231"
      }
    },
    {
      "type": "Feature",
      "id": "1718",
      "geometry": {
        "type": "Point",
        "coordinates": [
          19.195408,
          -33.091004
        ]
      },
      "properties": {
        "label": "Selegiline",
        "level": 4,
        "pos": "3468648.641821463,-16249032.487550486",
        "src_id": "1022",
        "weight": "9.005666602499359e-05"
      }
    },
    {
      "type": "Feature",
      "id": "1716",
      "geometry": {
        "type": "Point",
        "coordinates": [
          19.446437,
          -31.477487
        ]
      },
      "properties": {
        "label": "Orlistat",
        "level": 4,
        "pos": "3542157.295351942,-15519709.909072464",
        "src_id": "1067",
        "weight": "9.013563770316561e-05"
      }
    },
    {
      "type": "Feature",
      "id": "1714",
      "geometry": {
        "type": "Point",
        "coordinates": [
          23.044895,
          -31.083004
        ]
      },
      "properties": {
        "label": "Diphenylpyraline",
        "level": 4,
        "pos": "4595892.554913343,-15343336.016489247",
        "src_id": "1130",
        "weight": "9.005666602499359e-05"
      }
    },
    {
      "type": "Feature",
      "id": "1713",
      "geometry": {
        "type": "Point",
        "coordinates": [
          19.463511,
          -33.834523
        ]
      },
      "properties": {
        "label": "Clarithromycin",
        "level": 4,
        "pos": "3547157.174035184,-16589590.36806949",
        "src_id": "1195",
        "weight": "9.005666602499359e-05"
      }
    },
    {
      "type": "Feature",
      "id": "1711",
      "geometry": {
        "type": "Point",
        "coordinates": [
          19.633901,
          -30.438054
        ]
      },
      "properties": {
        "label": "Methamphetamine",
        "level": 4,
        "pos": "3597052.296083874,-15056544.84447673",
        "src_id": "1511",
        "weight": "9.005666602499359e-05"
      }
    },
    {
      "type": "Feature",
      "id": "1710",
      "geometry": {
        "type": "Point",
        "coordinates": [
          23.218906,
          -33.406604
        ]
      },
      "properties": {
        "label": "gamma-Aminobutyric acid",
        "level": 4,
        "pos": "4646848.276007445,-16393232.044405693",
        "src_id": "2399",
        "weight": "9.005666602499359e-05"
      }
    },
    {
      "type": "Feature",
      "id": "1708",
      "geometry": {
        "type": "Point",
        "coordinates": [
          21.140015,
          -29.909622
        ]
      },
      "properties": {
        "label": "Butyric Acid",
        "level": 4,
        "pos": "4038087.221541163,-14822977.709436027",
        "src_id": "3363",
        "weight": "9.005666602499359e-05"
      }
    },
    {
      "type": "Feature",
      "id": "1707",
      "geometry": {
        "type": "Point",
        "coordinates": [
          18.317863,
          -31.159841
        ]
      },
      "properties": {
        "label": "Urea",
        "level": 4,
        "pos": "3211677.3745455537,-15377632.163165594",
        "src_id": "3677",
        "weight": "9.005666602499359e-05"
      }
    },
    {
      "type": "Feature",
      "id": "1705",
      "geometry": {
        "type": "Point",
        "coordinates": [
          22.397872,
          -30.944701
        ]
      },
      "properties": {
        "label": "Nitrous oxide",
        "level": 4,
        "pos": "4406425.122696558,-15281674.097592305",
        "src_id": "5750",
        "weight": "9.005666602499359e-05"
      }
    },
    {
      "type": "Feature",
      "id": "1704",
      "geometry": {
        "type": "Point",
        "coordinates": [
          18.97139,
          -31.053739
        ]
      },
      "properties": {
        "label": "Tyramine",
        "level": 4,
        "pos": "3403049.595767381,-15330280.740778444",
        "src_id": "7811",
        "weight": "9.005666602499359e-05"
      }
    },
    {
      "type": "Feature",
      "id": "1703",
      "geometry": {
        "type": "Point",
        "coordinates": [
          19.442104,
          -31.49432
        ]
      },
      "properties": {
        "label": "Ubidecarenone",
        "level": 4,
        "pos": "3540888.5362676173,-15527252.377699662",
        "src_id": "8210",
        "weight": "9.013563770316561e-05"
      }
    },
    {
      "type": "Feature",
      "id": "1702",
      "geometry": {
        "type": "Point",
        "coordinates": [
          22.665379,
          -31.78215
        ]
      },
      "properties": {
        "label": "Tianeptine",
        "level": 4,
        "pos": "4484759.08103528,-15656434.222082036",
        "src_id": "8229",
        "weight": "9.005666602499359e-05"
      }
    },
    {
      "type": "Feature",
      "id": "1701",
      "geometry": {
        "type": "Point",
        "coordinates": [
          21.377496,
          -30.216807
        ]
      },
      "properties": {
        "label": "Candida albicans",
        "level": 4,
        "pos": "4107628.834305836,-14958601.088430803",
        "src_id": "8508",
        "weight": "9.013563770316561e-05"
      }
    },
    {
      "type": "Feature",
      "id": "1700",
      "geometry": {
        "type": "Point",
        "coordinates": [
          21.033896,
          -34.046668
        ]
      },
      "properties": {
        "label": "Almond",
        "level": 4,
        "pos": "4007012.552238427,-16687301.155454526",
        "src_id": "8574",
        "weight": "9.013563770316561e-05"
      }
    },
    {
      "type": "Feature",
      "id": "1699",
      "geometry": {
        "type": "Point",
        "coordinates": [
          23.863294,
          -31.683467
        ]
      },
      "properties": {
        "label": "Lettuce",
        "level": 4,
        "pos": "4835544.241255177,-15612099.11870221",
        "src_id": "8609",
        "weight": "9.013563770316561e-05"
      }
    },
    {
      "type": "Feature",
      "id": "1698",
      "geometry": {
        "type": "Point",
        "coordinates": [
          20.339655,
          -30.017263
        ]
      },
      "properties": {
        "label": "Pineapple",
        "level": 4,
        "pos": "3803718.0562676014,-14870453.895077338",
        "src_id": "8628",
        "weight": "9.005666602499359e-05"
      }
    },
    {
      "type": "Feature",
      "id": "1697",
      "geometry": {
        "type": "Point",
        "coordinates": [
          19.075821,
          -33.364649
        ]
      },
      "properties": {
        "label": "Sesame seed",
        "level": 4,
        "pos": "3433629.946746203,-16374032.25190858",
        "src_id": "8635",
        "weight": "9.013563770316561e-05"
      }
    },
    {
      "type": "Feature",
      "id": "1696",
      "geometry": {
        "type": "Point",
        "coordinates": [
          22.236345,
          -31.177514
        ]
      },
      "properties": {
        "label": "Blackberry",
        "level": 4,
        "pos": "4359125.250377086,-15385524.376482297",
        "src_id": "8678",
        "weight": "9.025409522042365e-05"
      }
    },
    {
      "type": "Feature",
      "id": "1694",
      "geometry": {
        "type": "Point",
        "coordinates": [
          19.94113,
          -30.62728
        ]
      },
      "properties": {
        "label": "Eggplant",
        "level": 4,
        "pos": "3687018.0434396896,-15140489.437955966",
        "src_id": "8694",
        "weight": "9.005666602499359e-05"
      }
    },
    {
      "type": "Feature",
      "id": "1693",
      "geometry": {
        "type": "Point",
        "coordinates": [
          19.218987,
          -32.911833
        ]
      },
      "properties": {
        "label": "Urtica dioica pollen",
        "level": 4,
        "pos": "3475553.22474461,-16167398.57567029",
        "src_id": "8802",
        "weight": "9.005666602499359e-05"
      }
    },
    {
      "type": "Feature",
      "id": "1494",
      "geometry": {
        "type": "Point",
        "coordinates": [
          19.42702,
          -33.977736
        ]
      },
      "properties": {
        "label": "Acheta domesticus",
        "level": 4,
        "pos": "3536471.5552000566,-16655525.425780172",
        "src_id": "8882",
        "weight": "9.286609570532264e-05"
      }
    },
    {
      "type": "Feature",
      "id": "1691",
      "geometry": {
        "type": "Point",
        "coordinates": [
          19.936305,
          -30.280111
        ]
      },
      "properties": {
        "label": "Venison",
        "level": 4,
        "pos": "3685605.253929261,-14986602.634277409",
        "src_id": "8931",
        "weight": "9.005666602499359e-05"
      }
    },
    {
      "type": "Feature",
      "id": "1491",
      "geometry": {
        "type": "Point",
        "coordinates": [
          23.11325,
          -31.029673
        ]
      },
      "properties": {
        "label": "Chlorine",
        "level": 4,
        "pos": "4615909.025609612,-15319548.07775201",
        "src_id": "9054",
        "weight": "9.33794116134408e-05"
      }
    },
    {
      "type": "Feature",
      "id": "1690",
      "geometry": {
        "type": "Point",
        "coordinates": [
          18.152969,
          -32.715397
        ]
      },
      "properties": {
        "label": "Silicon dioxide",
        "level": 4,
        "pos": "3163391.649817126,-16078087.757056154",
        "src_id": "9077",
        "weight": "9.005666602499359e-05"
      }
    },
    {
      "type": "Feature",
      "id": "1688",
      "geometry": {
        "type": "Point",
        "coordinates": [
          18.711293,
          -32.740047
        ]
      },
      "properties": {
        "label": "Creatinine",
        "level": 4,
        "pos": "3326885.4701728714,-16089284.171743894",
        "src_id": "9515",
        "weight": "9.005666602499359e-05"
      }
    },
    {
      "type": "Feature",
      "id": "1687",
      "geometry": {
        "type": "Point",
        "coordinates": [
          23.196551,
          -33.410424
        ]
      },
      "properties": {
        "label": "Gadolinium",
        "level": 4,
        "pos": "4640302.175988318,-16394980.536945648",
        "src_id": "9755",
        "weight": "9.005666602499359e-05"
      }
    },
    {
      "type": "Feature",
      "id": "1686",
      "geometry": {
        "type": "Point",
        "coordinates": [
          22.136635,
          -33.772759
        ]
      },
      "properties": {
        "label": "Theanine",
        "level": 4,
        "pos": "4329927.049857487,-16561188.424224695",
        "src_id": "10098",
        "weight": "9.005666602499359e-05"
      }
    },
    {
      "type": "Feature",
      "id": "1685",
      "geometry": {
        "type": "Point",
        "coordinates": [
          23.992939,
          -33.477616
        ]
      },
      "properties": {
        "label": "Ozone",
        "level": 4,
        "pos": "4873508.210377595,-16425749.7941555",
        "src_id": "10159",
        "weight": "9.017512354225163e-05"
      }
    },
    {
      "type": "Feature",
      "id": "1684",
      "geometry": {
        "type": "Point",
        "coordinates": [
          18.653975,
          -32.271991
        ]
      },
      "properties": {
        "label": "Passiflora incarnata flower",
        "level": 4,
        "pos": "3310101.0309411553,-15877210.45843637",
        "src_id": "11006",
        "weight": "9.017512354225163e-05"
      }
    },
    {
      "type": "Feature",
      "id": "1683",
      "geometry": {
        "type": "Point",
        "coordinates": [
          18.822992,
          -32.345014
        ]
      },
      "properties": {
        "label": "Accident at work",
        "level": 4,
        "pos": "3359594.0710950065,-15910224.457559716",
        "src_id": "169614",
        "weight": "9.013563770316561e-05"
      }
    },
    {
      "type": "Feature",
      "id": "1682",
      "geometry": {
        "type": "Point",
        "coordinates": [
          22.227538,
          -31.06589
        ]
      },
      "properties": {
        "label": "Accidental death",
        "level": 4,
        "pos": "4356546.342047886,-15335700.935585702",
        "src_id": "169615",
        "weight": "9.005666602499359e-05"
      }
    },
    {
      "type": "Feature",
      "id": "1681",
      "geometry": {
        "type": "Point",
        "coordinates": [
          19.04374,
          -31.335699
        ]
      },
      "properties": {
        "label": "Accidental overdose",
        "level": 4,
        "pos": "3424235.825525262,-15456231.418225411",
        "src_id": "169618",
        "weight": "9.005666602499359e-05"
      }
    },
    {
      "type": "Feature",
      "id": "1680",
      "geometry": {
        "type": "Point",
        "coordinates": [
          18.848822,
          -33.263736
        ]
      },
      "properties": {
        "label": "Adverse drug reaction",
        "level": 4,
        "pos": "3367157.808376269,-16327890.00943809",
        "src_id": "169884",
        "weight": "9.005666602499359e-05"
      }
    },
    {
      "type": "Feature",
      "id": "1678",
      "geometry": {
        "type": "Point",
        "coordinates": [
          18.899998,
          -31.329205
        ]
      },
      "properties": {
        "label": "Airway complication of anaesthesia",
        "level": 4,
        "pos": "3382143.910312272,-15453326.311810385",
        "src_id": "169923",
        "weight": "9.005666602499359e-05"
      }
    },
    {
      "type": "Feature",
      "id": "1677",
      "geometry": {
        "type": "Point",
        "coordinates": [
          18.585531,
          -31.069681
        ]
      },
      "properties": {
        "label": "Allergy to animal",
        "level": 4,
        "pos": "3290058.6507328395,-15337392.061112043",
        "src_id": "170012",
        "weight": "9.013563770316561e-05"
      }
    },
    {
      "type": "Feature",
      "id": "1675",
      "geometry": {
        "type": "Point",
        "coordinates": [
          21.694269,
          -34.140703
        ]
      },
      "properties": {
        "label": "Anoxia",
        "level": 4,
        "pos": "4200389.412789597,-16730690.642673708",
        "src_id": "170458",
        "weight": "9.005666602499359e-05"
      }
    },
    {
      "type": "Feature",
      "id": "1674",
      "geometry": {
        "type": "Point",
        "coordinates": [
          18.569159,
          -32.2917
        ]
      },
      "properties": {
        "label": "Apparent death",
        "level": 4,
        "pos": "3285264.3413480325,-15886118.34405447",
        "src_id": "170770",
        "weight": "9.025409522042365e-05"
      }
    },
    {
      "type": "Feature",
      "id": "1673",
      "geometry": {
        "type": "Point",
        "coordinates": [
          18.8216,
          -30.87072
        ]
      },
      "properties": {
        "label": "Aspiration",
        "level": 4,
        "pos": "3359186.394980894,-15248726.629819123",
        "src_id": "171004",
        "weight": "9.033306689859568e-05"
      }
    },
    {
      "type": "Feature",
      "id": "1672",
      "geometry": {
        "type": "Point",
        "coordinates": [
          20.938176,
          -30.696681
        ]
      },
      "properties": {
        "label": "Atrial fibrillation",
        "level": 4,
        "pos": "3978982.9117308757,-15171318.334362527",
        "src_id": "171069",
        "weight": "9.017512354225163e-05"
      }
    },
    {
      "type": "Feature",
      "id": "1671",
      "geometry": {
        "type": "Point",
        "coordinates": [
          18.96789,
          -32.10486
        ]
      },
      "properties": {
        "label": "Autonomic neuropathy",
        "level": 4,
        "pos": "3402024.60667942,-15801749.956743166",
        "src_id": "171160",
        "weight": "9.013563770316561e-05"
      }
    },
    {
      "type": "Feature",
      "id": "1670",
      "geometry": {
        "type": "Point",
        "coordinates": [
          17.967544,
          -32.759106
        ]
      },
      "properties": {
        "label": "Ballismus",
        "level": 4,
        "pos": "3109093.4579879493,-16097943.1804214",
        "src_id": "171248",
        "weight": "9.005666602499359e-05"
      }
    },
    {
      "type": "Feature",
      "id": "1669",
      "geometry": {
        "type": "Point",
        "coordinates": [
          19.124259,
          -32.055151
        ]
      },
      "properties": {
        "label": "Benign familial neonatal convulsions",
        "level": 4,
        "pos": "3447813.983039967,-15779332.757000268",
        "src_id": "171356",
        "weight": "9.005666602499359e-05"
      }
    },
    {
      "type": "Feature",
      "id": "1668",
      "geometry": {
        "type": "Point",
        "coordinates": [
          18.815481,
          -32.225783
        ]
      },
      "properties": {
        "label": "Biopsy liver",
        "level": 4,
        "pos": "3357394.59208522,-15856333.50059632",
        "src_id": "171638",
        "weight": "9.013563770316561e-05"
      }
    },
    {
      "type": "Feature",
      "id": "1667",
      "geometry": {
        "type": "Point",
        "coordinates": [
          18.757561,
          -32.200636
        ]
      },
      "properties": {
        "label": "Biopsy skin",
        "level": 4,
        "pos": "3340433.9840770205,-15844976.531351587",
        "src_id": "171706",
        "weight": "9.005666602499359e-05"
      }
    },
    {
      "type": "Feature",
      "id": "1662",
      "geometry": {
        "type": "Point",
        "coordinates": [
          23.236974,
          -31.355331
        ]
      },
      "properties": {
        "label": "Blood magnesium",
        "level": 4,
        "pos": "4652139.1834503645,-15465015.066502715",
        "src_id": "172259",
        "weight": "9.005666602499359e-05"
      }
    },
    {
      "type": "Feature",
      "id": "1661",
      "geometry": {
        "type": "Point",
        "coordinates": [
          20.38976,
          -30.265676
        ]
      },
      "properties": {
        "label": "Bone densitometry",
        "level": 4,
        "pos": "3818390.4076253017,-14980215.982878199",
        "src_id": "172466",
        "weight": "9.005666602499359e-05"
      }
    },
    {
      "type": "Feature",
      "id": "1660",
      "geometry": {
        "type": "Point",
        "coordinates": [
          18.382306,
          -32.669514
        ]
      },
      "properties": {
        "label": "Bone marrow transplant",
        "level": 4,
        "pos": "3230548.123278397,-16057255.429041484",
        "src_id": "172516",
        "weight": "9.005666602499359e-05"
      }
    },
    {
      "type": "Feature",
      "id": "1659",
      "geometry": {
        "type": "Point",
        "coordinates": [
          22.670193,
          -30.791662
        ]
      },
      "properties": {
        "label": "Breast mass",
        "level": 4,
        "pos": "4486168.8658137,-15213546.364801548",
        "src_id": "172684",
        "weight": "9.005666602499359e-05"
      }
    },
    {
      "type": "Feature",
      "id": "1656",
      "geometry": {
        "type": "Point",
        "coordinates": [
          19.820092,
          -30.840922
        ]
      },
      "properties": {
        "label": "Caffeine consumption",
        "level": 4,
        "pos": "3651574.7625732506,-15235463.189641299",
        "src_id": "172877",
        "weight": "9.005666602499359e-05"
      }
    },
    {
      "type": "Feature",
      "id": "1655",
      "geometry": {
        "type": "Point",
        "coordinates": [
          20.612185,
          -34.157583
        ]
      },
      "properties": {
        "label": "Cardiac ablation",
        "level": 4,
        "pos": "3883523.001600059,-16738484.604939658",
        "src_id": "173015",
        "weight": "9.005666602499359e-05"
      }
    },
    {
      "type": "Feature",
      "id": "1654",
      "geometry": {
        "type": "Point",
        "coordinates": [
          23.608714,
          -31.422569
        ]
      },
      "properties": {
        "label": "Cerebral haemorrhage",
        "level": 4,
        "pos": "4760995.712202862,-15495111.555440215",
        "src_id": "173375",
        "weight": "9.005666602499359e-05"
      }
    },
    {
      "type": "Feature",
      "id": "1650",
      "geometry": {
        "type": "Point",
        "coordinates": [
          18.755022,
          -32.210607
        ]
      },
      "properties": {
        "label": "Complex regional pain syndrome",
        "level": 4,
        "pos": "3339690.3901282665,-15849479.488730315",
        "src_id": "174012",
        "weight": "9.013563770316561e-05"
      }
    },
    {
      "type": "Feature",
      "id": "1648",
      "geometry": {
        "type": "Point",
        "coordinates": [
          18.422415,
          -32.359351
        ]
      },
      "properties": {
        "label": "Compression fracture",
        "level": 4,
        "pos": "3242293.323545163,-15916709.198494287",
        "src_id": "174029",
        "weight": "9.005666602499359e-05"
      }
    },
    {
      "type": "Feature",
      "id": "1458",
      "geometry": {
        "type": "Point",
        "coordinates": [
          20.251937,
          -30.626447
        ]
      },
      "properties": {
        "label": "Compulsions",
        "level": 4,
        "pos": "3778031.639569141,-15140119.608200267",
        "src_id": "174031",
        "weight": "9.293581209449861e-05"
      }
    },
    {
      "type": "Feature",
      "id": "1645",
      "geometry": {
        "type": "Point",
        "coordinates": [
          21.102377,
          -30.110405
        ]
      },
      "properties": {
        "label": "Drug hypersensitivity",
        "level": 4,
        "pos": "4027065.7121498873,-14911576.794575928",
        "src_id": "175372",
        "weight": "9.013563770316561e-05"
      }
    },
    {
      "type": "Feature",
      "id": "1644",
      "geometry": {
        "type": "Point",
        "coordinates": [
          22.592885,
          -32.041219
        ]
      },
      "properties": {
        "label": "Dry throat",
        "level": 4,
        "pos": "4463530.697537683,-15773052.346952312",
        "src_id": "175423",
        "weight": "9.013563770316561e-05"
      }
    },
    {
      "type": "Feature",
      "id": "1643",
      "geometry": {
        "type": "Point",
        "coordinates": [
          19.253595,
          -30.732145
        ]
      },
      "properties": {
        "label": "Dysaesthesia",
        "level": 4,
        "pos": "3485687.5047762548,-15187080.45735165",
        "src_id": "175467",
        "weight": "9.005666602499359e-05"
      }
    },
    {
      "type": "Feature",
      "id": "1642",
      "geometry": {
        "type": "Point",
        "coordinates": [
          22.562976,
          -31.319433
        ]
      },
      "properties": {
        "label": "Dyscalculia",
        "level": 4,
        "pos": "4454772.465629905,-15448954.930040814",
        "src_id": "175470",
        "weight": "9.017512354225163e-05"
      }
    },
    {
      "type": "Feature",
      "id": "1641",
      "geometry": {
        "type": "Point",
        "coordinates": [
          22.518445,
          -30.701602
        ]
      },
      "properties": {
        "label": "Dysthymic disorder",
        "level": 4,
        "pos": "4441732.541166175,-15173505.342951577",
        "src_id": "175510",
        "weight": "9.013563770316561e-05"
      }
    },
    {
      "type": "Feature",
      "id": "1637",
      "geometry": {
        "type": "Point",
        "coordinates": [
          21.297223,
          -30.792703
        ]
      },
      "properties": {
        "label": "Electrocardiogram normal",
        "level": 4,
        "pos": "4084122.2968081334,-15214009.604157018",
        "src_id": "175663",
        "weight": "9.005666602499359e-05"
      }
    },
    {
      "type": "Feature",
      "id": "1633",
      "geometry": {
        "type": "Point",
        "coordinates": [
          23.32017,
          -32.036673
        ]
      },
      "properties": {
        "label": "Eye irritation",
        "level": 4,
        "pos": "4676501.240744004,-15771002.974962963",
        "src_id": "176416",
        "weight": "9.005666602499359e-05"
      }
    },
    {
      "type": "Feature",
      "id": "1630",
      "geometry": {
        "type": "Point",
        "coordinates": [
          20.19325,
          -30.411981
        ]
      },
      "properties": {
        "label": "Formication",
        "level": 4,
        "pos": "3760846.46230617,-15044991.082401445",
        "src_id": "176868",
        "weight": "9.013563770316561e-05"
      }
    },
    {
      "type": "Feature",
      "id": "1629",
      "geometry": {
        "type": "Point",
        "coordinates": [
          23.15832,
          -31.768007
        ]
      },
      "properties": {
        "label": "Gastric ulcer",
        "level": 4,
        "pos": "4629106.889615807,-15650077.713163894",
        "src_id": "177111",
        "weight": "9.005666602499359e-05"
      }
    },
    {
      "type": "Feature",
      "id": "1628",
      "geometry": {
        "type": "Point",
        "coordinates": [
          18.967407,
          -31.237045
        ]
      },
      "properties": {
        "label": "Gastroenteritis",
        "level": 4,
        "pos": "3401883.181698259,-15412120.24755768",
        "src_id": "177145",
        "weight": "9.013563770316561e-05"
      }
    },
    {
      "type": "Feature",
      "id": "1626",
      "geometry": {
        "type": "Point",
        "coordinates": [
          19.590417,
          -33.102695
        ]
      },
      "properties": {
        "label": "Genetic counselling",
        "level": 4,
        "pos": "3584319.044099891,-16254364.72478017",
        "src_id": "177279",
        "weight": "9.005666602499359e-05"
      }
    },
    {
      "type": "Feature",
      "id": "1624",
      "geometry": {
        "type": "Point",
        "coordinates": [
          23.973523,
          -32.732499
        ]
      },
      "properties": {
        "label": "Gliosis",
        "level": 4,
        "pos": "4867822.4057979,-16085855.722945279",
        "src_id": "177390",
        "weight": "9.005666602499359e-05"
      }
    },
    {
      "type": "Feature",
      "id": "1622",
      "geometry": {
        "type": "Point",
        "coordinates": [
          22.444315,
          -34.267943
        ]
      },
      "properties": {
        "label": "Haemorrhagic stroke",
        "level": 4,
        "pos": "4420025.053325246,-16789478.119316526",
        "src_id": "177707",
        "weight": "9.005666602499359e-05"
      }
    },
    {
      "type": "Feature",
      "id": "1620",
      "geometry": {
        "type": "Point",
        "coordinates": [
          20.017146,
          -34.380818
        ]
      },
      "properties": {
        "label": "Heart alternation",
        "level": 4,
        "pos": "3709277.8906244203,-16841703.01272132",
        "src_id": "177794",
        "weight": "9.005666602499359e-05"
      }
    },
    {
      "type": "Feature",
      "id": "1437",
      "geometry": {
        "type": "Point",
        "coordinates": [
          23.775871,
          -31.548765
        ]
      },
      "properties": {
        "label": "Hernia",
        "level": 4,
        "pos": "4809944.21557669,-15551657.666755592",
        "src_id": "178084",
        "weight": "9.278712402715061e-05"
      }
    },
    {
      "type": "Feature",
      "id": "1618",
      "geometry": {
        "type": "Point",
        "coordinates": [
          19.771687,
          -31.014354
        ]
      },
      "properties": {
        "label": "Hip dysplasia",
        "level": 4,
        "pos": "3637400.11144204,-15312717.409624884",
        "src_id": "178155",
        "weight": "9.005666602499359e-05"
      }
    },
    {
      "type": "Feature",
      "id": "1436",
      "geometry": {
        "type": "Point",
        "coordinates": [
          18.920351,
          -33.567984
        ]
      },
      "properties": {
        "label": "Hyperbaric oxygen therapy",
        "level": 4,
        "pos": "3388103.7726017563,-16467169.860400267",
        "src_id": "178422",
        "weight": "9.379524526539485e-05"
      }
    },
    {
      "type": "Feature",
      "id": "1617",
      "geometry": {
        "type": "Point",
        "coordinates": [
          19.899753,
          -30.970936
        ]
      },
      "properties": {
        "label": "Hypoparathyroidism",
        "level": 4,
        "pos": "3674901.6450304976,-15293364.203882236",
        "src_id": "178615",
        "weight": "9.005666602499359e-05"
      }
    },
    {
      "type": "Feature",
      "id": "1614",
      "geometry": {
        "type": "Point",
        "coordinates": [
          19.145851,
          -33.020017
        ]
      },
      "properties": {
        "label": "Iron deficiency",
        "level": 4,
        "pos": "3454136.807517437,-16216669.321195101",
        "src_id": "179432",
        "weight": "9.005666602499359e-05"
      }
    },
    {
      "type": "Feature",
      "id": "1613",
      "geometry": {
        "type": "Point",
        "coordinates": [
          23.57019,
          -31.616294
        ]
      },
      "properties": {
        "label": "Ischaemic stroke",
        "level": 4,
        "pos": "4749714.673970601,-15581947.413509663",
        "src_id": "179451",
        "weight": "9.005666602499359e-05"
      }
    },
    {
      "type": "Feature",
      "id": "1612",
      "geometry": {
        "type": "Point",
        "coordinates": [
          21.861276,
          -34.076179
        ]
      },
      "properties": {
        "label": "Laser therapy",
        "level": 4,
        "pos": "4249293.972298967,-16700913.133317517",
        "src_id": "179805",
        "weight": "9.013563770316561e-05"
      }
    },
    {
      "type": "Feature",
      "id": "1611",
      "geometry": {
        "type": "Point",
        "coordinates": [
          23.493547,
          -32.374912
        ]
      },
      "properties": {
        "label": "Lice infestation",
        "level": 4,
        "pos": "4727271.279878039,-15923749.098772727",
        "src_id": "179944",
        "weight": "9.025409522042365e-05"
      }
    },
    {
      "type": "Feature",
      "id": "1610",
      "geometry": {
        "type": "Point",
        "coordinates": [
          21.868122,
          -31.054698
        ]
      },
      "properties": {
        "label": "Limb injury",
        "level": 4,
        "pos": "4251298.724004553,-15330708.495681878",
        "src_id": "179982",
        "weight": "9.005666602499359e-05"
      }
    },
    {
      "type": "Feature",
      "id": "1609",
      "geometry": {
        "type": "Point",
        "coordinates": [
          19.387434,
          -34.011951
        ]
      },
      "properties": {
        "label": "Lipids",
        "level": 4,
        "pos": "3524879.4477512008,-16671294.353484973",
        "src_id": "180038",
        "weight": "9.013563770316561e-05"
      }
    },
    {
      "type": "Feature",
      "id": "1608",
      "geometry": {
        "type": "Point",
        "coordinates": [
          22.914997,
          -31.028515
        ]
      },
      "properties": {
        "label": "Lissencephaly",
        "level": 4,
        "pos": "4557854.723059673,-15319031.632785475",
        "src_id": "180069",
        "weight": "9.013563770316561e-05"
      }
    },
    {
      "type": "Feature",
      "id": "1607",
      "geometry": {
        "type": "Point",
        "coordinates": [
          19.090696,
          -33.527389
        ]
      },
      "properties": {
        "label": "Magnetic therapy",
        "level": 4,
        "pos": "3437985.905497634,-16448557.888229862",
        "src_id": "180371",
        "weight": "9.005666602499359e-05"
      }
    },
    {
      "type": "Feature",
      "id": "1606",
      "geometry": {
        "type": "Point",
        "coordinates": [
          23.08842,
          -31.35439
        ]
      },
      "properties": {
        "label": "Mammogram",
        "level": 4,
        "pos": "4608638.161371135,-15464593.876670612",
        "src_id": "180491",
        "weight": "9.017512354225163e-05"
      }
    },
    {
      "type": "Feature",
      "id": "1605",
      "geometry": {
        "type": "Point",
        "coordinates": [
          24.179232,
          -32.258946
        ]
      },
      "properties": {
        "label": "Menarche",
        "level": 4,
        "pos": "4928060.137332594,-15871315.791459236",
        "src_id": "180697",
        "weight": "9.005666602499359e-05"
      }
    },
    {
      "type": "Feature",
      "id": "1603",
      "geometry": {
        "type": "Point",
        "coordinates": [
          20.105636,
          -30.471153
        ]
      },
      "properties": {
        "label": "Monoplegia",
        "level": 4,
        "pos": "3735190.3271411047,-15071216.398364732",
        "src_id": "181113",
        "weight": "9.005666602499359e-05"
      }
    },
    {
      "type": "Feature",
      "id": "1601",
      "geometry": {
        "type": "Point",
        "coordinates": [
          19.007592,
          -33.477253
        ]
      },
      "properties": {
        "label": "Muscle contractions involuntary",
        "level": 4,
        "pos": "3413650.5866543795,-16425583.58634713",
        "src_id": "181239",
        "weight": "9.005666602499359e-05"
      }
    },
    {
      "type": "Feature",
      "id": "1600",
      "geometry": {
        "type": "Point",
        "coordinates": [
          21.11117,
          -30.445665
        ]
      },
      "properties": {
        "label": "Musculoskeletal chest pain",
        "level": 4,
        "pos": "4029640.649960867,-15059917.982348975",
        "src_id": "181281",
        "weight": "9.005666602499359e-05"
      }
    },
    {
      "type": "Feature",
      "id": "1599",
      "geometry": {
        "type": "Point",
        "coordinates": [
          24.29744,
          -31.989125
        ]
      },
      "properties": {
        "label": "Neck injury",
        "level": 4,
        "pos": "4962674.924696144,-15749575.957945488",
        "src_id": "181551",
        "weight": "9.005666602499359e-05"
      }
    },
    {
      "type": "Feature",
      "id": "1598",
      "geometry": {
        "type": "Point",
        "coordinates": [
          23.55953,
          -32.745335
        ]
      },
      "properties": {
        "label": "Nerve compression",
        "level": 4,
        "pos": "4746593.168655449,-16091686.500748182",
        "src_id": "181678",
        "weight": "9.013563770316561e-05"
      }
    },
    {
      "type": "Feature",
      "id": "1597",
      "geometry": {
        "type": "Point",
        "coordinates": [
          21.002494,
          -30.632864
        ]
      },
      "properties": {
        "label": "Neurofibromatosis",
        "level": 4,
        "pos": "3997817.037039546,-15142969.263162518",
        "src_id": "181728",
        "weight": "9.005666602499359e-05"
      }
    },
    {
      "type": "Feature",
      "id": "1596",
      "geometry": {
        "type": "Point",
        "coordinates": [
          19.413781,
          -33.883171
        ]
      },
      "properties": {
        "label": "Neuromyopathy",
        "level": 4,
        "pos": "3532594.695003482,-16611975.782288956",
        "src_id": "181758",
        "weight": "9.017512354225163e-05"
      }
    },
    {
      "type": "Feature",
      "id": "1595",
      "geometry": {
        "type": "Point",
        "coordinates": [
          23.923536,
          -32.301005
        ]
      },
      "properties": {
        "label": "Neurotoxicity",
        "level": 4,
        "pos": "4853184.802938296,-15890324.49247203",
        "src_id": "181782",
        "weight": "9.005666602499359e-05"
      }
    },
    {
      "type": "Feature",
      "id": "1594",
      "geometry": {
        "type": "Point",
        "coordinates": [
          21.508521,
          -30.871502
        ]
      },
      "properties": {
        "label": "No adverse event",
        "level": 4,
        "pos": "4145996.815793479,-15249074.784431716",
        "src_id": "181851",
        "weight": "9.005666602499359e-05"
      }
    },
    {
      "type": "Feature",
      "id": "1593",
      "geometry": {
        "type": "Point",
        "coordinates": [
          19.33197,
          -30.997675
        ]
      },
      "properties": {
        "label": "Occipital neuralgia",
        "level": 4,
        "pos": "3508638.154959255,-15305281.70281494",
        "src_id": "182001",
        "weight": "9.013563770316561e-05"
      }
    },
    {
      "type": "Feature",
      "id": "1592",
      "geometry": {
        "type": "Point",
        "coordinates": [
          23.006531,
          -31.083657
        ]
      },
      "properties": {
        "label": "Oedema mouth",
        "level": 4,
        "pos": "4584658.409468074,-15343627.435934993",
        "src_id": "182064",
        "weight": "9.005666602499359e-05"
      }
    },
    {
      "type": "Feature",
      "id": "1591",
      "geometry": {
        "type": "Point",
        "coordinates": [
          18.933709,
          -33.193292
        ]
      },
      "properties": {
        "label": "Off label use",
        "level": 4,
        "pos": "3392015.2960008783,-16295711.44857434",
        "src_id": "182190",
        "weight": "9.013563770316561e-05"
      }
    },
    {
      "type": "Feature",
      "id": "1589",
      "geometry": {
        "type": "Point",
        "coordinates": [
          19.876621,
          -30.560988
        ]
      },
      "properties": {
        "label": "Opisthotonus",
        "level": 4,
        "pos": "3668128.1284010485,-15111062.521419832",
        "src_id": "182255",
        "weight": "9.005666602499359e-05"
      }
    },
    {
      "type": "Feature",
      "id": "1588",
      "geometry": {
        "type": "Point",
        "coordinates": [
          23.810478,
          -32.545039
        ]
      },
      "properties": {
        "label": "Oppositional defiant disorder",
        "level": 4,
        "pos": "4820077.965017212,-16000793.038863076",
        "src_id": "182258",
        "weight": "9.005666602499359e-05"
      }
    },
    {
      "type": "Feature",
      "id": "1587",
      "geometry": {
        "type": "Point",
        "coordinates": [
          23.732455,
          -33.124743
        ]
      },
      "properties": {
        "label": "Oral surgery",
        "level": 4,
        "pos": "4797230.679768353,-16264423.22584143",
        "src_id": "182328",
        "weight": "9.013563770316561e-05"
      }
    },
    {
      "type": "Feature",
      "id": "1584",
      "geometry": {
        "type": "Point",
        "coordinates": [
          19.610082,
          -33.615329
        ]
      },
      "properties": {
        "label": "Periodic limb movement disorder",
        "level": 4,
        "pos": "3590077.3575132675,-16488887.448701156",
        "src_id": "183150",
        "weight": "9.005666602499359e-05"
      }
    },
    {
      "type": "Feature",
      "id": "1583",
      "geometry": {
        "type": "Point",
        "coordinates": [
          19.676186,
          -33.375439
        ]
      },
      "properties": {
        "label": "Phantom pain",
        "level": 4,
        "pos": "3609434.573629071,-16378969.325686093",
        "src_id": "183343",
        "weight": "9.013563770316561e-05"
      }
    },
    {
      "type": "Feature",
      "id": "1582",
      "geometry": {
        "type": "Point",
        "coordinates": [
          23.369668,
          -31.396591
        ]
      },
      "properties": {
        "label": "Phlebotomy",
        "level": 4,
        "pos": "4690995.973423518,-15483481.19636066",
        "src_id": "183411",
        "weight": "9.005666602499359e-05"
      }
    },
    {
      "type": "Feature",
      "id": "1403",
      "geometry": {
        "type": "Point",
        "coordinates": [
          19.52726,
          -33.540855
        ]
      },
      "properties": {
        "label": "Pituitary tumour benign",
        "level": 4,
        "pos": "3565824.6754989466,-16454730.596586261",
        "src_id": "183515",
        "weight": "9.278712402715061e-05"
      }
    },
    {
      "type": "Feature",
      "id": "1579",
      "geometry": {
        "type": "Point",
        "coordinates": [
          19.122535,
          -33.902452
        ]
      },
      "properties": {
        "label": "Platelet count decreased",
        "level": 4,
        "pos": "3447309.2508181357,-16620851.328261776",
        "src_id": "183595",
        "weight": "9.005666602499359e-05"
      }
    },
    {
      "type": "Feature",
      "id": "1578",
      "geometry": {
        "type": "Point",
        "coordinates": [
          21.376343,
          -30.657965
        ]
      },
      "properties": {
        "label": "Polymyositis",
        "level": 4,
        "pos": "4107291.241903018,-15154117.735477978",
        "src_id": "183780",
        "weight": "9.005666602499359e-05"
      }
    },
    {
      "type": "Feature",
      "id": "1575",
      "geometry": {
        "type": "Point",
        "coordinates": [
          20.004959,
          -33.534981
        ]
      },
      "properties": {
        "label": "Psychopathic personality",
        "level": 4,
        "pos": "3705709.055672165,-16452038.000808189",
        "src_id": "184446",
        "weight": "9.005666602499359e-05"
      }
    },
    {
      "type": "Feature",
      "id": "1574",
      "geometry": {
        "type": "Point",
        "coordinates": [
          21.458898,
          -30.706509
        ]
      },
      "properties": {
        "label": "Pulmonary oedema",
        "level": 4,
        "pos": "4131465.657529793,-15175686.095951214",
        "src_id": "184534",
        "weight": "9.017512354225163e-05"
      }
    },
    {
      "type": "Feature",
      "id": "1573",
      "geometry": {
        "type": "Point",
        "coordinates": [
          23.807749,
          -32.265784
        ]
      },
      "properties": {
        "label": "Radiation exposure",
        "level": 4,
        "pos": "4819279.087348721,-15874405.41428188",
        "src_id": "184698",
        "weight": "9.005666602499359e-05"
      }
    },
    {
      "type": "Feature",
      "id": "1572",
      "geometry": {
        "type": "Point",
        "coordinates": [
          22.762132,
          -30.928292
        ]
      },
      "properties": {
        "label": "Relaxation therapy",
        "level": 4,
        "pos": "4513091.328288433,-15274364.355953055",
        "src_id": "184965",
        "weight": "9.013563770316561e-05"
      }
    },
    {
      "type": "Feature",
      "id": "1571",
      "geometry": {
        "type": "Point",
        "coordinates": [
          19.363842,
          -30.614488
        ]
      },
      "properties": {
        "label": "Respiratory distress",
        "level": 4,
        "pos": "3517971.023743747,-15134809.844184622",
        "src_id": "185132",
        "weight": "9.005666602499359e-05"
      }
    },
    {
      "type": "Feature",
      "id": "1570",
      "geometry": {
        "type": "Point",
        "coordinates": [
          23.476459,
          -32.846939
        ]
      },
      "properties": {
        "label": "Respiratory therapy",
        "level": 4,
        "pos": "4722267.274952896,-16137872.13111702",
        "src_id": "185152",
        "weight": "9.005666602499359e-05"
      }
    },
    {
      "type": "Feature",
      "id": "1392",
      "geometry": {
        "type": "Point",
        "coordinates": [
          23.171425,
          -31.086341
        ]
      },
      "properties": {
        "label": "Retrograde amnesia",
        "level": 4,
        "pos": "4632944.526755915,-15344824.885333475",
        "src_id": "185284",
        "weight": "9.286609570532264e-05"
      }
    },
    {
      "type": "Feature",
      "id": "1569",
      "geometry": {
        "type": "Point",
        "coordinates": [
          23.36695,
          -32.724582
        ]
      },
      "properties": {
        "label": "Reye's syndrome",
        "level": 4,
        "pos": "4690199.949593797,-16082259.255751895",
        "src_id": "185319",
        "weight": "9.005666602499359e-05"
      }
    },
    {
      "type": "Feature",
      "id": "1568",
      "geometry": {
        "type": "Point",
        "coordinates": [
          22.482683,
          -30.776181
        ]
      },
      "properties": {
        "label": "Rhabdomyolysis",
        "level": 4,
        "pos": "4431260.325422064,-15206660.816403579",
        "src_id": "185322",
        "weight": "9.005666602499359e-05"
      }
    },
    {
      "type": "Feature",
      "id": "1567",
      "geometry": {
        "type": "Point",
        "coordinates": [
          21.060682,
          -34.294311
        ]
      },
      "properties": {
        "label": "Rib fracture",
        "level": 4,
        "pos": "4014856.2754966724,-16801671.635474544",
        "src_id": "185375",
        "weight": "9.025409522042365e-05"
      }
    },
    {
      "type": "Feature",
      "id": "1566",
      "geometry": {
        "type": "Point",
        "coordinates": [
          22.298332,
          -33.893301
        ]
      },
      "properties": {
        "label": "Severe mental retardation",
        "level": 4,
        "pos": "4377276.741338319,-16616638.554166304",
        "src_id": "185804",
        "weight": "9.005666602499359e-05"
      }
    },
    {
      "type": "Feature",
      "id": "1564",
      "geometry": {
        "type": "Point",
        "coordinates": [
          22.825061,
          -33.750999
        ]
      },
      "properties": {
        "label": "Sleep talking",
        "level": 4,
        "pos": "4531518.852863649,-16551187.083542816",
        "src_id": "186014",
        "weight": "9.017512354225163e-05"
      }
    },
    {
      "type": "Feature",
      "id": "1563",
      "geometry": {
        "type": "Point",
        "coordinates": [
          24.328704,
          -32.082475
        ]
      },
      "properties": {
        "label": "Social problem",
        "level": 4,
        "pos": "4971830.060997807,-15791653.64742764",
        "src_id": "186091",
        "weight": "9.005666602499359e-05"
      }
    },
    {
      "type": "Feature",
      "id": "1562",
      "geometry": {
        "type": "Point",
        "coordinates": [
          21.718572,
          -34.206489
        ]
      },
      "properties": {
        "label": "Spousal abuse",
        "level": 4,
        "pos": "4207505.958471263,-16761074.149447367",
        "src_id": "186330",
        "weight": "9.005666602499359e-05"
      }
    },
    {
      "type": "Feature",
      "id": "1561",
      "geometry": {
        "type": "Point",
        "coordinates": [
          20.349748,
          -33.750869
        ]
      },
      "properties": {
        "label": "Swollen tongue",
        "level": 4,
        "pos": "3806673.5070926594,-16551127.544781629",
        "src_id": "186617",
        "weight": "9.025409522042365e-05"
      }
    },
    {
      "type": "Feature",
      "id": "1560",
      "geometry": {
        "type": "Point",
        "coordinates": [
          21.515423,
          -33.670562
        ]
      },
      "properties": {
        "label": "Tetany",
        "level": 4,
        "pos": "4148017.7294633174,-16514238.591743968",
        "src_id": "186855",
        "weight": "9.005666602499359e-05"
      }
    },
    {
      "type": "Feature",
      "id": "1559",
      "geometry": {
        "type": "Point",
        "coordinates": [
          23.449465,
          -31.439584
        ]
      },
      "properties": {
        "label": "Thrombosis",
        "level": 4,
        "pos": "4714362.685372854,-15502731.217101809",
        "src_id": "186970",
        "weight": "9.013563770316561e-05"
      }
    },
    {
      "type": "Feature",
      "id": "1558",
      "geometry": {
        "type": "Point",
        "coordinates": [
          23.257924,
          -33.239856
        ]
      },
      "properties": {
        "label": "Thyroid cancer",
        "level": 4,
        "pos": "4658273.941393629,-16316978.708694194",
        "src_id": "187010",
        "weight": "9.005666602499359e-05"
      }
    },
    {
      "type": "Feature",
      "id": "1557",
      "geometry": {
        "type": "Point",
        "coordinates": [
          21.850457,
          -33.564556
        ]
      },
      "properties": {
        "label": "Thyroid disorder",
        "level": 4,
        "pos": "4246125.800384092,-16465597.514583217",
        "src_id": "187020",
        "weight": "9.005666602499359e-05"
      }
    },
    {
      "type": "Feature",
      "id": "1556",
      "geometry": {
        "type": "Point",
        "coordinates": [
          22.516491,
          -33.434191
        ]
      },
      "properties": {
        "label": "Tonic clonic movements",
        "level": 4,
        "pos": "4441160.144594811,-16405861.47617325",
        "src_id": "187141",
        "weight": "9.005666602499359e-05"
      }
    },
    {
      "type": "Feature",
      "id": "1555",
      "geometry": {
        "type": "Point",
        "coordinates": [
          21.823451,
          -33.703095
        ]
      },
      "properties": {
        "label": "Transfusion",
        "level": 4,
        "pos": "4238217.474204966,-16529178.497832509",
        "src_id": "187305",
        "weight": "9.005666602499359e-05"
      }
    },
    {
      "type": "Feature",
      "id": "1554",
      "geometry": {
        "type": "Point",
        "coordinates": [
          22.950598,
          -33.474513
        ]
      },
      "properties": {
        "label": "Truancy",
        "level": 4,
        "pos": "4568279.680381771,-16424328.115831468",
        "src_id": "187464",
        "weight": "9.005666602499359e-05"
      }
    },
    {
      "type": "Feature",
      "id": "1550",
      "geometry": {
        "type": "Point",
        "coordinates": [
          20.551458,
          -33.810037
        ]
      },