{
  "type": "FeatureCollection",
  "features": [
    {
      "type": "Feature",
      "id": "1",
      "geometry": {
        "type": "Point",
        "coordinates": [
          -2.075123,
          34.616333
        ]
      },
      "properties": {
        "label": "10,000 Maniacs",
        "level": 4,
        "pos": "1600.2099328841873,115452.73402685637",
        "weight": "185348.0"
      }
    },
    {
      "type": "Feature",
      "id": "504",
      "geometry": {
        "type": "Point",
        "coordinates": [
          -0.970864,
          34.715508
        ]
      },
      "properties": {
        "label": "Crash Test Dummies",
        "level": 4,
        "pos": "5082.19801814271,115841.41855623566",
        "weight": "186053.0"
      }
    },
    {
      "type": "Feature",
      "id": "1992",
      "geometry": {
        "type": "Point",
        "coordinates": [
          -3.291369,
          34.493648
        ]
      },
      "properties": {
        "label": "Suzanne Vega",
        "level": 3,
        "pos": "-2234.8976136665187,114972.53869821453",
        "weight": "365231.0"
      }
    },
    {
      "type": "Feature",
      "id": "1111",
      "geometry": {
        "type": "Point",
        "coordinates": [
          -4.172209,
          31.482573
        ]
      },
      "properties": {
        "label": "Joni Mitchell",
        "level": 3,
        "pos": "-5012.395706888653,103398.31408576427",
        "weight": "403885.0"
      }
    },
    {
      "type": "Feature",
      "id": "1279",
      "geometry": {
        "type": "Point",
        "coordinates": [
          -2.36904,
          35.129716
        ]
      },
      "properties": {
        "label": "Liz Phair",
        "level": 3,
        "pos": "673.4178964324893,117469.87088899448",
        "weight": "271289.0"
      }
    },
    {
      "type": "Feature",
      "id": "1497",
      "geometry": {
        "type": "Point",
        "coordinates": [
          -2.940139,
          38.008024
        ]
      },
      "properties": {
        "label": "Natalie Merchant",
        "level": 4,
        "pos": "-1127.3885521864895,129024.86499550301",
        "weight": "241734.0"
      }
    },
    {
      "type": "Feature",
      "id": "1080",
      "geometry": {
        "type": "Point",
        "coordinates": [
          -3.057682,
          33.775983
        ]
      },
      "properties": {
        "label": "Joan Osborne",
        "level": 4,
        "pos": "-1498.025810533863,112177.59894344945",
        "weight": "205205.0"
      }
    },
    {
      "type": "Feature",
      "id": "52",
      "geometry": {
        "type": "Point",
        "coordinates": [
          -2.121054,
          34.114753
        ]
      },
      "properties": {
        "label": "Aimee Mann",
        "level": 3,
        "pos": "1455.3788880462796,113493.97545391023",
        "weight": "460640.0"
      }
    },
    {
      "type": "Feature",
      "id": "944",
      "geometry": {
        "type": "Point",
        "coordinates": [
          -4.236917,
          35.791241
        ]
      },
      "properties": {
        "label": "Heather Nova",
        "level": 4,
        "pos": "-5216.437821815513,120087.92968381435",
        "weight": "228168.0"
      }
    },
    {
      "type": "Feature",
      "id": "1158",
      "geometry": {
        "type": "Point",
        "coordinates": [
          -2.512563,
          33.824921
        ]
      },
      "properties": {
        "label": "Kate Bush",
        "level": 3,
        "pos": "220.85921536391498,112367.43798374425",
        "weight": "491069.0"
      }
    },
    {
      "type": "Feature",
      "id": "2352",
      "geometry": {
        "type": "Point",
        "coordinates": [
          -7.866372,
          33.505204
        ]
      },
      "properties": {
        "label": "Tracy Chapman",
        "level": 3,
        "pos": "-16660.96710840719,111129.15507861224",
        "weight": "467792.0"
      }
    },
    {
      "type": "Feature",
      "id": "1078",
      "geometry": {
        "type": "Point",
        "coordinates": [
          2.181943,
          24.287351
        ]
      },
      "properties": {
        "label": "Joan Baez",
        "level": 4,
        "pos": "15023.746559040861,77130.67835031159",
        "weight": "237307.0"
      }
    },
    {
      "type": "Feature",
      "id": "1846",
      "geometry": {
        "type": "Point",
        "coordinates": [
          -1.357692,
          35.423417
        ]
      },
      "properties": {
        "label": "Shivaree",
        "level": 4,
        "pos": "3862.439673991791,118629.57330733318",
        "weight": "164910.0"
      }
    },
    {
      "type": "Feature",
      "id": "2471",
      "geometry": {
        "type": "Point",
        "coordinates": [
          -3.339288,
          41.448177
        ]
      },
      "properties": {
        "label": "Yael Naim",
        "level": 4,
        "pos": "-2385.99519269312,143448.88673951317",
        "weight": "120779.0"
      }
    },
    {
      "type": "Feature",
      "id": "1247",
      "geometry": {
        "type": "Point",
        "coordinates": [
          -5.299648,
          35.876799
        ]
      },
      "properties": {
        "label": "Lene Marlin",
        "level": 4,
        "pos": "-8567.476446960154,120428.11972794955",
        "weight": "159518.0"
      }
    },
    {
      "type": "Feature",
      "id": "433",
      "geometry": {
        "type": "Point",
        "coordinates": [
          -3.85838,
          36.419957
        ]
      },
      "properties": {
        "label": "Charlotte Martin",
        "level": 4,
        "pos": "-4022.81771042255,122596.41591569956",
        "weight": "106886.0"
      }
    },
    {
      "type": "Feature",
      "id": "1145",
      "geometry": {
        "type": "Point",
        "coordinates": [
          -4.380246,
          36.496468
        ]
      },
      "properties": {
        "label": "K's Choice",
        "level": 4,
        "pos": "-5668.394099960467,122903.06929463713",
        "weight": "175853.0"
      }
    },
    {
      "type": "Feature",
      "id": "1341",
      "geometry": {
        "type": "Point",
        "coordinates": [
          -5.021939,
          37.017028
        ]
      },
      "properties": {
        "label": "Maria Mena",
        "level": 4,
        "pos": "-7691.801336856722,124997.52161505572",
        "weight": "266367.0"
      }
    },
    {
      "type": "Feature",
      "id": "19",
      "geometry": {
        "type": "Point",
        "coordinates": [
          -36.887165,
          -4.063441
        ]
      },
      "properties": {
        "label": "4 Non Blondes",
        "level": 4,
        "pos": "-108170.40603576145,-16725.00783502988",
        "weight": "176534.0"
      }
    },
    {
      "type": "Feature",
      "id": "1923",
      "geometry": {
        "type": "Point",
        "coordinates": [
          -35.459822,
          -4.877376
        ]
      },
      "properties": {
        "label": "Spin Doctors",
        "level": 4,
        "pos": "-103669.66204332563,-19356.76373142875",
        "weight": "243038.0"
      }
    },
    {
      "type": "Feature",
      "id": "1248",
      "geometry": {
        "type": "Point",
        "coordinates": [
          -32.668576,
          -8.671845
        ]
      },
      "properties": {
        "label": "Lenny Kravitz",
        "level": 2,
        "pos": "-94868.19691234402,-31676.566807955533",
        "weight": "800370.0"
      }
    },
    {
      "type": "Feature",
      "id": "869",
      "geometry": {
        "type": "Point",
        "coordinates": [
          -34.883614,
          -4.115577
        ]
      },
      "properties": {
        "label": "Gin Blossoms",
        "level": 4,
        "pos": "-101852.73865243058,-16893.499589795927",
        "weight": "214073.0"
      }
    },
    {
      "type": "Feature",
      "id": "965",
      "geometry": {
        "type": "Point",
        "coordinates": [
          -35.682504,
          -1.885221
        ]
      },
      "properties": {
        "label": "Hootie & the Blowfish",
        "level": 4,
        "pos": "-104371.82940517948,-9693.613520722813",
        "weight": "187205.0"
      }
    },
    {
      "type": "Feature",
      "id": "1909",
      "geometry": {
        "type": "Point",
        "coordinates": [
          -39.430687,
          -0.121355
        ]
      },
      "properties": {
        "label": "Soul Asylum",
        "level": 4,
        "pos": "-116190.73705692764,-4006.677023062207",
        "weight": "197627.0"
      }
    },
    {
      "type": "Feature",
      "id": "770",
      "geometry": {
        "type": "Point",
        "coordinates": [
          -36.61507,
          -5.247595
        ]
      },
      "properties": {
        "label": "Fastball",
        "level": 4,
        "pos": "-107312.42722954004,-20554.843173860612",
        "weight": "158839.0"
      }
    },
    {
      "type": "Feature",
      "id": "1516",
      "geometry": {
        "type": "Point",
        "coordinates": [
          -36.624156,
          -3.823128
        ]
      },
      "properties": {
        "label": "New Radicals",
        "level": 4,
        "pos": "-107341.07500210818,-15948.521921534988",
        "weight": "198737.0"
      }
    },
    {
      "type": "Feature",
      "id": "1865",
      "geometry": {
        "type": "Point",
        "coordinates": [
          -35.879787,
          -3.610169
        ]
      },
      "properties": {
        "label": "Sister Hazel",
        "level": 4,
        "pos": "-104993.90895973433,-15260.597616504301",
        "weight": "129519.0"
      }
    },
    {
      "type": "Feature",
      "id": "1980",
      "geometry": {
        "type": "Point",
        "coordinates": [
          -37.201175,
          -4.748881
        ]
      },
      "properties": {
        "label": "Sugar Ray",
        "level": 4,
        "pos": "-109160.56125026451,-18941.09009326369",
        "weight": "225325.0"
      }
    },
    {
      "type": "Feature",
      "id": "2303",
      "geometry": {
        "type": "Point",
        "coordinates": [
          -35.941733,
          -3.197235
        ]
      },
      "properties": {
        "label": "Third Eye Blind",
        "level": 3,
        "pos": "-105189.23919746904,-13927.146950409639",
        "weight": "437023.0"
      }
    },
    {
      "type": "Feature",
      "id": "755",
      "geometry": {
        "type": "Point",
        "coordinates": [
          -36.241863,
          -5.812902
        ]
      },
      "properties": {
        "label": "Everclear",
        "level": 3,
        "pos": "-106135.61796651449,-22385.641128002877",
        "weight": "390700.0"
      }
    },
    {
      "type": "Feature",
      "id": "306",
      "geometry": {
        "type": "Point",
        "coordinates": [
          -36.868076,
          -4.556277
        ]
      },
      "properties": {
        "label": "Blues Traveler",
        "level": 4,
        "pos": "-108110.21964809467,-18318.180805571083",
        "weight": "178990.0"
      }
    },
    {
      "type": "Feature",
      "id": "1363",
      "geometry": {
        "type": "Point",
        "coordinates": [
          -31.84455,
          -4.321238
        ]
      },
      "properties": {
        "label": "Matchbox Twenty",
        "level": 2,
        "pos": "-92269.8467753879,-17558.248861104104",
        "weight": "570024.0"
      }
    },
    {
      "type": "Feature",
      "id": "1871",
      "geometry": {
        "type": "Point",
        "coordinates": [
          -34.282787,
          -8.833155
        ]
      },
      "properties": {
        "label": "Skunk Anansie",
        "level": 3,
        "pos": "-99958.18646236368,-32202.682538535904",
        "weight": "277102.0"
      }
    },
    {
      "type": "Feature",
      "id": "1822",
      "geometry": {
        "type": "Point",
        "coordinates": [
          -29.260266,
          -15.154901
        ]
      },
      "properties": {
        "label": "Semisonic",
        "level": 3,
        "pos": "-84120.99440124618,-53047.19143285193",
        "weight": "313910.0"
      }
    },
    {
      "type": "Feature",
      "id": "499",
      "geometry": {
        "type": "Point",
        "coordinates": [
          -31.284846,
          -7.206991
        ]
      },
      "properties": {
        "label": "Counting Crows",
        "level": 1,
        "pos": "-90504.97302240074,-26908.770407077496",
        "weight": "898958.0"
      }
    },
    {
      "type": "Feature",
      "id": "487",
      "geometry": {
        "type": "Point",
        "coordinates": [
          -38.338537,
          -6.742742
        ]
      },
      "properties": {
        "label": "Collective Soul",
        "level": 3,
        "pos": "-112746.93462859478,-25401.098115248864",
        "weight": "380646.0"
      }
    },
    {
      "type": "Feature",
      "id": "2287",
      "geometry": {
        "type": "Point",
        "coordinates": [
          -34.347473,
          -7.953193
        ]
      },
      "properties": {
        "label": "The Wallflowers",
        "level": 3,
        "pos": "-100162.1591588853,-29335.376944039657",
        "weight": "343767.0"
      }
    },
    {
      "type": "Feature",
      "id": "2354",
      "geometry": {
        "type": "Point",
        "coordinates": [
          -32.601223,
          -7.094733
        ]
      },
      "properties": {
        "label": "Train",
        "level": 3,
        "pos": "-94655.81610193818,-26544.070777040073",
        "weight": "367682.0"
      }
    },
    {
      "type": "Feature",
      "id": "895",
      "geometry": {
        "type": "Point",
        "coordinates": [
          -35.22884,
          -9.146441
        ]
      },
      "properties": {
        "label": "Goo Goo Dolls",
        "level": 2,
        "pos": "-102941.32134499802,-33225.11580259371",
        "weight": "854056.0"
      }
    },
    {
      "type": "Feature",
      "id": "1882",
      "geometry": {
        "type": "Point",
        "coordinates": [
          -34.091095,
          -7.517488
        ]
      },
      "properties": {
        "label": "Smash Mouth",
        "level": 3,
        "pos": "-99353.7423841385,-27917.97672743899",
        "weight": "414274.0"
      }
    },
    {
      "type": "Feature",
      "id": "672",
      "geometry": {
        "type": "Point",
        "coordinates": [
          -32.276449,
          -6.411958
        ]
      },
      "properties": {
        "label": "Eagle-Eye Cherry",
        "level": 3,
        "pos": "-93631.73016278053,-24327.753251304825",
        "weight": "300539.0"
      }
    },
    {
      "type": "Feature",
      "id": "507",
      "geometry": {
        "type": "Point",
        "coordinates": [
          -29.214177,
          -6.279676
        ]
      },
      "properties": {
        "label": "Creed",
        "level": 2,
        "pos": "-83975.66188329455,-23898.7073387388",
        "weight": "566764.0"
      }
    },
    {
      "type": "Feature",
      "id": "839",
      "geometry": {
        "type": "Point",
        "coordinates": [
          -38.934175,
          -12.584128
        ]
      },
      "properties": {
        "label": "Fun Lovin' Criminals",
        "level": 4,
        "pos": "-114625.1192511197,-44510.61688475611",
        "weight": "191712.0"
      }
    },
    {
      "type": "Feature",
      "id": "1706",
      "geometry": {
        "type": "Point",
        "coordinates": [
          -33.352809,
          -12.653183
        ]
      },
      "properties": {
        "label": "Reamonn",
        "level": 4,
        "pos": "-97025.75428671809,-44738.72986726515",
        "weight": "196349.0"
      }
    },
    {
      "type": "Feature",
      "id": "1007",
      "geometry": {
        "type": "Point",
        "coordinates": [
          -23.608052,
          -10.357693
        ]
      },
      "properties": {
        "label": "INXS",
        "level": 3,
        "pos": "-66298.22305704704,-37186.92403656877",
        "weight": "514441.0"
      }
    },
    {
      "type": "Feature",
      "id": "1663",
      "geometry": {
        "type": "Point",
        "coordinates": [
          -33.552893,
          -6.660088
        ]
      },
      "properties": {
        "label": "Prince",
        "level": 2,
        "pos": "-97656.6622954017,-25132.825211083822",
        "weight": "664339.0"
      }
    },
    {
      "type": "Feature",
      "id": "552",
      "geometry": {
        "type": "Point",
        "coordinates": [
          -36.745656,
          1.008742
        ]
      },
      "properties": {
        "label": "Dave Matthews Band",
        "level": 2,
        "pos": "-107724.20069576759,-363.63904361421555",
        "weight": "629789.0"
      }
    },
    {
      "type": "Feature",
      "id": "288",
      "geometry": {
        "type": "Point",
        "coordinates": [
          -39.513203,
          1.302933
        ]
      },
      "properties": {
        "label": "Blind Melon",
        "level": 3,
        "pos": "-116450.92636002073,584.8776622954823",
        "weight": "351969.0"
      }
    },
    {
      "type": "Feature",
      "id": "1459",
      "geometry": {
        "type": "Point",
        "coordinates": [
          -43.322792,
          3.676842
        ]
      },
      "properties": {
        "label": "Mother Love Bone",
        "level": 4,
        "pos": "-128463.46761165552,8244.974613450535",
        "weight": "119833.0"
      }
    },
    {
      "type": "Feature",
      "id": "1812",
      "geometry": {
        "type": "Point",
        "coordinates": [
          -41.404576,
          0.914863
        ]
      },
      "properties": {
        "label": "Screaming Trees",
        "level": 4,
        "pos": "-122414.87810224836,-666.3010076633881",
        "weight": "182602.0"
      }
    },
    {
      "type": "Feature",
      "id": "1274",
      "geometry": {
        "type": "Point",
        "coordinates": [
          -38.51479,
          -3.942862
        ]
      },
      "properties": {
        "label": "Lit",
        "level": 4,
        "pos": "-113302.70445520061,-16335.371748040377",
        "weight": "192681.0"
      }
    },
    {
      "type": "Feature",
      "id": "1550",
      "geometry": {
        "type": "Point",
        "coordinates": [
          -36.930869,
          -1.870485
        ]
      },
      "properties": {
        "label": "O.A.R.",
        "level": 4,
        "pos": "-108308.21859224813,-9646.075813249692",
        "weight": "141947.0"
      }
    },
    {
      "type": "Feature",
      "id": "248",
      "geometry": {
        "type": "Point",
        "coordinates": [
          -1.947784,
          31.148069
        ]
      },
      "properties": {
        "label": "Beth Orton",
        "level": 3,
        "pos": "2001.7377678267558,102136.1557100968",
        "weight": "312380.0"
      }
    },
    {
      "type": "Feature",
      "id": "1002",
      "geometry": {
        "type": "Point",
        "coordinates": [
          -3.001362,
          31.105999
        ]
      },
      "properties": {
        "label": "Indigo Girls",
        "level": 4,
        "pos": "-1320.4406221846104,101977.74438393774",
        "weight": "175174.0"
      }
    },
    {
      "type": "Feature",
      "id": "1762",
      "geometry": {
        "type": "Point",
        "coordinates": [
          -1.058241,
          31.512685
        ]
      },
      "properties": {
        "label": "Rosie Thomas",
        "level": 4,
        "pos": "4806.676347364398,103512.14998123201",
        "weight": "146598.0"
      }
    },
    {
      "type": "Feature",
      "id": "1387",
      "geometry": {
        "type": "Point",
        "coordinates": [
          -2.1505,
          31.631291
        ]
      },
      "properties": {
        "label": "Melissa Etheridge",
        "level": 4,
        "pos": "1362.5294339438944,103960.90420128847",
        "weight": "181427.0"
      }
    },
    {
      "type": "Feature",
      "id": "1602",
      "geometry": {
        "type": "Point",
        "coordinates": [
          -2.463778,
          30.611826
        ]
      },
      "properties": {
        "label": "Patty Griffin",
        "level": 4,
        "pos": "374.69342617538007,100122.06043822852",
        "weight": "129702.0"
      }
    },
    {
      "type": "Feature",
      "id": "2062",
      "geometry": {
        "type": "Point",
        "coordinates": [
          -1.645663,
          30.677857
        ]
      },
      "properties": {
        "label": "The Be Good Tanyas",
        "level": 4,
        "pos": "2954.3976355822933,100369.45648387901",
        "weight": "104608.0"
      }
    },
    {
      "type": "Feature",
      "id": "500",
      "geometry": {
        "type": "Point",
        "coordinates": [
          -26.694883,
          26.756102
        ]
      },
      "properties": {
        "label": "Cowboy Junkies",
        "level": 4,
        "pos": "-76031.73096079328,85950.19977689338",
        "weight": "137255.0"
      }
    },
    {
      "type": "Feature",
      "id": "723",
      "geometry": {
        "type": "Point",
        "coordinates": [
          -27.248952,
          25.954322
        ]
      },
      "properties": {
        "label": "Emmylou Harris",
        "level": 4,
        "pos": "-77778.83960106313,83065.81996934292",
        "weight": "142511.0"
      }
    },
    {
      "type": "Feature",
      "id": "1168",
      "geometry": {
        "type": "Point",
        "coordinates": [
          -25.724373,
          25.027305
        ]
      },
      "properties": {
        "label": "k.d. lang",
        "level": 4,
        "pos": "-72971.47812717603,79755.25778704372",
        "weight": "123677.0"
      }
    },
    {
      "type": "Feature",
      "id": "1304",
      "geometry": {
        "type": "Point",
        "coordinates": [
          -27.284893,
          26.90331
        ]
      },
      "properties": {
        "label": "Lucinda Williams",
        "level": 4,
        "pos": "-77892.16653138454,86481.96833203679",
        "weight": "159513.0"
      }
    },
    {
      "type": "Feature",
      "id": "1951",
      "geometry": {
        "type": "Point",
        "coordinates": [
          -27.878759,
          26.714566
        ]
      },
      "properties": {
        "label": "Steve Earle",
        "level": 4,
        "pos": "-79764.77371928659,85800.2785277945",
        "weight": "143243.0"
      }
    },
    {
      "type": "Feature",
      "id": "78",
      "geometry": {
        "type": "Point",
        "coordinates": [
          -29.099682,
          27.722608
        ]
      },
      "properties": {
        "label": "Alison Krauss",
        "level": 4,
        "pos": "-83614.62787990313,89454.40434489625",
        "weight": "175981.0"
      }
    },
    {
      "type": "Feature",
      "id": "640",
      "geometry": {
        "type": "Point",
        "coordinates": [
          -28.293237,
          25.935657
        ]
      },
      "properties": {
        "label": "Dolly Parton",
        "level": 4,
        "pos": "-81071.71951605802,82998.90509018286",
        "weight": "224160.0"
      }
    },
    {
      "type": "Feature",
      "id": "1793",
      "geometry": {
        "type": "Point",
        "coordinates": [
          -32.865583,
          26.105822
        ]
      },
      "properties": {
        "label": "Sarah McLachlan",
        "level": 2,
        "pos": "-95489.4074387985,83609.30867243055",
        "weight": "691754.0"
      }
    },
    {
      "type": "Feature",
      "id": "1835",
      "geometry": {
        "type": "Point",
        "coordinates": [
          -26.141376,
          25.921202
        ]
      },
      "properties": {
        "label": "Shawn Colvin",
        "level": 4,
        "pos": "-74286.39009134914,82947.10116174287",
        "weight": "171442.0"
      }
    },
    {
      "type": "Feature",
      "id": "1860",
      "geometry": {
        "type": "Point",
        "coordinates": [
          -23.99742,
          24.84094
        ]
      },
      "properties": {
        "label": "Sin\u00e9ad O'Connor",
        "level": 3,
        "pos": "-67525.9904872223,79092.76094062591",
        "weight": "431116.0"
      }
    },
    {
      "type": "Feature",
      "id": "323",
      "geometry": {
        "type": "Point",
        "coordinates": [
          -17.520089,
          16.651595
        ]
      },
      "properties": {
        "label": "Bonnie Raitt",
        "level": 4,
        "pos": "-47101.432835555854,50832.98257019609",
        "weight": "156706.0"
      }
    },
    {
      "type": "Feature",
      "id": "79",
      "geometry": {
        "type": "Point",
        "coordinates": [
          -26.52854,
          32.835356
        ]
      },
      "properties": {
        "label": "Alison Moyet",
        "level": 4,
        "pos": "-75507.2102005859,108549.51594729307",
        "weight": "115870.0"
      }
    },
    {
      "type": "Feature",
      "id": "249",
      "geometry": {
        "type": "Point",
        "coordinates": [
          -26.153265,
          23.79857
        ]
      },
      "properties": {
        "label": "Bette Midler",
        "level": 4,
        "pos": "-74323.88270890203,75405.40282597078",
        "weight": "139097.0"
      }
    },
    {
      "type": "Feature",
      "id": "2381",
      "geometry": {
        "type": "Point",
        "coordinates": [
          -27.490206,
          27.881777
        ]
      },
      "properties": {
        "label": "Uncle Tupelo",
        "level": 4,
        "pos": "-78539.56762755796,90034.4408168425",
        "weight": "121825.0"
      }
    },
    {
      "type": "Feature",
      "id": "622",
      "geometry": {
        "type": "Point",
        "coordinates": [
          -30.546227,
          29.862825
        ]
      },
      "properties": {
        "label": "Dixie Chicks",
        "level": 4,
        "pos": "-88175.92561954407,97327.40127099905",
        "weight": "241869.0"
      }
    },
    {
      "type": "Feature",
      "id": "545",
      "geometry": {
        "type": "Point",
        "coordinates": [
          -5.489675,
          32.876965
        ]
      },
      "properties": {
        "label": "Dar Williams",
        "level": 4,
        "pos": "-9166.684045593644,108709.19038594193",
        "weight": "143227.0"
      }
    },
    {
      "type": "Feature",
      "id": "123",
      "geometry": {
        "type": "Point",
        "coordinates": [
          -5.069335,
          32.142482
        ]
      },
      "properties": {
        "label": "Ani DiFranco",
        "level": 3,
        "pos": "-7841.249225894567,105901.60199019381",
        "weight": "312705.0"
      }
    },
    {
      "type": "Feature",
      "id": "2412",
      "geometry": {
        "type": "Point",
        "coordinates": [
          -5.690731,
          33.681019
        ]
      },
      "properties": {
        "label": "Vienna Teng",
        "level": 4,
        "pos": "-9800.659373568458,111809.53144467",
        "weight": "138324.0"
      }
    },
    {
      "type": "Feature",
      "id": "792",
      "geometry": {
        "type": "Point",
        "coordinates": [
          -4.93944,
          33.106376
        ]
      },
      "properties": {
        "label": "Fiona Apple",
        "level": 2,
        "pos": "-7431.664158799883,109590.86600506009",
        "weight": "652836.0"
      }
    },
    {
      "type": "Feature",
      "id": "2346",
      "geometry": {
        "type": "Point",
        "coordinates": [
          -6.027224,
          32.52216
        ]
      },
      "properties": {
        "label": "Tori Amos",
        "level": 2,
        "pos": "-10861.69772577103,107350.07489665032",
        "weight": "698337.0"
      }
    },
    {
      "type": "Feature",
      "id": "1684",
      "geometry": {
        "type": "Point",
        "coordinates": [
          -4.877174,
          34.129217
        ]
      },
      "properties": {
        "label": "Rachael Yamagata",
        "level": 3,
        "pos": "-7235.323529483667,113550.30399753115",
        "weight": "348857.0"
      }
    },
    {
      "type": "Feature",
      "id": "1647",
      "geometry": {
        "type": "Point",
        "coordinates": [
          -6.184402,
          33.396887
        ]
      },
      "properties": {
        "label": "PJ Harvey",
        "level": 2,
        "pos": "-11357.318708507415,110710.68355554307",
        "weight": "711575.0"
      }
    },
    {
      "type": "Feature",
      "id": "1794",
      "geometry": {
        "type": "Point",
        "coordinates": [
          -6.704195,
          33.037599
        ]
      },
      "properties": {
        "label": "Sarah Slean",
        "level": 4,
        "pos": "-12996.34691698434,109326.29768789317",
        "weight": "100375.0"
      }
    },
    {
      "type": "Feature",
      "id": "554",
      "geometry": {
        "type": "Point",
        "coordinates": [
          -7.424252,
          -29.493347
        ]
      },
      "properties": {
        "label": "David Byrne",
        "level": 4,
        "pos": "-15266.863635856156,-103187.54289714884",
        "weight": "155448.0"
      }
    },
    {
      "type": "Feature",
      "id": "2005",
      "geometry": {
        "type": "Point",
        "coordinates": [
          -6.567744,
          -28.910847
        ]
      },
      "properties": {
        "label": "Talking Heads",
        "level": 2,
        "pos": "-12566.092213956164,-101036.43573350612",
        "weight": "626936.0"
      }
    },
    {
      "type": "Feature",
      "id": "2416",
      "geometry": {
        "type": "Point",
        "coordinates": [
          -6.093083,
          -33.974907
        ]
      },
      "properties": {
        "label": "Violent Femmes",
        "level": 3,
        "pos": "-11069.365826819183,-120180.92132930997",
        "weight": "391223.0"
      }
    },
    {
      "type": "Feature",
      "id": "2054",
      "geometry": {
        "type": "Point",
        "coordinates": [
          -8.277828,
          -20.496416
        ]
      },
      "properties": {
        "label": "The B-52's",
        "level": 3,
        "pos": "-17958.38511243059,-71141.80154856136",
        "weight": "307010.0"
      }
    },
    {
      "type": "Feature",
      "id": "2080",
      "geometry": {
        "type": "Point",
        "coordinates": [
          -6.363951,
          -35.195877
        ]
      },
      "properties": {
        "label": "The Breeders",
        "level": 4,
        "pos": "-11923.483416955418,-124961.73226388448",
        "weight": "200250.0"
      }
    },
    {
      "type": "Feature",
      "id": "2232",
      "geometry": {
        "type": "Point",
        "coordinates": [
          -5.284257,
          -34.554099
        ]
      },
      "properties": {
        "label": "The Replacements",
        "level": 4,
        "pos": "-8518.949633037602,-122440.03614842548",
        "weight": "153863.0"
      }
    },
    {
      "type": "Feature",
      "id": "1910",
      "geometry": {
        "type": "Point",
        "coordinates": [
          -7.636421,
          -34.327471
        ]
      },
      "properties": {
        "label": "Soul Coughing",
        "level": 4,
        "pos": "-15935.880928008182,-121554.23230343808",
        "weight": "159918.0"
      }
    },
    {
      "type": "Feature",
      "id": "387",
      "geometry": {
        "type": "Point",
        "coordinates": [
          -5.699396,
          -36.339805
        ]
      },
      "properties": {
        "label": "Cake",
        "level": 2,
        "pos": "-9827.982953957322,-129506.49152153489",
        "weight": "742723.0"
      }
    },
    {
      "type": "Feature",
      "id": "818",
      "geometry": {
        "type": "Point",
        "coordinates": [
          -5.503438,
          -35.036132
        ]
      },
      "properties": {
        "label": "Frank Black",
        "level": 4,
        "pos": "-9210.083654387165,-124332.21084665506",
        "weight": "136103.0"
      }
    },
    {
      "type": "Feature",
      "id": "2291",
      "geometry": {
        "type": "Point",
        "coordinates": [
          -6.822197,
          -35.684116
        ]
      },
      "properties": {
        "label": "The White Stripes",
        "level": 1,
        "pos": "-13368.438172179709,-126893.49137776271",
        "weight": "1242635.0"
      }
    },
    {
      "type": "Feature",
      "id": "523",
      "geometry": {
        "type": "Point",
        "coordinates": [
          -8.717393,
          -21.144821
        ]
      },
      "properties": {
        "label": "Cyndi Lauper",
        "level": 3,
        "pos": "-19344.440760990892,-73377.97509727791",
        "weight": "518039.0"
      }
    },
    {
      "type": "Feature",
      "id": "2218",
      "geometry": {
        "type": "Point",
        "coordinates": [
          -10.348894,
          -13.947656
        ]
      },
      "properties": {
        "label": "The Pretenders",
        "level": 3,
        "pos": "-24488.954558111927,-49026.58432759505",
        "weight": "369737.0"
      }
    },
    {
      "type": "Feature",
      "id": "1068",
      "geometry": {
        "type": "Point",
        "coordinates": [
          -7.991244,
          34.538362
        ]
      },
      "properties": {
        "label": "Jewel",
        "level": 3,
        "pos": "-17054.71844227781,115147.46595028184",
        "weight": "485526.0"
      }
    },
    {
      "type": "Feature",
      "id": "750",
      "geometry": {
        "type": "Point",
        "coordinates": [
          -9.654135,
          37.976136
        ]
      },
      "properties": {
        "label": "Eva Cassidy",
        "level": 3,
        "pos": "-22298.20526090062,128894.42789528496",
        "weight": "309373.0"
      }
    },
    {
      "type": "Feature",
      "id": "1232",
      "geometry": {
        "type": "Point",
        "coordinates": [
          -9.233608,
          33.266701
        ]
      },
      "properties": {
        "label": "Laura Marling",
        "level": 4,
        "pos": "-20972.186434717834,110208.40499259514",
        "weight": "233069.0"
      }
    },
    {
      "type": "Feature",
      "id": "104",
      "geometry": {
        "type": "Point",
        "coordinates": [
          -7.263068,
          34.438336
        ]
      },
      "properties": {
        "label": "Amos Lee",
        "level": 3,
        "pos": "-14758.611122732706,114756.28072909555",
        "weight": "276612.0"
      }
    },
    {
      "type": "Feature",
      "id": "1250",
      "geometry": {
        "type": "Point",
        "coordinates": [
          11.462793,
          18.100474
        ]
      },
      "properties": {
        "label": "Leonard Cohen",
        "level": 3,
        "pos": "44288.46698429879,55726.92930606491",
        "weight": "536625.0"
      }
    },
    {
      "type": "Feature",
      "id": "1272",
      "geometry": {
        "type": "Point",
        "coordinates": [
          -22.36728,
          27.384053
        ]
      },
      "properties": {
        "label": "Lisa Loeb",
        "level": 3,
        "pos": "-62385.770176927384,88223.4510500217",
        "weight": "274835.0"
      }
    },
    {
      "type": "Feature",
      "id": "1605",
      "geometry": {
        "type": "Point",
        "coordinates": [
          -23.226577,
          26.530088
        ]
      },
      "properties": {
        "label": "Paula Cole",
        "level": 4,
        "pos": "-65095.341874703125,85135.08615472945",
        "weight": "176111.0"
      }
    },
    {
      "type": "Feature",
      "id": "58",
      "geometry": {
        "type": "Point",
        "coordinates": [
          -22.681982,
          28.584077
        ]
      },
      "properties": {
        "label": "Alanis Morissette",
        "level": 2,
        "pos": "-63378.104540333574,92604.02848996142",
        "weight": "881375.0"
      }
    },
    {
      "type": "Feature",
      "id": "1393",
      "geometry": {
        "type": "Point",
        "coordinates": [
          -21.782417,
          26.713943
        ]
      },
      "properties": {
        "label": "Meredith Brooks",
        "level": 4,
        "pos": "-60541.55848984224,85798.02727271529",
        "weight": "161543.0"
      }
    },
    {
      "type": "Feature",
      "id": "427",
      "geometry": {
        "type": "Point",
        "coordinates": [
          -21.747862,
          26.042287
        ]
      },
      "properties": {
        "label": "Chantal Kreviazuk",
        "level": 4,
        "pos": "-60432.5982049502,83381.30062488468",
        "weight": "149221.0"
      }
    },
    {
      "type": "Feature",
      "id": "668",
      "geometry": {
        "type": "Point",
        "coordinates": [
          -21.838632,
          27.265291
        ]
      },
      "properties": {
        "label": "Duncan Sheik",
        "level": 4,
        "pos": "-60718.82412480969,87792.54135856799",
        "weight": "101168.0"
      }
    },
    {
      "type": "Feature",
      "id": "1581",
      "geometry": {
        "type": "Point",
        "coordinates": [
          -22.061759,
          30.366411
        ]
      },
      "properties": {
        "label": "P!nk",
        "level": 3,
        "pos": "-61422.38560882997,99204.01599125257",
        "weight": "293683.0"
      }
    },
    {
      "type": "Feature",
      "id": "183",
      "geometry": {
        "type": "Point",
        "coordinates": [
          -23.014097,
          29.232243
        ]
      },
      "properties": {
        "label": "Auf der Maur",
        "level": 4,
        "pos": "-64425.3439031668,94990.81759548449",
        "weight": "116032.0"
      }
    },
    {
      "type": "Feature",
      "id": "1510",
      "geometry": {
        "type": "Point",
        "coordinates": [
          -20.350723,
          26.152487
        ]
      },
      "properties": {
        "label": "Nerina Pallot",
        "level": 4,
        "pos": "-56027.09336744629,83776.8566271525",
        "weight": "142913.0"
      }
    },
    {
      "type": "Feature",
      "id": "2331",
      "geometry": {
        "type": "Point",
        "coordinates": [
          -21.193552,
          28.164694
        ]
      },
      "properties": {
        "label": "Toad the Wet Sprocket",
        "level": 4,
        "pos": "-58684.727364954495,91067.54650890533",
        "weight": "155873.0"
      }
    },
    {
      "type": "Feature",
      "id": "2282",
      "geometry": {
        "type": "Point",
        "coordinates": [
          -20.776454,
          27.705512
        ]
      },
      "properties": {
        "label": "The Verve Pipe",
        "level": 4,
        "pos": "-57369.52253025277,89392.153720802",
        "weight": "171136.0"
      }
    },
    {
      "type": "Feature",
      "id": "2342",
      "geometry": {
        "type": "Point",
        "coordinates": [
          -20.752618,
          27.151335
        ]
      },
      "properties": {
        "label": "Tonic",
        "level": 4,
        "pos": "-57294.36202294743,87379.503377648",
        "weight": "204494.0"
      }
    },
    {
      "type": "Feature",
      "id": "395",
      "geometry": {
        "type": "Point",
        "coordinates": [
          -2.830112,
          42.426736
        ]
      },
      "properties": {
        "label": "Camille",
        "level": 4,
        "pos": "-780.4538870916742,147689.50609124053",
        "weight": "202716.0"
      }
    },
    {
      "type": "Feature",
      "id": "432",
      "geometry": {
        "type": "Point",
        "coordinates": [
          -4.055095,
          43.273489
        ]
      },
      "properties": {
        "label": "Charlotte Gainsbourg",
        "level": 4,
        "pos": "-4643.107415883661,151412.67280081543",
        "weight": "161105.0"
      }
    },
    {
      "type": "Feature",
      "id": "1180",
      "geometry": {
        "type": "Point",
        "coordinates": [
          -2.24082,
          41.686155
        ]
      },
      "properties": {
        "label": "Keren Ann",
        "level": 4,
        "pos": "1077.7328809312667,144474.2142380051",
        "weight": "190357.0"
      }
    },
    {
      "type": "Feature",
      "id": "404",
      "geometry": {
        "type": "Point",
        "coordinates": [
          -4.543095,
          41.509187
        ]
      },
      "properties": {
        "label": "Carla Bruni",
        "level": 4,
        "pos": "-6181.893574555043,143711.38501256699",
        "weight": "241038.0"
      }
    },
    {
      "type": "Feature",
      "id": "1594",
      "geometry": {
        "type": "Point",
        "coordinates": [
          -2.571391,
          43.407909
        ]
      },
      "properties": {
        "label": "Paris Combo",
        "level": 4,
        "pos": "35.36126579797529,152008.4510392368",
        "weight": "113716.0"
      }
    },
    {
      "type": "Feature",
      "id": "2398",
      "geometry": {
        "type": "Point",
        "coordinates": [
          -4.997555,
          43.599909
        ]
      },
      "properties": {
        "label": "Vanessa Paradis",
        "level": 4,
        "pos": "-7614.908143950252,152861.73786272458",
        "weight": "113609.0"
      }
    },
    {
      "type": "Feature",
      "id": "1827",
      "geometry": {
        "type": "Point",
        "coordinates": [
          -4.338581,
          45.169911
        ]
      },
      "properties": {
        "label": "Serge Gainsbourg",
        "level": 4,
        "pos": "-5537.014790980973,159943.97637818844",
        "weight": "234416.0"
      }
    },
    {
      "type": "Feature",
      "id": "1174",
      "geometry": {
        "type": "Point",
        "coordinates": [
          -22.189529,
          31.390658
        ]
      },
      "properties": {
        "label": "Kelly Osbourne",
        "level": 4,
        "pos": "-61825.27536392743,103051.05176153145",
        "weight": "114804.0"
      }
    },
    {
      "type": "Feature",
      "id": "1164",
      "geometry": {
        "type": "Point",
        "coordinates": [
          -21.130148,
          30.328152
        ]
      },
      "properties": {
        "label": "Katy Perry",
        "level": 2,
        "pos": "-58484.797978042145,99061.11465620837",
        "weight": "573653.0"
      }
    },
    {
      "type": "Feature",
      "id": "358",
      "geometry": {
        "type": "Point",
        "coordinates": [
          -21.170259,
          30.856776
        ]
      },
      "properties": {
        "label": "Britney Spears",
        "level": 1,
        "pos": "-58611.28100859922,101040.68324423295",
        "weight": "1022718.0"
      }
    },
    {
      "type": "Feature",
      "id": "1218",
      "geometry": {
        "type": "Point",
        "coordinates": [
          -21.480502,
          31.275488
        ]
      },
      "properties": {
        "label": "Lady GaGa",
        "level": 3,
        "pos": "-59589.548724363,102616.40905685764",
        "weight": "461534.0"
      }
    },
    {
      "type": "Feature",
      "id": "128",
      "geometry": {
        "type": "Point",
        "coordinates": [
          -34.070012,
          25.561362
        ]
      },
      "properties": {
        "label": "Anna Nalick",
        "level": 3,
        "pos": "-99287.25752553156,81659.35670323481",
        "weight": "305049.0"
      }
    },
    {
      "type": "Feature",
      "id": "1653",
      "geometry": {
        "type": "Point",
        "coordinates": [
          -35.308812,
          24.29725
        ]
      },
      "properties": {
        "label": "Poe",
        "level": 4,
        "pos": "-103193.48786480147,77165.69489386251",
        "weight": "170106.0"
      }
    },
    {
      "type": "Feature",
      "id": "1056",
      "geometry": {
        "type": "Point",
        "coordinates": [
          -35.643677,
          28.866433
        ]
      },
      "properties": {
        "label": "Jem",
        "level": 3,
        "pos": "-104249.40027418535,93641.94293479674",
        "weight": "484415.0"
      }
    },
    {
      "type": "Feature",
      "id": "604",
      "geometry": {
        "type": "Point",
        "coordinates": [
          -39.364511,
          27.895026
        ]
      },
      "properties": {
        "label": "Dido",
        "level": 1,
        "pos": "-115982.07358826928,90082.75597887608",
        "weight": "957515.0"
      }
    },
    {
      "type": "Feature",
      "id": "2101",
      "geometry": {
        "type": "Point",
        "coordinates": [
          -22.43331,
          25.099286
        ]
      },
      "properties": {
        "label": "The Cranberries",
        "level": 1,
        "pos": "-62593.98051468892,80011.41030700612",
        "weight": "1000991.0"
      }
    },
    {
      "type": "Feature",
      "id": "2402",
      "geometry": {
        "type": "Point",
        "coordinates": [
          -10.363948,
          8.022852
        ]
      },
      "properties": {
        "label": "Van Morrison",
        "level": 2,
        "pos": "-24536.41964835076,22331.142913699903",
        "weight": "650090.0"
      }
    },
    {
      "type": "Feature",
      "id": "2001",
      "geometry": {
        "type": "Point",
        "coordinates": [
          -18.537304,
          15.765025
        ]
      },
      "properties": {
        "label": "Taj Mahal",
        "level": 4,
        "pos": "-50308.95418512068,47856.78805146727",
        "weight": "110103.0"
      }
    },
    {
      "type": "Feature",
      "id": "1273",
      "geometry": {
        "type": "Point",
        "coordinates": [
          -27.969158,
          40.303827
        ]
      },
      "properties": {
        "label": "Lisa Stansfield",
        "level": 4,
        "pos": "-80049.8156042907,138570.12302940208",
        "weight": "144714.0"
      }
    },
    {
      "type": "Feature",
      "id": "1786",
      "geometry": {
        "type": "Point",
        "coordinates": [
          -19.440554,
          26.632552
        ]
      },
      "properties": {
        "label": "Sandi Thom",
        "level": 4,
        "pos": "-53157.106474232445,85504.42427255322",
        "weight": "133781.0"
      }
    },
    {
      "type": "Feature",
      "id": "1716",
      "geometry": {
        "type": "Point",
        "coordinates": [
          -33.191952,
          -6.965389
        ]
      },
      "properties": {
        "label": "R.E.M.",
        "level": 1,
        "pos": "-96518.53322361593,-26123.97013800325",
        "weight": "1314084.0"
      }
    },
    {
      "type": "Feature",
      "id": "1534",
      "geometry": {
        "type": "Point",
        "coordinates": [
          -30.976071,
          -3.854415
        ]
      },
      "properties": {
        "label": "Nine Days",
        "level": 4,
        "pos": "-89531.33385745142,-16049.602247774026",
        "weight": "130850.0"
      }
    },
    {
      "type": "Feature",
      "id": "2177",
      "geometry": {
        "type": "Point",
        "coordinates": [
          -33.298418,
          1.585786
        ]
      },
      "properties": {
        "label": "The Last Goodnight",
        "level": 4,
        "pos": "-96854.2388097508,1496.9549403255655",
        "weight": "101507.0"
      }
    },
    {
      "type": "Feature",
      "id": "1746",
      "geometry": {
        "type": "Point",
        "coordinates": [
          -30.906232,
          -3.347308
        ]
      },
      "properties": {
        "label": "Rob Thomas",
        "level": 3,
        "pos": "-89311.1054789039,-14411.704555240749",
        "weight": "269787.0"
      }
    },
    {
      "type": "Feature",
      "id": "1349",
      "geometry": {
        "type": "Point",
        "coordinates": [
          -32.410007,
          -3.164595
        ]
      },
      "properties": {
        "label": "Maroon 5",
        "level": 1,
        "pos": "-94052.87026186562,-13821.76856526863",
        "weight": "1083002.0"
      }
    },
    {
      "type": "Feature",
      "id": "619",
      "geometry": {
        "type": "Point",
        "coordinates": [
          -30.425234,
          -15.682837
        ]
      },
      "properties": {
        "label": "Dishwalla",
        "level": 4,
        "pos": "-87794.40697925686,-54812.5427393402",
        "weight": "146829.0"
      }
    },
    {
      "type": "Feature",
      "id": "754",
      "geometry": {
        "type": "Point",
        "coordinates": [
          -27.782198,
          -14.668231
        ]
      },
      "properties": {
        "label": "Eve 6",
        "level": 3,
        "pos": "-79460.28675629504,-51423.72853621174",
        "weight": "317568.0"
      }
    },
    {
      "type": "Feature",
      "id": "1339",
      "geometry": {
        "type": "Point",
        "coordinates": [
          -29.975845,
          -14.890409
        ]
      },
      "properties": {
        "label": "Marcy Playground",
        "level": 4,
        "pos": "-86377.37752873237,-52164.4271154748",
        "weight": "244071.0"
      }
    },
    {
      "type": "Feature",
      "id": "2441",
      "geometry": {
        "type": "Point",
        "coordinates": [
          -25.813928,
          -23.139254
        ]
      },
      "properties": {
        "label": "Wheatus",
        "level": 4,
        "pos": "-73253.86790097575,-80319.38743390872",
        "weight": "222176.0"
      }
    },
    {
      "type": "Feature",
      "id": "698",
      "geometry": {
        "type": "Point",
        "coordinates": [
          -29.299819,
          -17.862349
        ]
      },
      "properties": {
        "label": "Electric Six",
        "level": 4,
        "pos": "-84245.71245064244,-62150.89693160586",
        "weight": "228070.0"
      }
    },
    {
      "type": "Feature",
      "id": "1278",
      "geometry": {
        "type": "Point",
        "coordinates": [
          -30.384733,
          -5.921318
        ]
      },
      "properties": {
        "label": "Live",
        "level": 3,
        "pos": "-87666.70190731299,-22736.962083546045",
        "weight": "509553.0"
      }
    },
    {
      "type": "Feature",
      "id": "2409",
      "geometry": {
        "type": "Point",
        "coordinates": [
          -31.04429,
          -5.515825
        ]
      },
      "properties": {
        "label": "Vertical Horizon",
        "level": 3,
        "pos": "-89746.44391743946,-21423.308116008604",
        "weight": "272035.0"
      }
    },
    {
      "type": "Feature",
      "id": "397",
      "geometry": {
        "type": "Point",
        "coordinates": [
          -41.17551,
          -6.513172
        ]
      },
      "properties": {
        "label": "Candlebox",
        "level": 4,
        "pos": "-121692.57833958318,-24656.095023520716",
        "weight": "129066.0"
      }
    },
    {
      "type": "Feature",
      "id": "831",
      "geometry": {
        "type": "Point",
        "coordinates": [
          -39.793134,
          -4.594582
        ]
      },
      "properties": {
        "label": "Fuel",
        "level": 3,
        "pos": "-117333.61833598129,-18442.048853975142",
        "weight": "373212.0"
      }
    },
    {
      "type": "Feature",
      "id": "578",
      "geometry": {
        "type": "Point",
        "coordinates": [
          -41.881096,
          -4.91285
        ]
      },
      "properties": {
        "label": "Default",
        "level": 4,
        "pos": "-123917.46241928346,-19471.534607115584",
        "weight": "186893.0"
      }
    },
    {
      "type": "Feature",
      "id": "795",
      "geometry": {
        "type": "Point",
        "coordinates": [
          -32.970485,
          -5.832367
        ]
      },
      "properties": {
        "label": "Five for Fighting",
        "level": 3,
        "pos": "-95820.19104489121,-22448.70703135402",
        "weight": "314892.0"
      }
    },
    {
      "type": "Feature",
      "id": "1257",
      "geometry": {
        "type": "Point",
        "coordinates": [
          -38.299402,
          -8.959861
        ]
      },
      "properties": {
        "label": "Lifehouse",
        "level": 2,
        "pos": "-112623.52591926543,-32616.087124731508",
        "weight": "626378.0"
      }
    },
    {
      "type": "Feature",
      "id": "535",
      "geometry": {
        "type": "Point",
        "coordinates": [
          -32.00006,
          -5.091688
        ]
      },
      "properties": {
        "label": "Daniel Powter",
        "level": 3,
        "pos": "-92760.21137219194,-20050.22088809562",
        "weight": "336008.0"
      }
    },
    {
      "type": "Feature",
      "id": "809",
      "geometry": {
        "type": "Point",
        "coordinates": [
          -32.976063,
          -3.864319
        ]
      },
      "properties": {
        "label": "Fool's Garden",
        "level": 4,
        "pos": "-95837.77832168498,-16081.601546730304",
        "weight": "182806.0"
      }
    },
    {
      "type": "Feature",
      "id": "1934",
      "geometry": {
        "type": "Point",
        "coordinates": [
          -27.267634,
          -2.29051
        ]
      },
      "properties": {
        "label": "Staind",
        "level": 2,
        "pos": "-77837.75291149005,-11000.929481338244",
        "weight": "597418.0"
      }
    },
    {
      "type": "Feature",
      "id": "17",
      "geometry": {
        "type": "Point",
        "coordinates": [
          -26.5444,
          -5.753736
        ]
      },
      "properties": {
        "label": "3 Doors Down",
        "level": 1,
        "pos": "-75557.21824946838,-22193.938916602972",
        "weight": "949527.0"
      }
    },
    {
      "type": "Feature",
      "id": "89",
      "geometry": {
        "type": "Point",
        "coordinates": [
          -27.941447,
          -6.536985
        ]
      },
      "properties": {
        "label": "Alter Bridge",
        "level": 4,
        "pos": "-79962.43556042625,-24733.36166515384",
        "weight": "231894.0"
      }
    },
    {
      "type": "Feature",
      "id": "1672",
      "geometry": {
        "type": "Point",
        "coordinates": [
          -28.327818,
          -7.180922
        ]
      },
      "properties": {
        "label": "Puddle of Mudd",
        "level": 3,
        "pos": "-81180.75664412505,-26824.067406389797",
        "weight": "394073.0"
      }
    },
    {
      "type": "Feature",
      "id": "1524",
      "geometry": {
        "type": "Point",
        "coordinates": [
          -29.058736,
          -4.965599
        ]
      },
      "properties": {
        "label": "Nickelback",
        "level": 1,
        "pos": "-83485.51631809938,-19642.199912590753",
        "weight": "968277.0"
      }
    },
    {
      "type": "Feature",
      "id": "841",
      "geometry": {
        "type": "Point",
        "coordinates": [
          -40.018905,
          -11.54262
        ]
      },
      "properties": {
        "label": "G. Love & Special Sauce",
        "level": 4,
        "pos": "-118045.52959114409,-41077.45288626466",
        "weight": "192410.0"
      }
    },
    {
      "type": "Feature",
      "id": "758",
      "geometry": {
        "type": "Point",
        "coordinates": [
          -38.264743,
          -13.423427
        ]
      },
      "properties": {
        "label": "Everlast",
        "level": 4,
        "pos": "-112514.23674128183,-47287.34063932778",
        "weight": "207852.0"
      }
    },
    {
      "type": "Feature",
      "id": "1948",
      "geometry": {
        "type": "Point",
        "coordinates": [
          -46.286417,
          -18.194861
        ]
      },
      "properties": {
        "label": "Stereo MC's",
        "level": 4,
        "pos": "-137808.4832929776,-63278.096539463106",
        "weight": "181042.0"
      }
    },
    {
      "type": "Feature",
      "id": "1269",
      "geometry": {
        "type": "Point",
        "coordinates": [
          -34.403035,
          -19.789755
        ]
      },
      "properties": {
        "label": "Liquido",
        "level": 4,
        "pos": "-100337.35651859104,-68715.44784456865",
        "weight": "114913.0"
      }
    },
    {
      "type": "Feature",
      "id": "1983",
      "geometry": {
        "type": "Point",
        "coordinates": [
          -34.906045,
          -13.533901
        ]
      },
      "properties": {
        "label": "Sunrise Avenue",
        "level": 4,
        "pos": "-101923.46915568707,-47653.54062951147",
        "weight": "181985.0"
      }
    },
    {
      "type": "Feature",
      "id": "1850",
      "geometry": {
        "type": "Point",
        "coordinates": [
          -33.705961,
          -13.563677
        ]
      },
      "properties": {
        "label": "Silbermond",
        "level": 4,
        "pos": "-98139.3235166621,-47752.27379093969",
        "weight": "127642.0"
      }
    },
    {
      "type": "Feature",
      "id": "1664",
      "geometry": {
        "type": "Point",
        "coordinates": [
          -34.219439,
          -5.556944
        ]
      },
      "properties": {
        "label": "Prince & The Revolution",
        "level": 4,
        "pos": "-99758.4389320606,-21556.48108198504",
        "weight": "102950.0"
      }
    },
    {
      "type": "Feature",
      "id": "1725",
      "geometry": {
        "type": "Point",
        "coordinates": [
          -33.929794,
          -4.926094
        ]
      },
      "properties": {
        "label": "Rick James",
        "level": 4,
        "pos": "-98845.117063401,-19514.379982101902",
        "weight": "179537.0"
      }
    },
    {
      "type": "Feature",
      "id": "1790",
      "geometry": {
        "type": "Point",
        "coordinates": [
          -35.353693,
          25.456506
        ]
      },
      "properties": {
        "label": "Sara Bareilles",
        "level": 3,
        "pos": "-103335.01426262603,81284.84537308253",
        "weight": "351048.0"
      }
    },
    {
      "type": "Feature",
      "id": "1159",
      "geometry": {
        "type": "Point",
        "coordinates": [
          -34.884553,
          24.943511
        ]
      },
      "properties": {
        "label": "Kate Havnevik",
        "level": 4,
        "pos": "-101855.70366186605,79457.26281634514",
        "weight": "111383.0"
      }
    },
    {
      "type": "Feature",
      "id": "2410",
      "geometry": {
        "type": "Point",
        "coordinates": [
          -37.019651,
          24.301028
        ]
      },
      "properties": {
        "label": "Veruca Salt",
        "level": 4,
        "pos": "-108588.16744290745,77179.04892549771",
        "weight": "124495.0"
      }
    },
    {
      "type": "Feature",
      "id": "851",
      "geometry": {
        "type": "Point",
        "coordinates": [
          -37.844616,
          23.1416
        ]
      },
      "properties": {
        "label": "Garbage",
        "level": 2,
        "pos": "-111189.47956684632,73096.62686177729",
        "weight": "824282.0"
      }
    },
    {
      "type": "Feature",
      "id": "997",
      "geometry": {
        "type": "Point",
        "coordinates": [
          -35.112661,
          29.764829
        ]
      },
      "properties": {
        "label": "Imogen Heap",
        "level": 2,
        "pos": "-102574.98444869573,96963.31578749522",
        "weight": "677093.0"
      }
    },
    {
      "type": "Feature",
      "id": "830",
      "geometry": {
        "type": "Point",
        "coordinates": [
          -36.525635,
          28.830851
        ]
      },
      "properties": {
        "label": "Frou Frou",
        "level": 2,
        "pos": "-107030.41837117687,93510.98952625603",
        "weight": "640714.0"
      }
    },
    {
      "type": "Feature",
      "id": "272",
      "geometry": {
        "type": "Point",
        "coordinates": [
          -38.644425,
          31.234955
        ]
      },
      "properties": {
        "label": "Bitter:Sweet",
        "level": 4,
        "pos": "-113711.4658915352,102463.56862833045",
        "weight": "122634.0"
      }
    },
    {
      "type": "Feature",
      "id": "1508",
      "geometry": {
        "type": "Point",
        "coordinates": [
          -44.116539,
          29.747377
        ]
      },
      "properties": {
        "label": "Nelly Furtado",
        "level": 1,
        "pos": "-130966.33661129173,96898.5187217411",
        "weight": "1092709.0"
      }
    },
    {
      "type": "Feature",
      "id": "1498",
      "geometry": {
        "type": "Point",
        "coordinates": [
          -41.594533,
          26.956948
        ]
      },
      "properties": {
        "label": "Natasha Bedingfield",
        "level": 2,
        "pos": "-123013.85718312091,86675.90143276898",
        "weight": "634312.0"
      }
    },
    {
      "type": "Feature",
      "id": "963",
      "geometry": {
        "type": "Point",
        "coordinates": [
          -38.445512,
          24.465794
        ]
      },
      "properties": {
        "label": "Hole",
        "level": 3,
        "pos": "-113084.25397455179,77762.1873812102",
        "weight": "360592.0"
      }
    },
    {
      "type": "Feature",
      "id": "1648",
      "geometry": {
        "type": "Point",
        "coordinates": [
          -40.652968,
          22.690471
        ]
      },
      "properties": {
        "label": "Placebo",
        "level": 1,
        "pos": "-120044.88243030167,71517.8017048802",
        "weight": "1310676.0"
      }
    },
    {
      "type": "Feature",
      "id": "745",
      "geometry": {
        "type": "Point",
        "coordinates": [
          -38.729662,
          32.013255
        ]
      },
      "properties": {
        "label": "Esthero",
        "level": 4,
        "pos": "-113980.23742617741,105409.9806863342",
        "weight": "180090.0"
      }
    },
    {
      "type": "Feature",
      "id": "1989",
      "geometry": {
        "type": "Point",
        "coordinates": [
          -38.09061,
          31.926351
        ]
      },
      "properties": {
        "label": "Supreme Beings of Leisure",
        "level": 4,
        "pos": "-111965.1556657946,105079.75713036084",
        "weight": "163284.0"
      }
    },
    {
      "type": "Feature",
      "id": "998",
      "geometry": {
        "type": "Point",
        "coordinates": [
          -40.636508,
          32.750654
        ]
      },
      "properties": {
        "label": "I Monster",
        "level": 4,
        "pos": "-119992.97716360679,108224.71649962079",
        "weight": "123089.0"
      }
    },
    {
      "type": "Feature",
      "id": "348",
      "geometry": {
        "type": "Point",
        "coordinates": [
          -39.526202,
          30.691556
        ]
      },
      "properties": {
        "label": "Brazilian Girls",
        "level": 4,
        "pos": "-116491.91580963723,100420.81029663053",
        "weight": "196183.0"
      }
    },
    {
      "type": "Feature",
      "id": "921",
      "geometry": {
        "type": "Point",
        "coordinates": [
          -45.133712,
          30.745927
        ]
      },
      "properties": {
        "label": "Gwen Stefani",
        "level": 2,
        "pos": "-134173.7338790029,100624.68018267663",
        "weight": "827112.0"
      }
    },
    {
      "type": "Feature",
      "id": "1730",
      "geometry": {
        "type": "Point",
        "coordinates": [
          -45.414053,
          29.397935
        ]
      },
      "properties": {
        "label": "Rihanna",
        "level": 1,
        "pos": "-135057.70854200167,95603.36587980765",
        "weight": "990964.0"
      }
    },
    {
      "type": "Feature",
      "id": "1527",
      "geometry": {
        "type": "Point",
        "coordinates": [
          -44.95273,
          28.841026
        ]
      },
      "properties": {
        "label": "Nicole Scherzinger",
        "level": 4,
        "pos": "-133603.04848771179,93548.43319744316",
        "weight": "146513.0"
      }
    },
    {
      "type": "Feature",
      "id": "782",
      "geometry": {
        "type": "Point",
        "coordinates": [
          -47.442083,
          30.696622
        ]
      },
      "properties": {
        "label": "Fergie",
        "level": 2,
        "pos": "-141452.5716030743,100439.79713293629",
        "weight": "624584.0"
      }
    },
    {
      "type": "Feature",
      "id": "1331",
      "geometry": {
        "type": "Point",
        "coordinates": [
          -42.926996,
          26.66523
        ]
      },
      "properties": {
        "label": "Mandy Moore",
        "level": 3,
        "pos": "-127215.43392793974,85622.2813859725",
        "weight": "281127.0"
      }
    },
    {
      "type": "Feature",
      "id": "164",
      "geometry": {
        "type": "Point",
        "coordinates": [
          -42.648527,
          27.414247
        ]
      },
      "properties": {
        "label": "Ashlee Simpson",
        "level": 3,
        "pos": "-126337.35392214324,88333.08255281934",
        "weight": "469115.0"
      }
    },
    {
      "type": "Feature",
      "id": "91",
      "geometry": {
        "type": "Point",
        "coordinates": [
          -42.101838,
          27.615399
        ]
      },
      "properties": {
        "label": "Aly & AJ",
        "level": 4,
        "pos": "-124613.50880460015,89064.18946002469",
        "weight": "139448.0"
      }
    },
    {
      "type": "Feature",
      "id": "1265",
      "geometry": {
        "type": "Point",
        "coordinates": [
          -42.575056,
          26.337943
        ]
      },
      "properties": {
        "label": "Lindsay Lohan",
        "level": 3,
        "pos": "-126105.68417997978,84443.3875902488",
        "weight": "304837.0"
      }
    },
    {
      "type": "Feature",
      "id": "534",
      "geometry": {
        "type": "Point",
        "coordinates": [
          -41.11326,
          26.140889
        ]
      },
      "properties": {
        "label": "Daniel Bedingfield",
        "level": 4,
        "pos": "-121496.29212783773,83735.21342823244",
        "weight": "188172.0"
      }
    },
    {
      "type": "Feature",
      "id": "958",
      "geometry": {
        "type": "Point",
        "coordinates": [
          -41.705426,
          26.027207
        ]
      },
      "properties": {
        "label": "Hilary Duff",
        "level": 3,
        "pos": "-123363.52869741005,83327.19530516061",
        "weight": "408619.0"
      }
    },
    {
      "type": "Feature",
      "id": "1162",
      "geometry": {
        "type": "Point",
        "coordinates": [
          -42.782979,
          26.919067
        ]
      },
      "properties": {
        "label": "Katharine McPhee",
        "level": 4,
        "pos": "-126761.30587673547,86538.93138244221",
        "weight": "105181.0"
      }
    },
    {
      "type": "Feature",
      "id": "1115",
      "geometry": {
        "type": "Point",
        "coordinates": [
          -42.154323,
          26.154501
        ]
      },
      "properties": {
        "label": "Jordin Sparks",
        "level": 4,
        "pos": "-124779.00639989939,83784.0905459115",
        "weight": "168943.0"
      }
    },
    {
      "type": "Feature",
      "id": "1839",
      "geometry": {
        "type": "Point",
        "coordinates": [
          -24.695018,
          -42.639238
        ]
      },
      "properties": {
        "label": "Sheryl Crow",
        "level": 2,
        "pos": "-69725.67700439494,-155850.07780430804",
        "weight": "605660.0"
      }
    },
    {
      "type": "Feature",
      "id": "1496",
      "geometry": {
        "type": "Point",
        "coordinates": [
          -41.395972,
          -42.936252
        ]
      },
      "properties": {
        "label": "Natalie Imbruglia",
        "level": 2,
        "pos": "-122387.74820528044,-157154.69776860726",
        "weight": "556836.0"
      }
    },
    {
      "type": "Feature",
      "id": "132",
      "geometry": {
        "type": "Point",
        "coordinates": [
          -12.693779,
          -28.790773
        ]
      },
      "properties": {
        "label": "Annie Lennox",
        "level": 3,
        "pos": "-31882.92575679657,-100594.5343255008",
        "weight": "363635.0"
      }
    },
    {
      "type": "Feature",
      "id": "1411",
      "geometry": {
        "type": "Point",
        "coordinates": [
          -22.754672,
          -42.537335
        ]
      },
      "properties": {
        "label": "Michelle Branch",
        "level": 3,
        "pos": "-63607.30654819168,-155403.905809806",
        "weight": "440679.0"
      }
    },
    {
      "type": "Feature",
      "id": "2034",
      "geometry": {
        "type": "Point",
        "coordinates": [
          -24.066267,
          -40.922499
        ]
      },
      "properties": {
        "label": "Texas",
        "level": 3,
        "pos": "-67743.0787272168,-148428.2372710804",
        "weight": "311809.0"
      }
    },
    {
      "type": "Feature",
      "id": "2085",
      "geometry": {
        "type": "Point",
        "coordinates": [
          -41.60825,
          -41.418783
        ]
      },
      "properties": {
        "label": "The Cardigans",
        "level": 2,
        "pos": "-123057.10756420606,-150553.4935162189",
        "weight": "804033.0"
      }
    },
    {
      "type": "Feature",
      "id": "1385",
      "geometry": {
        "type": "Point",
        "coordinates": [
          -42.545778,
          -41.806703
        ]
      },
      "properties": {
        "label": "Melanie C",
        "level": 3,
        "pos": "-126013.35680863028,-152226.0173378216",
        "weight": "274824.0"
      }
    },
    {
      "type": "Feature",
      "id": "586",
      "geometry": {
        "type": "Point",
        "coordinates": [
          -41.40332,
          -43.781927
        ]
      },
      "properties": {
        "label": "Delta Goodrem",
        "level": 4,
        "pos": "-122410.917967425,-160904.17109324082",
        "weight": "210939.0"
      }
    },
    {
      "type": "Feature",
      "id": "863",
      "geometry": {
        "type": "Point",
        "coordinates": [
          -41.189267,
          -41.618504
        ]
      },
      "properties": {
        "label": "Geri Halliwell",
        "level": 4,
        "pos": "-121735.95548242699,-151413.33637894626",
        "weight": "163415.0"
      }
    },
    {
      "type": "Feature",
      "id": "722",
      "geometry": {
        "type": "Point",
        "coordinates": [
          -42.586042,
          -43.161112
        ]
      },
      "properties": {
        "label": "Emma Bunton",
        "level": 4,
        "pos": "-126140.32462994904,-158146.57709473048",
        "weight": "126484.0"
      }
    },
    {
      "type": "Feature",
      "id": "538",
      "geometry": {
        "type": "Point",
        "coordinates": [
          -52.103058,
          -36.545324
        ]
      },
      "properties": {
        "label": "Dannii Minogue",
        "level": 4,
        "pos": "-156149.7309597723,-130330.01766526286",
        "weight": "153685.0"
      }
    },
    {
      "type": "Feature",
      "id": "83",
      "geometry": {
        "type": "Point",
        "coordinates": [
          -42.240245,
          -43.825289
        ]
      },
      "properties": {
        "label": "All Saints",
        "level": 3,
        "pos": "-125049.93726064717,-161097.8421307933",
        "weight": "281514.0"
      }
    },
    {
      "type": "Feature",
      "id": "1977",
      "geometry": {
        "type": "Point",
        "coordinates": [
          -44.944418,
          -41.996485
        ]
      },
      "properties": {
        "label": "Sugababes",
        "level": 2,
        "pos": "-133576.8362198171,-153047.96228645256",
        "weight": "580581.0"
      }
    },
    {
      "type": "Feature",
      "id": "749",
      "geometry": {
        "type": "Point",
        "coordinates": [
          -10.827551,
          -28.073355
        ]
      },
      "properties": {
        "label": "Eurythmics",
        "level": 3,
        "pos": "-25998.26797962671,-97964.70042166766",
        "weight": "537321.0"
      }
    },
    {
      "type": "Feature",
      "id": "1814",
      "geometry": {
        "type": "Point",
        "coordinates": [
          -10.93551,
          -33.266077
        ]
      },
      "properties": {
        "label": "Seal",
        "level": 3,
        "pos": "-26338.687531084237,-117436.98374113737",
        "weight": "407957.0"
      }
    },
    {
      "type": "Feature",
      "id": "454",
      "geometry": {
        "type": "Point",
        "coordinates": [
          -13.04212,
          -9.290772
        ]
      },
      "properties": {
        "label": "Chris Isaak",
        "level": 3,
        "pos": "-32981.332684957946,-33696.455841693496",
        "weight": "294773.0"
      }
    },
    {
      "type": "Feature",
      "id": "2395",
      "geometry": {
        "type": "Point",
        "coordinates": [
          -22.259241,
          -43.346531
        ]
      },
      "properties": {
        "label": "Vanessa Carlton",
        "level": 3,
        "pos": "-62045.09504245912,-158967.2250417202",
        "weight": "403428.0"
      }
    },
    {
      "type": "Feature",
      "id": "2294",
      "geometry": {
        "type": "Point",
        "coordinates": [
          -21.596548,
          -43.021636
        ]
      },
      "properties": {
        "label": "The Wreckers",
        "level": 4,
        "pos": "-59955.47456775261,-157530.91351944287",
        "weight": "105282.0"
      }
    },
    {
      "type": "Feature",
      "id": "1922",
      "geometry": {
        "type": "Point",
        "coordinates": [
          -43.543071,
          -40.716221
        ]
      },
      "properties": {
        "label": "Spice Girls",
        "level": 3,
        "pos": "-129158.05931903438,-147549.58823513967",
        "weight": "445519.0"
      }
    },
    {
      "type": "Feature",
      "id": "1907",
      "geometry": {
        "type": "Point",
        "coordinates": [
          -51.077525,
          -35.410454
        ]
      },
      "properties": {
        "label": "Sophie Ellis-Bextor",
        "level": 3,
        "pos": "-152915.9769061175,-125809.27575782705",
        "weight": "310619.0"
      }
    },
    {
      "type": "Feature",
      "id": "1825",
      "geometry": {
        "type": "Point",
        "coordinates": [
          -61.546709,
          -24.756896
        ]
      },
      "properties": {
        "label": "September",
        "level": 4,
        "pos": "-185927.80039970283,-86025.30741174422",
        "weight": "237685.0"
      }
    },
    {
      "type": "Feature",
      "id": "1003",
      "geometry": {
        "type": "Point",
        "coordinates": [
          -52.101666,
          -35.420746
        ]
      },
      "properties": {
        "label": "Infernal",
        "level": 4,
        "pos": "-156145.3359227222,-125849.98515183636",
        "weight": "147992.0"
      }
    },
    {
      "type": "Feature",
      "id": "1861",
      "geometry": {
        "type": "Point",
        "coordinates": [
          -45.465463,
          -41.089599
        ]
      },
      "properties": {
        "label": "Siobhan Donaghy",
        "level": 4,
        "pos": "-135219.8245859774,-149142.01844077435",
        "weight": "105076.0"
      }
    },
    {
      "type": "Feature",
      "id": "1477",
      "geometry": {
        "type": "Point",
        "coordinates": [
          -45.837335,
          -42.758823
        ]
      },
      "properties": {
        "label": "Mutya Buena",
        "level": 4,
        "pos": "-136392.41912555695,-156374.60239891417",
        "weight": "149083.0"
      }
    },
    {
      "type": "Feature",
      "id": "131",
      "geometry": {
        "type": "Point",
        "coordinates": [
          -46.266542,
          -42.250202
        ]
      },
      "properties": {
        "label": "Annie",
        "level": 4,
        "pos": "-137745.8122008896,-154150.64368700323",
        "weight": "259435.0"
      }
    },
    {
      "type": "Feature",
      "id": "2453",
      "geometry": {
        "type": "Point",
        "coordinates": [
          -46.33627,
          -41.335997
        ]
      },
      "properties": {
        "label": "Will Young",
        "level": 4,
        "pos": "-137965.68104993395,-150197.85412426837",
        "weight": "155037.0"
      }
    },
    {
      "type": "Feature",
      "id": "1836",
      "geometry": {
        "type": "Point",
        "coordinates": [
          -49.189265,
          -40.897005
        ]
      },
      "properties": {
        "label": "Shayne Ward",
        "level": 4,
        "pos": "-146961.85190319462,-148319.50437137997",
        "weight": "107689.0"
      }
    },
    {
      "type": "Feature",
      "id": "862",
      "geometry": {
        "type": "Point",
        "coordinates": [
          -9.675494,
          -34.034385
        ]
      },
      "properties": {
        "label": "George Michael",
        "level": 3,
        "pos": "-22365.560702928142,-120412.20107557546",
        "weight": "539434.0"
      }
    },
    {
      "type": "Feature",
      "id": "1258",
      "geometry": {
        "type": "Point",
        "coordinates": [
          -11.106328,
          -34.355081
        ]
      },
      "properties": {
        "label": "Lighthouse Family",
        "level": 4,
        "pos": "-26877.323811468636,-121662.02390367918",
        "weight": "167199.0"
      }
    },
    {
      "type": "Feature",
      "id": "1267",
      "geometry": {
        "type": "Point",
        "coordinates": [
          -10.80035,
          -37.685457
        ]
      },
      "properties": {
        "label": "Lionel Richie",
        "level": 3,
        "pos": "-25912.5031882971,-134939.0711070188",
        "weight": "291554.0"
      }
    },
    {
      "type": "Feature",
      "id": "2029",
      "geometry": {
        "type": "Point",
        "coordinates": [
          -9.587955,
          -33.195747
        ]
      },
      "properties": {
        "label": "Terence Trent D'Arby",
        "level": 4,
        "pos": "-22089.531627619766,-117165.94848494497",
        "weight": "103285.0"
      }
    },
    {
      "type": "Feature",
      "id": "1742",
      "geometry": {
        "type": "Point",
        "coordinates": [
          -11.130487,
          -9.32022
        ]
      },
      "properties": {
        "label": "Robert Palmer",
        "level": 4,
        "pos": "-26953.50315424272,-33792.64536747535",
        "weight": "210546.0"
      }
    },
    {
      "type": "Feature",
      "id": "512",
      "geometry": {
        "type": "Point",
        "coordinates": [
          -14.438326,
          -8.435752
        ]
      },
      "properties": {
        "label": "Crowded House",
        "level": 3,
        "pos": "-37383.89537891312,-30906.963649702142",
        "weight": "345896.0"
      }
    },
    {
      "type": "Feature",
      "id": "106",
      "geometry": {
        "type": "Point",
        "coordinates": [
          -5.486773,
          37.926544
        ]
      },
      "properties": {
        "label": "Amy Macdonald",
        "level": 3,
        "pos": "-9157.530223950691,128691.70225688154",
        "weight": "327841.0"
      }
    },
    {
      "type": "Feature",
      "id": "1303",
      "geometry": {
        "type": "Point",
        "coordinates": [
          -5.147429,
          37.752227
        ]
      },
      "properties": {
        "label": "Lucie Silvas",
        "level": 4,
        "pos": "-8087.496882495033,127980.17577681267",
        "weight": "157461.0"
      }
    },
    {
      "type": "Feature",
      "id": "481",
      "geometry": {
        "type": "Point",
        "coordinates": [
          -5.896177,
          37.573575
        ]
      },
      "properties": {
        "label": "Colbie Caillat",
        "level": 3,
        "pos": "-10448.47927360378,127252.69903494084",
        "weight": "374979.0"
      }
    },
    {
      "type": "Feature",
      "id": "844",
      "geometry": {
        "type": "Point",
        "coordinates": [
          -5.803051,
          37.058476
        ]
      },
      "properties": {
        "label": "Gabriella Cilmi",
        "level": 4,
        "pos": "-10154.82567682746,125164.90372707233",
        "weight": "229391.0"
      }
    },
    {
      "type": "Feature",
      "id": "1595",
      "geometry": {
        "type": "Point",
        "coordinates": [
          -21.665655,
          32.183536
        ]
      },
      "properties": {
        "label": "Paris Hilton",
        "level": 4,
        "pos": "-60173.37915973707,106057.93488308355",
        "weight": "208320.0"
      }
    },
    {
      "type": "Feature",
      "id": "572",
      "geometry": {
        "type": "Point",
        "coordinates": [
          -31.608545,
          -3.048262
        ]
      },
      "properties": {
        "label": "Deep Blue Something",
        "level": 4,
        "pos": "-91525.66987238708,-13446.219174860194",
        "weight": "142101.0"
      }
    },
    {
      "type": "Feature",
      "id": "548",
      "geometry": {
        "type": "Point",
        "coordinates": [
          -34.513718,
          2.855934
        ]
      },
      "properties": {
        "label": "Daughtry",
        "level": 4,
        "pos": "-100686.37200976159,5594.444807130925",
        "weight": "206038.0"
      }
    },
    {
      "type": "Feature",
      "id": "1567",
      "geometry": {
        "type": "Point",
        "coordinates": [
          -32.688857,
          2.695809
        ]
      },
      "properties": {
        "label": "OneRepublic",
        "level": 3,
        "pos": "-94932.15235510502,5077.6721105605",
        "weight": "293660.0"
      }
    },
    {
      "type": "Feature",
      "id": "2093",
      "geometry": {
        "type": "Point",
        "coordinates": [
          -35.062113,
          6.226782
        ]
      },
      "properties": {
        "label": "The Click Five",
        "level": 4,
        "pos": "-102415.59413963207,16496.202306118117",
        "weight": "111724.0"
      }
    },
    {
      "type": "Feature",
      "id": "551",
      "geometry": {
        "type": "Point",
        "coordinates": [
          -37.487969,
          2.077504
        ]
      },
      "properties": {
        "label": "Dave Matthews",
        "level": 4,
        "pos": "-110064.8881369431,3082.8230738797834",
        "weight": "184828.0"
      }
    },
    {
      "type": "Feature",
      "id": "549",
      "geometry": {
        "type": "Point",
        "coordinates": [
          -36.771801,
          2.25638
        ]
      },
      "properties": {
        "label": "Dave Matthews & Tim Reynolds",
        "level": 4,
        "pos": "-107806.64271816495,3659.8433406400795",
        "weight": "110409.0"
      }
    },
    {
      "type": "Feature",
      "id": "1618",
      "geometry": {
        "type": "Point",
        "coordinates": [
          -44.446498,
          5.458806
        ]
      },
      "properties": {
        "label": "Pearl Jam",
        "level": 1,
        "pos": "-132006.784127382,14007.67714177382",
        "weight": "1059832.0"
      }
    },
    {
      "type": "Feature",
      "id": "1914",
      "geometry": {
        "type": "Point",
        "coordinates": [
          -45.939075,
          5.368376
        ]
      },
      "properties": {
        "label": "Soundgarden",
        "level": 2,
        "pos": "-136713.2342609863,13714.869185005984",
        "weight": "650323.0"
      }
    },
    {
      "type": "Feature",
      "id": "2026",
      "geometry": {
        "type": "Point",
        "coordinates": [
          -44.713734,
          3.648917
        ]
      },
      "properties": {
        "label": "Temple of the Dog",
        "level": 4,
        "pos": "-132849.438669589,8154.765425989806",
        "weight": "190349.0"
      }
    },
    {
      "type": "Feature",
      "id": "1323",
      "geometry": {
        "type": "Point",
        "coordinates": [
          -43.192958,
          5.021812
        ]
      },
      "properties": {
        "label": "Mad Season",
        "level": 4,
        "pos": "-128054.07045960768,12593.105908483789",
        "weight": "128831.0"
      }
    },
    {
      "type": "Feature",
      "id": "1470",
      "geometry": {
        "type": "Point",
        "coordinates": [
          -42.552498,
          1.690334
        ]
      },
      "properties": {
        "label": "Mudhoney",
        "level": 4,
        "pos": "-126034.55295600799,1834.0955334649764",
        "weight": "189721.0"
      }
    },
    {
      "type": "Feature",
      "id": "1347",
      "geometry": {
        "type": "Point",
        "coordinates": [
          -42.778009,
          0.942389
        ]
      },
      "properties": {
        "label": "Mark Lanegan",
        "level": 4,
        "pos": "-126745.64285061674,-577.5566386830749",
        "weight": "141577.0"
      }
    },
    {
      "type": "Feature",
      "id": "682",
      "geometry": {
        "type": "Point",
        "coordinates": [
          -45.305501,
          6.628779
        ]
      },
      "properties": {
        "label": "Eddie Vedder",
        "level": 4,
        "pos": "-134715.41906007496,17800.24484722716",
        "weight": "244381.0"
      }
    },
    {
      "type": "Feature",
      "id": "950",
      "geometry": {
        "type": "Point",
        "coordinates": [
          -47.781033,
          6.450194
        ]
      },
      "properties": {
        "label": "Helmet",
        "level": 4,
        "pos": "-142521.3629229514,17220.804322464115",
        "weight": "152262.0"
      }
    },
    {
      "type": "Feature",
      "id": "451",
      "geometry": {
        "type": "Point",
        "coordinates": [
          -46.62647,
          6.732324
        ]
      },
      "properties": {
        "label": "Chris Cornell",
        "level": 3,
        "pos": "-138880.74788133323,18136.303818606455",
        "weight": "343275.0"
      }
    },
    {
      "type": "Feature",
      "id": "1931",
      "geometry": {
        "type": "Point",
        "coordinates": [
          -39.288611,
          -3.42898
        ]
      },
      "properties": {
        "label": "SR-71",
        "level": 4,
        "pos": "-115742.7426308306,-14675.434081736468",
        "weight": "129757.0"
      }
    },
    {
      "type": "Feature",
      "id": "1215",
      "geometry": {
        "type": "Point",
        "coordinates": [
          -39.327765,
          24.367425
        ]
      },
      "properties": {
        "label": "L7",
        "level": 4,
        "pos": "-115866.20038311684,77413.95114176831",
        "weight": "129506.0"
      }
    },
    {
      "type": "Feature",
      "id": "1077",
      "geometry": {
        "type": "Point",
        "coordinates": [
          26.980412,
          24.483627
        ]
      },
      "properties": {
        "label": "Joan as Police Woman",
        "level": 4,
        "pos": "93219.19849897097,77825.34647423399",
        "weight": "100072.0"
      }
    },
    {
      "type": "Feature",
      "id": "1352",
      "geometry": {
        "type": "Point",
        "coordinates": [
          26.483792,
          25.27642
        ]
      },
      "properties": {
        "label": "Martha Wainwright",
        "level": 4,
        "pos": "91653.2436318375,80642.39578856075",
        "weight": "207931.0"
      }
    },
    {
      "type": "Feature",
      "id": "1233",
      "geometry": {
        "type": "Point",
        "coordinates": [
          25.564622,
          25.244145
        ]
      },
      "properties": {
        "label": "Laura Veirs",
        "level": 4,
        "pos": "88754.88056283793,80527.36208662702",
        "weight": "164244.0"
      }
    },
    {
      "type": "Feature",
      "id": "138",
      "geometry": {
        "type": "Point",
        "coordinates": [
          29.3832,
          23.786552
        ]
      },
      "properties": {
        "label": "Antony and the Johnsons",
        "level": 3,
        "pos": "100795.76066156795,75363.06076174905",
        "weight": "334464.0"
      }
    },
    {
      "type": "Feature",
      "id": "1768",
      "geometry": {
        "type": "Point",
        "coordinates": [
          25.99544,
          26.024863
        ]
      },
      "properties": {
        "label": "Rufus Wainwright",
        "level": 2,
        "pos": "90113.35254948592,83318.79004541115",
        "weight": "589827.0"
      }
    },
    {
      "type": "Feature",
      "id": "1147",
      "geometry": {
        "type": "Point",
        "coordinates": [
          24.4853,
          26.316503
        ]
      },
      "properties": {
        "label": "Kaki King",
        "level": 4,
        "pos": "85351.5165729858,84366.27698558032",
        "weight": "105886.0"
      }
    },
    {
      "type": "Feature",
      "id": "320",
      "geometry": {
        "type": "Point",
        "coordinates": [
          31.625372,
          23.445512
        ]
      },
      "properties": {
        "label": "Bon Iver",
        "level": 4,
        "pos": "107865.86484059,74163.22539900032",
        "weight": "202669.0"
      }
    },
    {
      "type": "Feature",
      "id": "1750",
      "geometry": {
        "type": "Point",
        "coordinates": [
          23.837695,
          27.141643
        ]
      },
      "properties": {
        "label": "Rodrigo y Gabriela",
        "level": 4,
        "pos": "83309.4691805791,87344.38528335499",
        "weight": "133313.0"
      }
    },
    {
      "type": "Feature",
      "id": "1702",
      "geometry": {
        "type": "Point",
        "coordinates": [
          28.360501,
          27.680087
        ]
      },
      "properties": {
        "label": "Ray LaMontagne",
        "level": 3,
        "pos": "97570.95006377713,89299.59347443187",
        "weight": "343547.0"
      }
    },
    {
      "type": "Feature",
      "id": "1523",
      "geometry": {
        "type": "Point",
        "coordinates": [
          21.323352,
          21.11922
        ]
      },
      "properties": {
        "label": "Nick Drake",
        "level": 2,
        "pos": "75381.15278135537,66058.51627321637",
        "weight": "657487.0"
      }
    },
    {
      "type": "Feature",
      "id": "1976",
      "geometry": {
        "type": "Point",
        "coordinates": [
          31.75345,
          21.483908
        ]
      },
      "properties": {
        "label": "Sufjan Stevens",
        "level": 2,
        "pos": "108269.71871656243,67320.29840648343",
        "weight": "772295.0"
      }
    },
    {
      "type": "Feature",
      "id": "207",
      "geometry": {
        "type": "Point",
        "coordinates": [
          31.375689,
          25.670658
        ]
      },
      "properties": {
        "label": "Band of Horses",
        "level": 3,
        "pos": "107078.54726280509,82050.0750828028",
        "weight": "408313.0"
      }
    },
    {
      "type": "Feature",
      "id": "2197",
      "geometry": {
        "type": "Point",
        "coordinates": [
          38.634074,
          25.110138
        ]
      },
      "properties": {
        "label": "The National",
        "level": 3,
        "pos": "129965.9635094057,80050.04025553456",
        "weight": "409138.0"
      }
    },
    {
      "type": "Feature",
      "id": "797",
      "geometry": {
        "type": "Point",
        "coordinates": [
          41.724587,
          17.362852
        ]
      },
      "properties": {
        "label": "Fleet Foxes",
        "level": 3,
        "pos": "139711.0845605759,53230.593031872086",
        "weight": "368486.0"
      }
    },
    {
      "type": "Feature",
      "id": "905",
      "geometry": {
        "type": "Point",
        "coordinates": [
          31.037674,
          22.173576
        ]
      },
      "properties": {
        "label": "Great Lake Swimmers",
        "level": 4,
        "pos": "106012.71262694856,69715.18435545884",
        "weight": "183333.0"
      }
    },
    {
      "type": "Feature",
      "id": "2117",
      "geometry": {
        "type": "Point",
        "coordinates": [
          33.907414,
          27.089213
        ]
      },
      "properties": {
        "label": "The Dodos",
        "level": 4,
        "pos": "115061.67967518754,87154.50536025147",
        "weight": "100247.0"
      }
    },
    {
      "type": "Feature",
      "id": "759",
      "geometry": {
        "type": "Point",
        "coordinates": [
          -1.93619,
          -46.230532
        ]
      },
      "properties": {
        "label": "Everything but the Girl",
        "level": 3,
        "pos": "2038.3011435767887,-172070.44993827408",
        "weight": "444195.0"
      }
    },
    {
      "type": "Feature",
      "id": "919",
      "geometry": {
        "type": "Point",
        "coordinates": [
          -3.044381,
          -45.257578
        ]
      },
      "properties": {
        "label": "Gus Gus",
        "level": 4,
        "pos": "-1456.0946386622063,-167576.1099081836",
        "weight": "250162.0"
      }
    },
    {
      "type": "Feature",
      "id": "2014",
      "geometry": {
        "type": "Point",
        "coordinates": [
          -2.651569,
          -48.692314
        ]
      },
      "properties": {
        "label": "T\u00e9l\u00e9popmusik",
        "level": 3,
        "pos": "-217.46370439374996,-183810.99783282517",
        "weight": "477590.0"
      }
    },
    {
      "type": "Feature",
      "id": "889",
      "geometry": {
        "type": "Point",
        "coordinates": [
          -4.372391,
          -46.39865
        ]
      },
      "properties": {
        "label": "Goldfrapp",
        "level": 1,
        "pos": "-5643.618758542952,-172855.0573774878",
        "weight": "906439.0"
      }
    },
    {
      "type": "Feature",
      "id": "1704",
      "geometry": {
        "type": "Point",
        "coordinates": [
          -1.073781,
          -45.653841
        ]
      },
      "properties": {
        "label": "R\u00f3is\u00edn Murphy",
        "level": 4,
        "pos": "4757.680829328745,-169397.12339137963",
        "weight": "218622.0"
      }
    },
    {
      "type": "Feature",
      "id": "2360",
      "geometry": {
        "type": "Point",
        "coordinates": [
          -3.79722,
          -46.996593
        ]
      },
      "properties": {
        "label": "Tricky",
        "level": 3,
        "pos": "-3829.972568217095,-175665.45252392595",
        "weight": "506353.0"
      }
    },
    {
      "type": "Feature",
      "id": "2348",
      "geometry": {
        "type": "Point",
        "coordinates": [
          -2.589759,
          -35.521045
        ]
      },
      "properties": {
        "label": "Tosca",
        "level": 3,
        "pos": "-22.560622859582182,-126246.97973074196",
        "weight": "395353.0"
      }
    },
    {
      "type": "Feature",
      "id": "1993",
      "geometry": {
        "type": "Point",
        "coordinates": [
          -2.303504,
          -47.242653
        ]
      },
      "properties": {
        "label": "Swayzak",
        "level": 4,
        "pos": "880.068326789258,-176831.07910875388",
        "weight": "116014.0"
      }
    },
    {
      "type": "Feature",
      "id": "1329",
      "geometry": {
        "type": "Point",
        "coordinates": [
          -3.498499,
          -49.608021
        ]
      },
      "properties": {
        "label": "Mandalay",
        "level": 4,
        "pos": "-2888.03062102347,-188324.065951153",
        "weight": "237522.0"
      }
    },
    {
      "type": "Feature",
      "id": "53",
      "geometry": {
        "type": "Point",
        "coordinates": [
          -3.21525,
          -49.919909
        ]
      },
      "properties": {
        "label": "Air",
        "level": 1,
        "pos": "-1994.8769706891426,-189880.53220783698",
        "weight": "1134369.0"
      }
    },
    {
      "type": "Feature",
      "id": "1359",
      "geometry": {
        "type": "Point",
        "coordinates": [
          -1.365227,
          -49.427491
        ]
      },
      "properties": {
        "label": "Massive Attack",
        "level": 1,
        "pos": "3838.679884248694,-187427.6921241219",
        "weight": "1156891.0"
      }
    },
    {
      "type": "Feature",
      "id": "1657",
      "geometry": {
        "type": "Point",
        "coordinates": [
          -1.902897,
          -50.119367
        ]
      },
      "properties": {
        "label": "Portishead",
        "level": 1,
        "pos": "2143.2782432739864,-190881.20190967366",
        "weight": "1005250.0"
      }
    },
    {
      "type": "Feature",
      "id": "327",
      "geometry": {
        "type": "Point",
        "coordinates": [
          -2.481896,
          -49.972053
        ]
      },
      "properties": {
        "label": "Bonobo",
        "level": 3,
        "pos": "317.5574866265185,-190141.72904725818",
        "weight": "471515.0"
      }
    },
    {
      "type": "Feature",
      "id": "2024",
      "geometry": {
        "type": "Point",
        "coordinates": [
          -1.538582,
          -49.847516
        ]
      },
      "properties": {
        "label": "Telefon Tel Aviv",
        "level": 4,
        "pos": "3292.047545933965,-189518.35629582836",
        "weight": "145217.0"
      }
    },
    {
      "type": "Feature",
      "id": "1244",
      "geometry": {
        "type": "Point",
        "coordinates": [
          -3.743079,
          -49.264072
        ]
      },
      "properties": {
        "label": "Lemongrass",
        "level": 4,
        "pos": "-3659.249153914509,-186619.11129271984",
        "weight": "180462.0"
      }
    },
    {
      "type": "Feature",
      "id": "1446",
      "geometry": {
        "type": "Point",
        "coordinates": [
          -0.695075,
          -46.846079
        ]
      },
      "properties": {
        "label": "Moloko",
        "level": 2,
        "pos": "5951.82725327009,-174955.0770457771",
        "weight": "602757.0"
      }
    },
    {
      "type": "Feature",
      "id": "1354",
      "geometry": {
        "type": "Point",
        "coordinates": [
          -4.231219,
          -48.398801
        ]
      },
      "properties": {
        "label": "Martina Topley-Bird",
        "level": 4,
        "pos": "-5198.4748830385,-182381.82772994868",
        "weight": "188421.0"
      }
    },
    {
      "type": "Feature",
      "id": "1208",
      "geometry": {
        "type": "Point",
        "coordinates": [
          -2.263831,
          -37.120986
        ]
      },
      "properties": {
        "label": "Kruder & Dorfmeister",
        "level": 3,
        "pos": "1005.1739993999653,-132648.48947810254",
        "weight": "357924.0"
      }
    },
    {
      "type": "Feature",
      "id": "331",
      "geometry": {
        "type": "Point",
        "coordinates": [
          -0.895669,
          -27.322797
        ]
      },
      "properties": {
        "label": "Boozoo Bajou",
        "level": 4,
        "pos": "5319.307545595706,-95232.11715280719",
        "weight": "244374.0"
      }
    },
    {
      "type": "Feature",
      "id": "1958",
      "geometry": {
        "type": "Point",
        "coordinates": [
          -2.770228,
          -27.268309
        ]
      },
      "properties": {
        "label": "St. Germain",
        "level": 3,
        "pos": "-591.6230828626282,-95034.4670513085",
        "weight": "412216.0"
      }
    },
    {
      "type": "Feature",
      "id": "1234",
      "geometry": {
        "type": "Point",
        "coordinates": [
          -1.142926,
          -48.078783
        ]
      },