{
  "type": "FeatureCollection",
  "features": [
    {
      "type": "Feature",
      "id": "131",
      "geometry": {
        "type": "Point",
        "coordinates": [
          -27.553585,
          -7.81471
        ]
      },
      "properties": {
        "label": "Cetuximab",
        "level": 1,
        "pos": "-222805.024,-78322.096",
        "src_id": "2",
        "weight": "0.0006035146533305115"
      }
    },
    {
      "type": "Feature",
      "id": "220",
      "geometry": {
        "type": "Point",
        "coordinates": [
          -24.961919,
          -4.551491
        ]
      },
      "properties": {
        "label": "Pegfilgrastim",
        "level": 1,
        "pos": "-208003.008,-59770.854999999996",
        "src_id": "19",
        "weight": "0.0007400238987361521"
      }
    },
    {
      "type": "Feature",
      "id": "9108",
      "geometry": {
        "type": "Point",
        "coordinates": [
          -28.691612,
          -9.842003
        ]
      },
      "properties": {
        "label": "Pegvisomant",
        "level": 5,
        "pos": "-229304.734,-89916.528",
        "src_id": "78",
        "weight": "4.47882108334162e-05"
      }
    },
    {
      "type": "Feature",
      "id": "8832",
      "geometry": {
        "type": "Point",
        "coordinates": [
          -31.316127,
          -11.637341
        ]
      },
      "properties": {
        "label": "Epothilone D",
        "level": 5,
        "pos": "-244294.35499999998,-100243.499",
        "src_id": "1785",
        "weight": "5.888128665656e-05"
      }
    },
    {
      "type": "Feature",
      "id": "3446",
      "geometry": {
        "type": "Point",
        "coordinates": [
          -30.46601,
          -9.377875
        ]
      },
      "properties": {
        "label": "Fidarestat",
        "level": 5,
        "pos": "-239439.0,-87256.36",
        "src_id": "1922",
        "weight": "6.130015711259671e-05"
      }
    },
    {
      "type": "Feature",
      "id": "3442",
      "geometry": {
        "type": "Point",
        "coordinates": [
          -31.675278,
          -9.813399
        ]
      },
      "properties": {
        "label": "Calcipotriol",
        "level": 4,
        "pos": "-246345.598,-89752.482",
        "src_id": "2182",
        "weight": "0.0001332866387709878"
      }
    },
    {
      "type": "Feature",
      "id": "49",
      "geometry": {
        "type": "Point",
        "coordinates": [
          -31.202223,
          -12.039663
        ]
      },
      "properties": {
        "label": "Ixabepilone",
        "level": 1,
        "pos": "-243643.799,-102566.476",
        "src_id": "4567",
        "weight": "0.0005922016212927544"
      }
    },
    {
      "type": "Feature",
      "id": "3412",
      "geometry": {
        "type": "Point",
        "coordinates": [
          -29.183356,
          -9.411339
        ]
      },
      "properties": {
        "label": "Voglibose",
        "level": 5,
        "pos": "-232113.265,-87448.038",
        "src_id": "4600",
        "weight": "6.130015711259671e-05"
      }
    },
    {
      "type": "Feature",
      "id": "8633",
      "geometry": {
        "type": "Point",
        "coordinates": [
          -32.408657,
          -10.729713
        ]
      },
      "properties": {
        "label": "anecortave acetate",
        "level": 5,
        "pos": "-250534.208,-95015.06000000001",
        "src_id": "4945",
        "weight": "4.47882108334162e-05"
      }
    },
    {
      "type": "Feature",
      "id": "8606",
      "geometry": {
        "type": "Point",
        "coordinates": [
          -29.583499,
          -8.951402
        ]
      },
      "properties": {
        "label": "Lasofoxifene",
        "level": 5,
        "pos": "-234398.638,-84815.145",
        "src_id": "5477",
        "weight": "5.888128665656e-05"
      }
    },
    {
      "type": "Feature",
      "id": "4834",
      "geometry": {
        "type": "Point",
        "coordinates": [
          -29.962347,
          -11.352482
        ]
      },
      "properties": {
        "label": "Asoprisnil",
        "level": 5,
        "pos": "-236562.39299999998,-98600.78300000001",
        "src_id": "5742",
        "weight": "8.224121921312067e-05"
      }
    },
    {
      "type": "Feature",
      "id": "1692",
      "geometry": {
        "type": "Point",
        "coordinates": [
          -29.246595,
          -8.114623
        ]
      },
      "properties": {
        "label": "Dexmethylphenidate",
        "level": 5,
        "pos": "-232474.448,-80033.453",
        "src_id": "5761",
        "weight": "7.029791125612936e-05"
      }
    },
    {
      "type": "Feature",
      "id": "3352",
      "geometry": {
        "type": "Point",
        "coordinates": [
          -30.076356,
          -10.043707
        ]
      },
      "properties": {
        "label": "Metreleptin",
        "level": 5,
        "pos": "-237213.54299999998,-91073.765",
        "src_id": "7992",
        "weight": "6.130015711259671e-05"
      }
    },
    {
      "type": "Feature",
      "id": "3282",
      "geometry": {
        "type": "Point",
        "coordinates": [
          -30.289261,
          -10.485028
        ]
      },
      "properties": {
        "label": "Landiolol",
        "level": 5,
        "pos": "-238429.518,-93608.27500000001",
        "src_id": "9872",
        "weight": "9.675400433148191e-05"
      }
    },
    {
      "type": "Feature",
      "id": "7421",
      "geometry": {
        "type": "Point",
        "coordinates": [
          -29.424488,
          -10.885123
        ]
      },
      "properties": {
        "label": "Colorectal cancer metastatic",
        "level": 5,
        "pos": "-233490.473,-95909.164",
        "src_id": "173948",
        "weight": "2.852553694830181e-05"
      }
    },
    {
      "type": "Feature",
      "id": "5169",
      "geometry": {
        "type": "Point",
        "coordinates": [
          -21.574638,
          -6.674452
        ]
      },
      "properties": {
        "label": "Anakinra",
        "level": 5,
        "pos": "-188656.94,-71826.421",
        "src_id": "26",
        "weight": "8.973875475886042e-05"
      }
    },
    {
      "type": "Feature",
      "id": "219",
      "geometry": {
        "type": "Point",
        "coordinates": [
          -26.301956,
          -6.604093
        ]
      },
      "properties": {
        "label": "Ibritumomab tiuxetan",
        "level": 1,
        "pos": "-215656.484,-71426.13299999999",
        "src_id": "75",
        "weight": "0.0005489593038499381"
      }
    },
    {
      "type": "Feature",
      "id": "1297",
      "geometry": {
        "type": "Point",
        "coordinates": [
          -24.033951,
          -5.822113
        ]
      },
      "properties": {
        "label": "Tenofovir disoproxil",
        "level": 4,
        "pos": "-202703.02599999998,-66980.943",
        "src_id": "291",
        "weight": "0.0002189107299293035"
      }
    },
    {
      "type": "Feature",
      "id": "660",
      "geometry": {
        "type": "Point",
        "coordinates": [
          -25.393721,
          -1.650277
        ]
      },
      "properties": {
        "label": "Gefitinib",
        "level": 1,
        "pos": "-210469.204,-43349.992",
        "src_id": "308",
        "weight": "0.0005383733162027506"
      }
    },
    {
      "type": "Feature",
      "id": "2519",
      "geometry": {
        "type": "Point",
        "coordinates": [
          -22.961562,
          -7.220974
        ]
      },
      "properties": {
        "label": "Emtricitabine",
        "level": 4,
        "pos": "-196578.19900000002,-74937.728",
        "src_id": "865",
        "weight": "0.00019953025279663468"
      }
    },
    {
      "type": "Feature",
      "id": "128",
      "geometry": {
        "type": "Point",
        "coordinates": [
          -27.423289,
          -6.056413
        ]
      },
      "properties": {
        "label": "Tipranavir",
        "level": 2,
        "pos": "-222060.854,-68312.14199999999",
        "src_id": "918",
        "weight": "0.0004705595818516969"
      }
    },
    {
      "type": "Feature",
      "id": "2512",
      "geometry": {
        "type": "Point",
        "coordinates": [
          -22.938144,
          -4.892177
        ]
      },
      "properties": {
        "label": "Desloratadine",
        "level": 4,
        "pos": "-196444.454,-61702.659",
        "src_id": "953",
        "weight": "0.0001654117512777525"
      }
    },
    {
      "type": "Feature",
      "id": "1229",
      "geometry": {
        "type": "Point",
        "coordinates": [
          -25.991961,
          -6.177097
        ]
      },
      "properties": {
        "label": "Lumiracoxib",
        "level": 3,
        "pos": "-213885.976,-68998.044",
        "src_id": "1266",
        "weight": "0.00029840244399403226"
      }
    },
    {
      "type": "Feature",
      "id": "4952",
      "geometry": {
        "type": "Point",
        "coordinates": [
          -27.557523,
          -4.225496
        ]
      },
      "properties": {
        "label": "Lopinavir",
        "level": 5,
        "pos": "-222827.509,-57923.197",
        "src_id": "1533",
        "weight": "9.68664544249522e-05"
      }
    },
    {
      "type": "Feature",
      "id": "4951",
      "geometry": {
        "type": "Point",
        "coordinates": [
          -25.923366,
          -4.132844
        ]
      },
      "properties": {
        "label": "Deferasirox",
        "level": 5,
        "pos": "-213494.211,-57398.216",
        "src_id": "1541",
        "weight": "8.20735284885315e-05"
      }
    },
    {
      "type": "Feature",
      "id": "7966",
      "geometry": {
        "type": "Point",
        "coordinates": [
          -28.140621,
          -3.364033
        ]
      },
      "properties": {
        "label": "Acute febrile neutrophilic dermatosis",
        "level": 5,
        "pos": "-226157.807,-53044.236",
        "src_id": "169736",
        "weight": "2.4625849996353856e-05"
      }
    },
    {
      "type": "Feature",
      "id": "1197",
      "geometry": {
        "type": "Point",
        "coordinates": [
          -33.37918,
          -15.18551
        ]
      },
      "properties": {
        "label": "Priralfinamide",
        "level": 5,
        "pos": "-256077.245,-120860.36300000001",
        "src_id": "5722",
        "weight": "0.00010352342108564785"
      }
    },
    {
      "type": "Feature",
      "id": "4816",
      "geometry": {
        "type": "Point",
        "coordinates": [
          -32.108947,
          -13.312883
        ]
      },
      "properties": {
        "label": "Efaproxiral",
        "level": 5,
        "pos": "-248822.44600000003,-109941.5",
        "src_id": "7479",
        "weight": "7.761670764163043e-05"
      }
    },
    {
      "type": "Feature",
      "id": "3434",
      "geometry": {
        "type": "Point",
        "coordinates": [
          -34.579284,
          -14.281054
        ]
      },
      "properties": {
        "label": "Alvocidib",
        "level": 5,
        "pos": "-262931.497,-115575.36",
        "src_id": "3300",
        "weight": "9.110666479074837e-05"
      }
    },
    {
      "type": "Feature",
      "id": "3386",
      "geometry": {
        "type": "Point",
        "coordinates": [
          -34.97718,
          -15.212246
        ]
      },
      "properties": {
        "label": "Temsirolimus",
        "level": 5,
        "pos": "-265204.04000000004,-121016.935",
        "src_id": "5536",
        "weight": "0.00011758821386591955"
      }
    },
    {
      "type": "Feature",
      "id": "8607",
      "geometry": {
        "type": "Point",
        "coordinates": [
          -33.133428,
          -12.903004
        ]
      },
      "properties": {
        "label": "Icatibant",
        "level": 5,
        "pos": "-254673.664,-107563.257",
        "src_id": "5471",
        "weight": "5.2585680642920097e-05"
      }
    },
    {
      "type": "Feature",
      "id": "8561",
      "geometry": {
        "type": "Point",
        "coordinates": [
          -34.816027,
          -14.718074
        ]
      },
      "properties": {
        "label": "Perifosine",
        "level": 5,
        "pos": "-264283.62700000004,-118126.26299999999",
        "src_id": "5717",
        "weight": "3.098701081732394e-05"
      }
    },
    {
      "type": "Feature",
      "id": "8468",
      "geometry": {
        "type": "Point",
        "coordinates": [
          -35.138803,
          -16.033025
        ]
      },
      "properties": {
        "label": "Glucarpidase",
        "level": 5,
        "pos": "-266127.129,-125833.215",
        "src_id": "7857",
        "weight": "2.9678262588986175e-05"
      }
    },
    {
      "type": "Feature",
      "id": "8611",
      "geometry": {
        "type": "Point",
        "coordinates": [
          -24.48892,
          -5.116672
        ]
      },
      "properties": {
        "label": "Canakinumab",
        "level": 5,
        "pos": "-205301.527,-62976.165",
        "src_id": "5452",
        "weight": "3.5528693255361526e-05"
      }
    },
    {
      "type": "Feature",
      "id": "64",
      "geometry": {
        "type": "Point",
        "coordinates": [
          -27.21056,
          -11.552747
        ]
      },
      "properties": {
        "label": "Adefovir Dipivoxil",
        "level": 1,
        "pos": "-220845.87099999998,-99755.492",
        "src_id": "704",
        "weight": "0.0005573308655019807"
      }
    },
    {
      "type": "Feature",
      "id": "3635",
      "geometry": {
        "type": "Point",
        "coordinates": [
          -24.145569,
          -9.633072
        ]
      },
      "properties": {
        "label": "Bortezomib",
        "level": 4,
        "pos": "-203340.522,-88718.57900000001",
        "src_id": "179",
        "weight": "0.00016839515098809743"
      }
    },
    {
      "type": "Feature",
      "id": "1767",
      "geometry": {
        "type": "Point",
        "coordinates": [
          -26.736202,
          -9.014423
        ]
      },
      "properties": {
        "label": "Alosetron",
        "level": 5,
        "pos": "-218136.62600000002,-85175.71399999999",
        "src_id": "955",
        "weight": "0.00010225295109379821"
      }
    },
    {
      "type": "Feature",
      "id": "4",
      "geometry": {
        "type": "Point",
        "coordinates": [
          -26.271121,
          -8.516722
        ]
      },
      "properties": {
        "label": "Vorinostat",
        "level": 1,
        "pos": "-215480.37,-82329.905",
        "src_id": "2413",
        "weight": "0.001465998426312485"
      }
    },
    {
      "type": "Feature",
      "id": "1717",
      "geometry": {
        "type": "Point",
        "coordinates": [
          -26.527313,
          -8.085597
        ]
      },
      "properties": {
        "label": "Nilotinib",
        "level": 4,
        "pos": "-216943.581,-79867.768",
        "src_id": "4590",
        "weight": "0.00021326734915487835"
      }
    },
    {
      "type": "Feature",
      "id": "4872",
      "geometry": {
        "type": "Point",
        "coordinates": [
          -27.884677,
          -8.533783
        ]
      },
      "properties": {
        "label": "Dexlansoprazole",
        "level": 5,
        "pos": "-224696.009,-82427.38799999999",
        "src_id": "4994",
        "weight": "5.205454046014342e-05"
      }
    },
    {
      "type": "Feature",
      "id": "3378",
      "geometry": {
        "type": "Point",
        "coordinates": [
          -27.600963,
          -9.425658
        ]
      },
      "properties": {
        "label": "Lestaurtinib",
        "level": 5,
        "pos": "-223075.614,-87530.06000000001",
        "src_id": "5622",
        "weight": "6.060582428988038e-05"
      }
    },
    {
      "type": "Feature",
      "id": "4836",
      "geometry": {
        "type": "Point",
        "coordinates": [
          -27.49908,
          -9.897841
        ]
      },
      "properties": {
        "label": "Axitinib",
        "level": 5,
        "pos": "-222493.721,-90236.824",
        "src_id": "5708",
        "weight": "4.4107525613398335e-05"
      }
    },
    {
      "type": "Feature",
      "id": "4835",
      "geometry": {
        "type": "Point",
        "coordinates": [
          -23.760529,
          -10.109298
        ]
      },
      "properties": {
        "label": "Denosumab",
        "level": 5,
        "pos": "-201141.409,-91450.23000000001",
        "src_id": "5719",
        "weight": "0.00012194666996839021"
      }
    },
    {
      "type": "Feature",
      "id": "8471",
      "geometry": {
        "type": "Point",
        "coordinates": [
          -28.027614,
          -8.976732
        ]
      },
      "properties": {
        "label": "Carfilzomib",
        "level": 5,
        "pos": "-225512.37699999998,-84960.06199999999",
        "src_id": "7848",
        "weight": "5.191577488350238e-05"
      }
    },
    {
      "type": "Feature",
      "id": "3351",
      "geometry": {
        "type": "Point",
        "coordinates": [
          -28.234012,
          -10.311987
        ]
      },
      "properties": {
        "label": "Blinatumomab",
        "level": 5,
        "pos": "-226691.203,-92614.076",
        "src_id": "7998",
        "weight": "8.946089197615845e-05"
      }
    },
    {
      "type": "Feature",
      "id": "1803",
      "geometry": {
        "type": "Point",
        "coordinates": [
          -23.973203,
          -7.643159
        ]
      },
      "properties": {
        "label": "Ritonavir",
        "level": 4,
        "pos": "-202356.069,-77343.756",
        "src_id": "492",
        "weight": "0.00018436974003735907"
      }
    },
    {
      "type": "Feature",
      "id": "4868",
      "geometry": {
        "type": "Point",
        "coordinates": [
          -24.444825,
          -6.752269
        ]
      },
      "properties": {
        "label": "Irofulven",
        "level": 5,
        "pos": "-205049.687,-72269.211",
        "src_id": "5246",
        "weight": "6.654763093303121e-05"
      }
    },
    {
      "type": "Feature",
      "id": "3375",
      "geometry": {
        "type": "Point",
        "coordinates": [
          -25.583409,
          -5.668093
        ]
      },
      "properties": {
        "label": "Agomelatine",
        "level": 5,
        "pos": "-211552.578,-66106.158",
        "src_id": "5685",
        "weight": "6.315893711360311e-05"
      }
    },
    {
      "type": "Feature",
      "id": "8109",
      "geometry": {
        "type": "Point",
        "coordinates": [
          -24.033505,
          -6.291651
        ]
      },
      "properties": {
        "label": "Combretastatin",
        "level": 5,
        "pos": "-202700.484,-69649.253",
        "src_id": "10241",
        "weight": "3.940874609049866e-05"
      }
    },
    {
      "type": "Feature",
      "id": "111",
      "geometry": {
        "type": "Point",
        "coordinates": [
          -34.302474,
          -0.487522
        ]
      },
      "properties": {
        "label": "Caspofungin",
        "level": 1,
        "pos": "-261350.52899999998,-36777.892",
        "src_id": "507",
        "weight": "0.0007240197218343078"
      }
    },
    {
      "type": "Feature",
      "id": "915",
      "geometry": {
        "type": "Point",
        "coordinates": [
          -19.428434,
          -1.680283
        ]
      },
      "properties": {
        "label": "Alemtuzumab",
        "level": 2,
        "pos": "-176399.144,-43519.627",
        "src_id": "82",
        "weight": "0.0004898633236719767"
      }
    },
    {
      "type": "Feature",
      "id": "130",
      "geometry": {
        "type": "Point",
        "coordinates": [
          -30.556059,
          -2.100842
        ]
      },
      "properties": {
        "label": "Enfuvirtide",
        "level": 1,
        "pos": "-239953.306,-45897.553",
        "src_id": "102",
        "weight": "0.0006562705883880605"
      }
    },
    {
      "type": "Feature",
      "id": "5093",
      "geometry": {
        "type": "Point",
        "coordinates": [
          -24.604484,
          -2.607752
        ]
      },
      "properties": {
        "label": "Bosentan",
        "level": 4,
        "pos": "-205961.56300000002,-48764.58",
        "src_id": "546",
        "weight": "0.000146218525522585"
      }
    },
    {
      "type": "Feature",
      "id": "3526",
      "geometry": {
        "type": "Point",
        "coordinates": [
          -24.791429,
          -3.59897
        ]
      },
      "properties": {
        "label": "Mycophenolic acid",
        "level": 5,
        "pos": "-207029.276,-54374.348",
        "src_id": "1010",
        "weight": "0.00010788127928348418"
      }
    },
    {
      "type": "Feature",
      "id": "8939",
      "geometry": {
        "type": "Point",
        "coordinates": [
          -28.913961,
          -2.94132
        ]
      },
      "properties": {
        "label": "Rosuvastatin",
        "level": 5,
        "pos": "-230574.654,-50651.824",
        "src_id": "1082",
        "weight": "7.251958529943511e-05"
      }
    },
    {
      "type": "Feature",
      "id": "8609",
      "geometry": {
        "type": "Point",
        "coordinates": [
          -30.518095,
          -1.686564
        ]
      },
      "properties": {
        "label": "Ipilimumab",
        "level": 5,
        "pos": "-239736.47600000002,-43555.140999999996",
        "src_id": "5462",
        "weight": "3.1034471563546446e-05"
      }
    },
    {
      "type": "Feature",
      "id": "451",
      "geometry": {
        "type": "Point",
        "coordinates": [
          -21.241941,
          -8.078297
        ]
      },
      "properties": {
        "label": "Nesiritide",
        "level": 2,
        "pos": "-186756.77899999998,-79826.09999999999",
        "src_id": "4621",
        "weight": "0.0005092230261736226"
      }
    },
    {
      "type": "Feature",
      "id": "2407",
      "geometry": {
        "type": "Point",
        "coordinates": [
          -32.128345,
          -7.644923
        ]
      },
      "properties": {
        "label": "Indisulam",
        "level": 5,
        "pos": "-248933.236,-77353.823",
        "src_id": "5571",
        "weight": "9.308110779822647e-05"
      }
    },
    {
      "type": "Feature",
      "id": "3371",
      "geometry": {
        "type": "Point",
        "coordinates": [
          -28.652541,
          -6.355589
        ]
      },
      "properties": {
        "label": "Laquinimod",
        "level": 5,
        "pos": "-229081.576,-70012.78000000001",
        "src_id": "5747",
        "weight": "6.112662076004443e-05"
      }
    },
    {
      "type": "Feature",
      "id": "4668",
      "geometry": {
        "type": "Point",
        "coordinates": [
          -28.172064,
          -5.585732
        ]
      },
      "properties": {
        "label": "Oblimersen",
        "level": 5,
        "pos": "-226337.39299999998,-65638.485",
        "src_id": "10889",
        "weight": "0.00010626517670126625"
      }
    },
    {
      "type": "Feature",
      "id": "3531",
      "geometry": {
        "type": "Point",
        "coordinates": [
          -29.096563,
          -7.298988
        ]
      },
      "properties": {
        "label": "Ethiodized oil",
        "level": 5,
        "pos": "-231617.557,-75382.159",
        "src_id": "951",
        "weight": "6.012870239241737e-05"
      }
    },
    {
      "type": "Feature",
      "id": "2445",
      "geometry": {
        "type": "Point",
        "coordinates": [
          -30.904441,
          -8.531879
        ]
      },
      "properties": {
        "label": "Vatalanib",
        "level": 4,
        "pos": "-241943.052,-82416.51400000001",
        "src_id": "4601",
        "weight": "0.00012702982681209884"
      }
    },
    {
      "type": "Feature",
      "id": "8631",
      "geometry": {
        "type": "Point",
        "coordinates": [
          -28.515175,
          -6.802448
        ]
      },
      "properties": {
        "label": "Carbopol 974P",
        "level": 5,
        "pos": "-228297.02800000002,-72554.773",
        "src_id": "5014",
        "weight": "4.419369088116185e-05"
      }
    },
    {
      "type": "Feature",
      "id": "2422",
      "geometry": {
        "type": "Point",
        "coordinates": [
          -32.58013,
          -8.485813
        ]
      },
      "properties": {
        "label": "Zosuquidar",
        "level": 5,
        "pos": "-251513.557,-82153.29199999999",
        "src_id": "5466",
        "weight": "8.401196522674054e-05"
      }
    },
    {
      "type": "Feature",
      "id": "4843",
      "geometry": {
        "type": "Point",
        "coordinates": [
          -30.452703,
          -7.703741
        ]
      },
      "properties": {
        "label": "Etilevodopa",
        "level": 5,
        "pos": "-239363.00499999998,-77689.206",
        "src_id": "5654",
        "weight": "4.4183253019812527e-05"
      }
    },
    {
      "type": "Feature",
      "id": "8549",
      "geometry": {
        "type": "Point",
        "coordinates": [
          -30.587532,
          -6.810358
        ]
      },
      "properties": {
        "label": "Gadofosveset trisodium",
        "level": 5,
        "pos": "-240133.062,-72599.79",
        "src_id": "5765",
        "weight": "5.7999556727671686e-05"
      }
    },
    {
      "type": "Feature",
      "id": "3292",
      "geometry": {
        "type": "Point",
        "coordinates": [
          -31.835456,
          -7.233187
        ]
      },
      "properties": {
        "label": "Dibotermin alfa",
        "level": 5,
        "pos": "-247260.43899999998,-75007.299",
        "src_id": "9311",
        "weight": "6.012870239241737e-05"
      }
    },
    {
      "type": "Feature",
      "id": "4713",
      "geometry": {
        "type": "Point",
        "coordinates": [
          -22.191047,
          -6.229208
        ]
      },
      "properties": {
        "label": "Vinflunine",
        "level": 5,
        "pos": "-192177.492,-69294.258",
        "src_id": "9313",
        "weight": "7.14791074334028e-05"
      }
    },
    {
      "type": "Feature",
      "id": "2411",
      "geometry": {
        "type": "Point",
        "coordinates": [
          -25.285574,
          -7.618043
        ]
      },
      "properties": {
        "label": "Tocilizumab",
        "level": 4,
        "pos": "-209851.529,-77200.56300000001",
        "src_id": "5528",
        "weight": "0.00015312357062037817"
      }
    },
    {
      "type": "Feature",
      "id": "3486",
      "geometry": {
        "type": "Point",
        "coordinates": [
          -22.230321,
          -9.021643
        ]
      },
      "properties": {
        "label": "Lapatinib",
        "level": 4,
        "pos": "-192401.803,-85217.02399999999",
        "src_id": "1242",
        "weight": "0.000139321363432142"
      }
    },
    {
      "type": "Feature",
      "id": "2505",
      "geometry": {
        "type": "Point",
        "coordinates": [
          -24.241176,
          -8.485151
        ]
      },
      "properties": {
        "label": "Selegiline",
        "level": 5,
        "pos": "-203886.57499999998,-82149.512",
        "src_id": "1022",
        "weight": "8.995422833373202e-05"
      }
    },
    {
      "type": "Feature",
      "id": "2456",
      "geometry": {
        "type": "Point",
        "coordinates": [
          -24.247278,
          -9.211001
        ]
      },
      "properties": {
        "label": "Cilomilast",
        "level": 4,
        "pos": "-203921.42,-86300.795",
        "src_id": "3624",
        "weight": "0.00016340292820778244"
      }
    },
    {
      "type": "Feature",
      "id": "3435",
      "geometry": {
        "type": "Point",
        "coordinates": [
          -36.288107,
          -15.783164
        ]
      },
      "properties": {
        "label": "Uracil",
        "level": 4,
        "pos": "-272691.246,-124364.99399999999",
        "src_id": "3228",
        "weight": "0.00014258398553658016"
      }
    },
    {
      "type": "Feature",
      "id": "6850",
      "geometry": {
        "type": "Point",
        "coordinates": [
          -36.624768,
          -16.211986
        ]
      },
      "properties": {
        "label": "Hepatectomy",
        "level": 5,
        "pos": "-274614.048,-126885.941",
        "src_id": "177862",
        "weight": "3.662553689919856e-05"
      }
    },
    {
      "type": "Feature",
      "id": "1309",
      "geometry": {
        "type": "Point",
        "coordinates": [
          -27.119092,
          -14.920716
        ]
      },
      "properties": {
        "label": "Insulin Lispro",
        "level": 5,
        "pos": "-220323.459,-119310.815",
        "src_id": "45",
        "weight": "0.00011370639577431309"
      }
    },
    {
      "type": "Feature",
      "id": "1266",
      "geometry": {
        "type": "Point",
        "coordinates": [
          -26.498272,
          -14.914003
        ]
      },
      "properties": {
        "label": "Daunorubicin",
        "level": 5,
        "pos": "-216777.723,-119271.553",
        "src_id": "680",
        "weight": "9.338044916650251e-05"
      }
    },
    {
      "type": "Feature",
      "id": "852",
      "geometry": {
        "type": "Point",
        "coordinates": [
          -28.396354,
          -13.008419
        ]
      },
      "properties": {
        "label": "Acadesine",
        "level": 5,
        "pos": "-227618.39800000002,-108174.52500000001",
        "src_id": "4656",
        "weight": "0.0001180789813665859"
      }
    },
    {
      "type": "Feature",
      "id": "2442",
      "geometry": {
        "type": "Point",
        "coordinates": [
          -28.497708,
          -15.286109
        ]
      },
      "properties": {
        "label": "Pexelizumab",
        "level": 4,
        "pos": "-228197.26700000002,-121449.574",
        "src_id": "4660",
        "weight": "0.0001710059623475381"
      }
    },
    {
      "type": "Feature",
      "id": "1205",
      "geometry": {
        "type": "Point",
        "coordinates": [
          -27.911822,
          -17.103751
        ]
      },
      "properties": {
        "label": "Apremilast",
        "level": 5,
        "pos": "-224851.052,-132146.207",
        "src_id": "5188",
        "weight": "9.338044916650251e-05"
      }
    },
    {
      "type": "Feature",
      "id": "1190",
      "geometry": {
        "type": "Point",
        "coordinates": [
          -27.054127,
          -16.987529
        ]
      },
      "properties": {
        "label": "Tafluprost",
        "level": 5,
        "pos": "-219952.417,-131459.247",
        "src_id": "7795",
        "weight": "9.338044916650251e-05"
      }
    },
    {
      "type": "Feature",
      "id": "447",
      "geometry": {
        "type": "Point",
        "coordinates": [
          -28.463382,
          -14.378423
        ]
      },
      "properties": {
        "label": "Teriflunomide",
        "level": 4,
        "pos": "-228001.221,-116143.274",
        "src_id": "7839",
        "weight": "0.0001392814525862031"
      }
    },
    {
      "type": "Feature",
      "id": "1189",
      "geometry": {
        "type": "Point",
        "coordinates": [
          -27.751205,
          -15.848371
        ]
      },
      "properties": {
        "label": "Linaclotide",
        "level": 5,
        "pos": "-223933.701,-124747.979",
        "src_id": "7849",
        "weight": "9.338044916650251e-05"
      }
    },
    {
      "type": "Feature",
      "id": "342",
      "geometry": {
        "type": "Point",
        "coordinates": [
          -29.897472,
          -12.04223
        ]
      },
      "properties": {
        "label": "Vofopitant",
        "level": 4,
        "pos": "-236191.863,-102581.307",
        "src_id": "10091",
        "weight": "0.00014432710716936602"
      }
    },
    {
      "type": "Feature",
      "id": "1152",
      "geometry": {
        "type": "Point",
        "coordinates": [
          -27.16909,
          -13.963331
        ]
      },
      "properties": {
        "label": "Biapenem",
        "level": 5,
        "pos": "-220609.016,-113723.92499999999",
        "src_id": "10655",
        "weight": "9.338044916650251e-05"
      }
    },
    {
      "type": "Feature",
      "id": "433",
      "geometry": {
        "type": "Point",
        "coordinates": [
          -27.176474,
          -12.719977
        ]
      },
      "properties": {
        "label": "Gossypol",
        "level": 4,
        "pos": "-220651.192,-106502.553",
        "src_id": "10670",
        "weight": "0.0001392814525862031"
      }
    },
    {
      "type": "Feature",
      "id": "621",
      "geometry": {
        "type": "Point",
        "coordinates": [
          -31.624996,
          -14.12735
        ]
      },
      "properties": {
        "label": "Benzoyl peroxide",
        "level": 4,
        "pos": "-246058.41799999998,-114679.374",
        "src_id": "8041",
        "weight": "0.00021779993474946573"
      }
    },
    {
      "type": "Feature",
      "id": "2571",
      "geometry": {
        "type": "Point",
        "coordinates": [
          -28.481306,
          -14.851358
        ]
      },
      "properties": {
        "label": "Raltitrexed",
        "level": 5,
        "pos": "-228103.589,-118905.248",
        "src_id": "284",
        "weight": "8.316769505606724e-05"
      }
    },
    {
      "type": "Feature",
      "id": "1284",
      "geometry": {
        "type": "Point",
        "coordinates": [
          -27.588559,
          -14.520814
        ]
      },
      "properties": {
        "label": "Trifluridine",
        "level": 4,
        "pos": "-223004.773,-116974.221",
        "src_id": "421",
        "weight": "0.00016458415088777667"
      }
    },
    {
      "type": "Feature",
      "id": "2383",
      "geometry": {
        "type": "Point",
        "coordinates": [
          -27.434215,
          -16.272254
        ]
      },
      "properties": {
        "label": "Eribulin",
        "level": 5,
        "pos": "-222123.24599999998,-127240.681",
        "src_id": "7830",
        "weight": "7.2787226452726e-05"
      }
    },
    {
      "type": "Feature",
      "id": "2324",
      "geometry": {
        "type": "Point",
        "coordinates": [
          -27.779137,
          -14.946735
        ]
      },
      "properties": {
        "label": "Saracatinib",
        "level": 5,
        "pos": "-224093.22900000002,-119462.98899999999",
        "src_id": "9474",
        "weight": "7.2787226452726e-05"
      }
    },
    {
      "type": "Feature",
      "id": "627",
      "geometry": {
        "type": "Point",
        "coordinates": [
          -29.713751,
          -13.281236
        ]
      },
      "properties": {
        "label": "Clevudine",
        "level": 2,
        "pos": "-235142.55800000002,-109757.72899999999",
        "src_id": "5745",
        "weight": "0.00040021192736947096"
      }
    },
    {
      "type": "Feature",
      "id": "4702",
      "geometry": {
        "type": "Point",
        "coordinates": [
          -28.541631,
          -15.920995
        ]
      },
      "properties": {
        "label": "Ruboxistaurin",
        "level": 5,
        "pos": "-228448.131,-125174.68100000001",
        "src_id": "9498",
        "weight": "6.734663587186344e-05"
      }
    },
    {
      "type": "Feature",
      "id": "3415",
      "geometry": {
        "type": "Point",
        "coordinates": [
          -27.882611,
          -15.433718
        ]
      },
      "properties": {
        "label": "Brasofensine",
        "level": 5,
        "pos": "-224684.208,-122314.617",
        "src_id": "4579",
        "weight": "5.944838886442493e-05"
      }
    },
    {
      "type": "Feature",
      "id": "8583",
      "geometry": {
        "type": "Point",
        "coordinates": [
          -27.868502,
          -13.381258
        ]
      },
      "properties": {
        "label": "Prucalopride",
        "level": 5,
        "pos": "-224603.631,-110338.62000000001",
        "src_id": "5630",
        "weight": "6.150867327883275e-05"
      }
    },
    {
      "type": "Feature",
      "id": "350",
      "geometry": {
        "type": "Point",
        "coordinates": [
          -25.132074,
          -11.419599
        ]
      },
      "properties": {
        "label": "Lenalidomide",
        "level": 2,
        "pos": "-208974.825,-98987.67700000001",
        "src_id": "469",
        "weight": "0.000459850912954922"
      }
    },
    {
      "type": "Feature",
      "id": "8594",
      "geometry": {
        "type": "Point",
        "coordinates": [
          -25.2945,
          -8.075558
        ]
      },
      "properties": {
        "label": "Xaliproden",
        "level": 5,
        "pos": "-209902.512,-79810.471",
        "src_id": "5576",
        "weight": "2.6352385243545328e-05"
      }
    },
    {
      "type": "Feature",
      "id": "8668",
      "geometry": {
        "type": "Point",
        "coordinates": [
          -25.58801,
          -9.439644
        ]
      },
      "properties": {
        "label": "Dronedarone",
        "level": 5,
        "pos": "-211578.857,-87610.18",
        "src_id": "4577",
        "weight": "4.958312238916663e-05"
      }
    },
    {
      "type": "Feature",
      "id": "8664",
      "geometry": {
        "type": "Point",
        "coordinates": [
          -24.939663,
          -10.096336
        ]
      },
      "properties": {
        "label": "Olcegepant",
        "level": 5,
        "pos": "-207875.902,-91375.82999999999",
        "src_id": "4591",
        "weight": "2.9778802929771694e-05"
      }
    },
    {
      "type": "Feature",
      "id": "8642",
      "geometry": {
        "type": "Point",
        "coordinates": [
          -26.290566,
          -9.848639
        ]
      },
      "properties": {
        "label": "Prinomastat",
        "level": 5,
        "pos": "-215591.43,-89954.587",
        "src_id": "4790",
        "weight": "2.9778802929771694e-05"
      }
    },
    {
      "type": "Feature",
      "id": "8579",
      "geometry": {
        "type": "Point",
        "coordinates": [
          -25.501038,
          -8.964468
        ]
      },
      "properties": {
        "label": "Resiquimod",
        "level": 5,
        "pos": "-211082.13499999998,-84889.89700000001",
        "src_id": "5650",
        "weight": "2.9778802929771694e-05"
      }
    },
    {
      "type": "Feature",
      "id": "2543",
      "geometry": {
        "type": "Point",
        "coordinates": [
          -26.988665,
          -11.152453
        ]
      },
      "properties": {
        "label": "Amodiaquine",
        "level": 5,
        "pos": "-219578.53900000002,-97448.244",
        "src_id": "600",
        "weight": "8.757788832686387e-05"
      }
    },
    {
      "type": "Feature",
      "id": "4976",
      "geometry": {
        "type": "Point",
        "coordinates": [
          -26.849273,
          -10.698544
        ]
      },
      "properties": {
        "label": "Mecasermin",
        "level": 5,
        "pos": "-218782.425,-94835.80399999999",
        "src_id": "1260",
        "weight": "8.554834437645224e-05"
      }
    },
    {
      "type": "Feature",
      "id": "3484",
      "geometry": {
        "type": "Point",
        "coordinates": [
          -24.453011,
          -13.408245
        ]
      },
      "properties": {
        "label": "Sunitinib",
        "level": 4,
        "pos": "-205096.43500000003,-110495.39199999999",
        "src_id": "1251",
        "weight": "0.00014619365088806177"
      }
    },
    {
      "type": "Feature",
      "id": "3587",
      "geometry": {
        "type": "Point",
        "coordinates": [
          -21.674104,
          -9.344818
        ]
      },
      "properties": {
        "label": "Efavirenz",
        "level": 5,
        "pos": "-189225.033,-87067.034",
        "src_id": "612",
        "weight": "0.00010634718571471518"
      }
    },
    {
      "type": "Feature",
      "id": "107",
      "geometry": {
        "type": "Point",
        "coordinates": [
          -40.856487,
          0.910076
        ]
      },
      "properties": {
        "label": "Levocetirizine",
        "level": 2,
        "pos": "-298783.028,-28879.672",
        "src_id": "5533",
        "weight": "0.00047019661208850237"
      }
    },
    {
      "type": "Feature",
      "id": "4790",
      "geometry": {
        "type": "Point",
        "coordinates": [
          -39.353247,
          1.310676
        ]
      },
      "properties": {
        "label": "Ivabradine",
        "level": 5,
        "pos": "-290197.445,-26615.406",
        "src_id": "8028",
        "weight": "9.004965570710544e-05"
      }
    },
    {
      "type": "Feature",
      "id": "672",
      "geometry": {
        "type": "Point",
        "coordinates": [
          -39.639332,
          -0.252439
        ]
      },
      "properties": {
        "label": "Tositumomab",
        "level": 3,
        "pos": "-291831.386,-35449.385",
        "src_id": "77",
        "weight": "0.0003266421397551695"
      }
    },
    {
      "type": "Feature",
      "id": "2302",
      "geometry": {
        "type": "Point",
        "coordinates": [
          -38.092469,
          1.509363
        ]
      },
      "properties": {
        "label": "Tucaresol",
        "level": 5,
        "pos": "-282996.662,-25492.273",
        "src_id": "10654",
        "weight": "0.00011396494036492179"
      }
    },
    {
      "type": "Feature",
      "id": "3618",
      "geometry": {
        "type": "Point",
        "coordinates": [
          -35.742921,
          -0.84948
        ]
      },
      "properties": {
        "label": "Treprostinil",
        "level": 4,
        "pos": "-269577.47599999997,-38823.487",
        "src_id": "364",
        "weight": "0.00015650572806718887"
      }
    },
    {
      "type": "Feature",
      "id": "5085",
      "geometry": {
        "type": "Point",
        "coordinates": [
          -38.442623,
          2.013822
        ]
      },
      "properties": {
        "label": "Linezolid",
        "level": 5,
        "pos": "-284996.52300000004,-22640.161",
        "src_id": "588",
        "weight": "7.09933493324461e-05"
      }
    },
    {
      "type": "Feature",
      "id": "5092",
      "geometry": {
        "type": "Point",
        "coordinates": [
          -39.915288,
          1.768496
        ]
      },
      "properties": {
        "label": "Tigecycline",
        "level": 5,
        "pos": "-293407.48000000004,-24027.284000000003",
        "src_id": "547",
        "weight": "0.00010580157552227034"
      }
    },
    {
      "type": "Feature",
      "id": "3594",
      "geometry": {
        "type": "Point",
        "coordinates": [
          -36.076152,
          -1.266999
        ]
      },
      "properties": {
        "label": "Voriconazole",
        "level": 5,
        "pos": "-271480.687,-41183.344",
        "src_id": "569",
        "weight": "8.92238040686589e-05"
      }
    },
    {
      "type": "Feature",
      "id": "4877",
      "geometry": {
        "type": "Point",
        "coordinates": [
          -38.167647,
          1.050973
        ]
      },
      "properties": {
        "label": "Azimilide",
        "level": 5,
        "pos": "-283426.032,-28083.334",
        "src_id": "4668",
        "weight": "0.00010632911653018698"
      }
    },
    {
      "type": "Feature",
      "id": "8581",
      "geometry": {
        "type": "Point",
        "coordinates": [
          -39.143293,
          0.555182
        ]
      },
      "properties": {
        "label": "Onercept",
        "level": 5,
        "pos": "-288998.322,-30885.38",
        "src_id": "5638",
        "weight": "3.949732115734411e-05"
      }
    },
    {
      "type": "Feature",
      "id": "8511",
      "geometry": {
        "type": "Point",
        "coordinates": [
          -38.352054,
          0.146815
        ]
      },
      "properties": {
        "label": "Plerixafor",
        "level": 5,
        "pos": "-284479.254,-33193.148",
        "src_id": "5862",
        "weight": "5.86025919834485e-05"
      }
    },
    {
      "type": "Feature",
      "id": "622",
      "geometry": {
        "type": "Point",
        "coordinates": [
          -40.336816,
          0.190904
        ]
      },
      "properties": {
        "label": "Perospirone",
        "level": 4,
        "pos": "-295814.994,-32944.001",
        "src_id": "7878",
        "weight": "0.0001522460192602832"
      }
    },
    {
      "type": "Feature",
      "id": "1238",
      "geometry": {
        "type": "Point",
        "coordinates": [
          -25.280936,
          -0.195311
        ]
      },
      "properties": {
        "label": "Dutasteride",
        "level": 3,
        "pos": "-209825.03600000002,-35126.542",
        "src_id": "1110",
        "weight": "0.00034273607192303996"
      }
    },
    {
      "type": "Feature",
      "id": "2590",
      "geometry": {
        "type": "Point",
        "coordinates": [
          -17.878082,
          -2.450944
        ]
      },
      "properties": {
        "label": "Natalizumab",
        "level": 5,
        "pos": "-167544.483,-47877.576",
        "src_id": "101",
        "weight": "0.00012117910562137814"
      }
    },
    {
      "type": "Feature",
      "id": "3588",
      "geometry": {
        "type": "Point",
        "coordinates": [
          -22.758996,
          -0.798295
        ]
      },
      "properties": {
        "label": "Imatinib",
        "level": 4,
        "pos": "-195421.267,-38534.214",
        "src_id": "606",
        "weight": "0.00015167748024478447"
      }
    },
    {
      "type": "Feature",
      "id": "2510",
      "geometry": {
        "type": "Point",
        "coordinates": [
          -17.771157,
          -2.901196
        ]
      },
      "properties": {
        "label": "Doxorubicin",
        "level": 4,
        "pos": "-166933.793,-50424.782999999996",
        "src_id": "983",
        "weight": "0.00012834818937577951"
      }
    },
    {
      "type": "Feature",
      "id": "1222",
      "geometry": {
        "type": "Point",
        "coordinates": [
          -19.446123,
          -2.421087
        ]
      },
      "properties": {
        "label": "Everolimus",
        "level": 4,
        "pos": "-176500.168,-47708.704",
        "src_id": "1523",
        "weight": "0.00020599222699448932"
      }
    },
    {
      "type": "Feature",
      "id": "3646",
      "geometry": {
        "type": "Point",
        "coordinates": [
          -30.886706,
          -4.549095
        ]
      },
      "properties": {
        "label": "Palifermin",
        "level": 4,
        "pos": "-241841.759,-59757.273",
        "src_id": "38",
        "weight": "0.00012664766116999882"
      }
    },
    {
      "type": "Feature",
      "id": "1208",
      "geometry": {
        "type": "Point",
        "coordinates": [
          -35.151756,
          -2.131427
        ]
      },
      "properties": {
        "label": "Trabectedin",
        "level": 4,
        "pos": "-266201.114,-46070.515",
        "src_id": "4799",
        "weight": "0.00020301854050772952"
      }
    },
    {
      "type": "Feature",
      "id": "1733",
      "geometry": {
        "type": "Point",
        "coordinates": [
          -33.338704,
          -2.134271
        ]
      },
      "properties": {
        "label": "Fosamprenavir",
        "level": 4,
        "pos": "-255846.067,-46086.594",
        "src_id": "1283",
        "weight": "0.00022242685214031693"
      }
    },
    {
      "type": "Feature",
      "id": "4884",
      "geometry": {
        "type": "Point",
        "coordinates": [
          -35.896989,
          -1.693355
        ]
      },
      "properties": {
        "label": "Febuxostat",
        "level": 5,
        "pos": "-270457.416,-43593.53200000001",
        "src_id": "4576",
        "weight": "7.003220639144285e-05"
      }
    },
    {
      "type": "Feature",
      "id": "4881",
      "geometry": {
        "type": "Point",
        "coordinates": [
          -34.108088,
          -1.232049
        ]
      },
      "properties": {
        "label": "Galiximab",
        "level": 5,
        "pos": "-260240.321,-40985.79",
        "src_id": "4623",
        "weight": "8.539826860451375e-05"
      }
    },
    {
      "type": "Feature",
      "id": "4876",
      "geometry": {
        "type": "Point",
        "coordinates": [
          -34.601541,
          -1.723933
        ]
      },
      "properties": {
        "label": "Oregovomab",
        "level": 5,
        "pos": "-263058.618,-43766.414",
        "src_id": "4675",
        "weight": "8.539826860451375e-05"
      }
    },
    {
      "type": "Feature",
      "id": "4856",
      "geometry": {
        "type": "Point",
        "coordinates": [
          -31.828493,
          -1.309245
        ]
      },
      "properties": {
        "label": "Dalbavancin",
        "level": 5,
        "pos": "-247220.674,-41422.143",
        "src_id": "5492",
        "weight": "8.539826860451375e-05"
      }
    },
    {
      "type": "Feature",
      "id": "4851",
      "geometry": {
        "type": "Point",
        "coordinates": [
          -28.214593,
          -4.650816
        ]
      },
      "properties": {
        "label": "Idraparinux",
        "level": 5,
        "pos": "-226580.286,-60333.959",
        "src_id": "5585",
        "weight": "7.609237938904759e-05"
      }
    },
    {
      "type": "Feature",
      "id": "3372",
      "geometry": {
        "type": "Point",
        "coordinates": [
          -36.524454,
          -2.127378
        ]
      },
      "properties": {
        "label": "Lixivaptan",
        "level": 4,
        "pos": "-274041.122,-46047.606999999996",
        "src_id": "5733",
        "weight": "0.0001318276443091638"
      }
    },
    {
      "type": "Feature",
      "id": "4822",
      "geometry": {
        "type": "Point",
        "coordinates": [
          -33.431342,
          -1.693908
        ]
      },
      "properties": {
        "label": "Ganirelix",
        "level": 5,
        "pos": "-256375.164,-43596.657999999996",
        "src_id": "5841",
        "weight": "6.624150021366249e-05"
      }
    },
    {
      "type": "Feature",
      "id": "1810",
      "geometry": {
        "type": "Point",
        "coordinates": [
          -24.556457,
          -3.126931
        ]
      },
      "properties": {
        "label": "Eszopiclone",
        "level": 4,
        "pos": "-205687.256,-51702.205",
        "src_id": "391",
        "weight": "0.00013197061826877732"
      }
    },
    {
      "type": "Feature",
      "id": "882",
      "geometry": {
        "type": "Point",
        "coordinates": [
          -23.470892,
          -4.471396
        ]
      },
      "properties": {
        "label": "Ranitidine",
        "level": 4,
        "pos": "-199487.183,-59316.818",
        "src_id": "849",
        "weight": "0.00020359312323328497"
      }
    },
    {
      "type": "Feature",
      "id": "8833",
      "geometry": {
        "type": "Point",
        "coordinates": [
          -23.382537,
          -4.008505
        ]
      },
      "properties": {
        "label": "Uridine diphosphate glucose",
        "level": 5,
        "pos": "-198982.551,-56693.795",
        "src_id": "1775",
        "weight": "2.8968751914976847e-05"
      }
    },
    {
      "type": "Feature",
      "id": "94",
      "geometry": {
        "type": "Point",
        "coordinates": [
          -22.189373,
          -13.329622
        ]
      },
      "properties": {
        "label": "Parecoxib",
        "level": 2,
        "pos": "-192167.932,-110038.71399999999",
        "src_id": "7436",
        "weight": "0.0004595768140533056"
      }
    },
    {
      "type": "Feature",
      "id": "4705",
      "geometry": {
        "type": "Point",
        "coordinates": [
          -20.886399,
          -10.363918
        ]
      },
      "properties": {
        "label": "Bryostatin 1",
        "level": 5,
        "pos": "-184726.143,-92912.395",
        "src_id": "9422",
        "weight": "0.00011272398189261616"
      }
    },
    {
      "type": "Feature",
      "id": "4947",
      "geometry": {
        "type": "Point",
        "coordinates": [
          -22.020689,
          -10.720392
        ]
      },
      "properties": {
        "label": "Etoricoxib",
        "level": 5,
        "pos": "-191204.507,-94961.451",
        "src_id": "1559",
        "weight": "8.441827047019304e-05"
      }
    },
    {
      "type": "Feature",
      "id": "2547",
      "geometry": {
        "type": "Point",
        "coordinates": [
          -22.959589,
          -14.038375
        ]
      },
      "properties": {
        "label": "Valdecoxib",
        "level": 4,
        "pos": "-196566.92799999999,-114160.981",
        "src_id": "567",
        "weight": "0.00015021897403946113"
      }
    },
    {
      "type": "Feature",
      "id": "5022",
      "geometry": {
        "type": "Point",
        "coordinates": [
          -20.747938,
          -9.508539
        ]
      },
      "properties": {
        "label": "Methyl aminolevulinate",
        "level": 5,
        "pos": "-183935.343,-88004.898",
        "src_id": "978",
        "weight": "7.955166316951435e-05"
      }
    },
    {
      "type": "Feature",
      "id": "4874",
      "geometry": {
        "type": "Point",
        "coordinates": [
          -21.486962,
          -9.917056
        ]
      },
      "properties": {
        "label": "Fenretinide",
        "level": 5,
        "pos": "-188156.19,-90347.05",
        "src_id": "4769",
        "weight": "8.152185017864754e-05"
      }
    },
    {
      "type": "Feature",
      "id": "4831",
      "geometry": {
        "type": "Point",
        "coordinates": [
          -22.051877,
          -11.216759
        ]
      },
      "properties": {
        "label": "Fesoterodine",
        "level": 5,
        "pos": "-191382.641,-97818.675",
        "src_id": "5762",
        "weight": "8.152185017864754e-05"
      }
    },
    {
      "type": "Feature",
      "id": "8570",
      "geometry": {
        "type": "Point",
        "coordinates": [
          -23.115999,
          -6.805591
        ]
      },
      "properties": {
        "label": "Midostaurin",
        "level": 5,
        "pos": "-197460.252,-72572.657",
        "src_id": "5686",
        "weight": "6.116427223895208e-05"
      }
    },
    {
      "type": "Feature",
      "id": "2538",
      "geometry": {
        "type": "Point",
        "coordinates": [
          -35.937488,
          -8.703999
        ]
      },
      "properties": {
        "label": "Methazolamide",
        "level": 4,
        "pos": "-270688.72699999996,-83400.293",
        "src_id": "689",
        "weight": "0.00017079616744928628"
      }
    },
    {
      "type": "Feature",
      "id": "1230",
      "geometry": {
        "type": "Point",
        "coordinates": [
          -33.333567,
          -9.876155
        ]
      },
      "properties": {
        "label": "Sitagliptin",
        "level": 4,
        "pos": "-255816.726,-90112.418",
        "src_id": "1244",
        "weight": "0.00013315436002590006"
      }
    },
    {
      "type": "Feature",
      "id": "1687",
      "geometry": {
        "type": "Point",
        "coordinates": [
          -27.139597,
          -7.208306
        ]
      },
      "properties": {
        "label": "Povidone-iodine",
        "level": 5,
        "pos": "-220440.571,-74865.56899999999",
        "src_id": "5865",
        "weight": "9.975753940511469e-05"
      }
    },
    {
      "type": "Feature",
      "id": "4710",
      "geometry": {
        "type": "Point",
        "coordinates": [
          -32.562579,
          -9.373467
        ]
      },
      "properties": {
        "label": "Indium",
        "level": 5,
        "pos": "-251413.323,-87231.114",
        "src_id": "9331",
        "weight": "4.735307976204157e-05"
      }
    },
    {
      "type": "Feature",
      "id": "3436",
      "geometry": {
        "type": "Point",
        "coordinates": [
          -33.265113,
          -8.911461
        ]
      },
      "properties": {
        "label": "Propyl alcohol",
        "level": 5,
        "pos": "-255425.758,-84586.674",
        "src_id": "2996",
        "weight": "8.224716621436833e-05"
      }
    },
    {
      "type": "Feature",
      "id": "4839",
      "geometry": {
        "type": "Point",
        "coordinates": [
          -23.455484,
          -10.546472
        ]
      },
      "properties": {
        "label": "Pegsunercept",
        "level": 5,
        "pos": "-199399.185,-93961.44499999999",
        "src_id": "5699",
        "weight": "8.835162435004404e-05"
      }
    },
    {
      "type": "Feature",
      "id": "3622",
      "geometry": {
        "type": "Point",
        "coordinates": [
          -23.223751,
          -12.98655
        ]
      },
      "properties": {
        "label": "Flucloxacillin",
        "level": 4,
        "pos": "-198075.661,-108047.696",
        "src_id": "292",
        "weight": "0.00014298449741086155"
      }
    },
    {
      "type": "Feature",
      "id": "8173",
      "geometry": {
        "type": "Point",
        "coordinates": [
          -24.677373,
          -7.179034
        ]
      },
      "properties": {
        "label": "Entinostat",
        "level": 5,
        "pos": "-206377.858,-74698.845",
        "src_id": "9510",
        "weight": "3.874700736497488e-05"
      }
    },
    {
      "type": "Feature",
      "id": "3336",
      "geometry": {
        "type": "Point",
        "coordinates": [
          -23.978882,
          -8.066488
        ]
      },
      "properties": {
        "label": "Toloxatone",
        "level": 5,
        "pos": "-202388.508,-79758.69799999999",
        "src_id": "8185",
        "weight": "9.823247135082055e-05"
      }
    },
    {
      "type": "Feature",
      "id": "2282",
      "geometry": {
        "type": "Point",
        "coordinates": [
          -22.382463,
          -9.470346
        ]
      },
      "properties": {
        "label": "Acute lung injury",
        "level": 4,
        "pos": "-193270.737,-87786.06999999999",
        "src_id": "169753",
        "weight": "0.0001803302455734836"
      }
    },
    {
      "type": "Feature",
      "id": "2461",
      "geometry": {
        "type": "Point",
        "coordinates": [
          -37.748334,
          0.595432
        ]
      },
      "properties": {
        "label": "Brivudine",
        "level": 4,
        "pos": "-281031.16699999996,-30657.914",
        "src_id": "3128",
        "weight": "0.00012564777051257787"
      }
    },
    {
      "type": "Feature",
      "id": "2551",
      "geometry": {
        "type": "Point",
        "coordinates": [
          -43.744449,
          3.080936
        ]
      },
      "properties": {
        "label": "Entacapone",
        "level": 5,
        "pos": "-315277.29699999996,-16603.736999999997",
        "src_id": "483",
        "weight": "0.00011819672651782877"
      }
    },
    {
      "type": "Feature",
      "id": "77",
      "geometry": {
        "type": "Point",
        "coordinates": [
          -44.124954,
          -0.299824
        ]
      },
      "properties": {
        "label": "Aprepitant",
        "level": 1,
        "pos": "-317450.50800000003,-35717.161",
        "src_id": "659",
        "weight": "0.0006178451975698707"
      }
    },
    {
      "type": "Feature",
      "id": "863",
      "geometry": {
        "type": "Point",
        "coordinates": [
          -40.716519,
          -0.664645
        ]
      },
      "properties": {
        "label": "Drospirenone",
        "level": 4,
        "pos": "-297983.625,-37778.883",
        "src_id": "1340",
        "weight": "0.00013780980746302116"
      }
    },
    {
      "type": "Feature",
      "id": "1729",
      "geometry": {
        "type": "Point",
        "coordinates": [
          -38.194849,
          -0.341806
        ]
      },
      "properties": {
        "label": "Ciclesonide",
        "level": 4,
        "pos": "-283581.391,-35954.413",
        "src_id": "1353",
        "weight": "0.0001731469113677049"
      }
    },
    {
      "type": "Feature",
      "id": "3400",
      "geometry": {
        "type": "Point",
        "coordinates": [
          -44.018911,
          1.305089
        ]
      },
      "properties": {
        "label": "Iodine",
        "level": 5,
        "pos": "-316844.864,-26646.990999999998",
        "src_id": "5012",
        "weight": "4.4737023635549195e-05"
      }
    },
    {
      "type": "Feature",
      "id": "1188",
      "geometry": {
        "type": "Point",
        "coordinates": [
          -43.033186,
          -1.488398
        ]
      },
      "properties": {
        "label": "Dimethyl fumarate",
        "level": 5,
        "pos": "-311214.997,-42434.854",
        "src_id": "7867",
        "weight": "0.00010521177034520847"
      }
    },
    {
      "type": "Feature",
      "id": "1159",
      "geometry": {
        "type": "Point",
        "coordinates": [
          -44.881007,
          -1.322036
        ]
      },
      "properties": {
        "label": "Pazufloxacin",
        "level": 4,
        "pos": "-321768.625,-41494.443",
        "src_id": "9444",
        "weight": "0.00015901110686165649"
      }
    },
    {
      "type": "Feature",
      "id": "3624",
      "geometry": {
        "type": "Point",
        "coordinates": [
          -36.519051,
          -0.399622
        ]
      },
      "properties": {
        "label": "Etonogestrel",
        "level": 4,
        "pos": "-274010.25700000004,-36281.140999999996",
        "src_id": "285",
        "weight": "0.00017087955237593961"
      }
    },
    {
      "type": "Feature",
      "id": "8425",
      "geometry": {
        "type": "Point",
        "coordinates": [
          -32.9862,
          -0.892813
        ]
      },
      "properties": {
        "label": "Ibrutinib",
        "level": 6,
        "pos": "-253832.778,-39068.396",
        "src_id": "7999",
        "weight": "2.2098574546200378e-05"
      }
    },
    {
      "type": "Feature",
      "id": "3653",
      "geometry": {
        "type": "Point",
        "coordinates": [
          -8.639864,
          -27.931755
        ]
      },
      "properties": {
        "label": "Denileukin diftitox",
        "level": 5,
        "pos": "-114781.453,-198519.382",
        "src_id": "4",
        "weight": "6.173813601964199e-05"
      }
    },
    {
      "type": "Feature",
      "id": "5",
      "geometry": {
        "type": "Point",
        "coordinates": [
          -14.035131,
          -23.606318
        ]
      },
      "properties": {
        "label": "Botulinum Toxin Type B",
        "level": 1,
        "pos": "-145595.897,-171367.198",
        "src_id": "41",
        "weight": "0.0017680976760879523"
      }
    },
    {
      "type": "Feature",
      "id": "826",
      "geometry": {
        "type": "Point",
        "coordinates": [
          -8.522229,
          -31.620985
        ]
      },
      "properties": {
        "label": "Benserazide",
        "level": 4,
        "pos": "-114109.586,-222545.749",
        "src_id": "10420",
        "weight": "0.00012417163885685033"
      }
    },
    {
      "type": "Feature",
      "id": "914",
      "geometry": {
        "type": "Point",
        "coordinates": [
          -15.635744,
          -13.397228
        ]
      },
      "properties": {
        "label": "Efalizumab",
        "level": 2,
        "pos": "-154737.625,-110431.39499999999",
        "src_id": "90",
        "weight": "0.0003455121563629616"
      }
    },
    {
      "type": "Feature",
      "id": "2601",
      "geometry": {
        "type": "Point",
        "coordinates": [
          -8.60981,
          -29.240482
        ]
      },
      "properties": {
        "label": "Reteplase",
        "level": 5,
        "pos": "-114609.801,-206942.131",
        "src_id": "15",
        "weight": "7.498023757137534e-05"
      }
    },
    {
      "type": "Feature",
      "id": "9",
      "geometry": {
        "type": "Point",
        "coordinates": [
          -17.492419,
          -27.266882
        ]
      },
      "properties": {
        "label": "Fondaparinux sodium",
        "level": 1,
        "pos": "-165341.808,-194279.64",
        "src_id": "556",
        "weight": "0.0016358911710639495"
      }
    },
    {
      "type": "Feature",
      "id": "3399",
      "geometry": {
        "type": "Point",
        "coordinates": [
          -9.755266,
          -26.293437
        ]
      },
      "properties": {
        "label": "gallium maltolate",
        "level": 5,
        "pos": "-121151.94099999999,-188117.57499999998",
        "src_id": "5046",
        "weight": "6.582915467494676e-05"
      }
    },
    {
      "type": "Feature",
      "id": "3388",
      "geometry": {
        "type": "Point",
        "coordinates": [
          -12.346073,
          -25.858236
        ]
      },
      "properties": {
        "label": "Exisulind",
        "level": 5,
        "pos": "-135949.039,-185379.5",
        "src_id": "5508",
        "weight": "6.582915467494676e-05"
      }
    },
    {
      "type": "Feature",
      "id": "3383",
      "geometry": {
        "type": "Point",
        "coordinates": [
          -10.423435,
          -25.862705
        ]
      },
      "properties": {
        "label": "Repifermin",
        "level": 5,
        "pos": "-124968.11,-185407.556",
        "src_id": "5599",
        "weight": "6.582915467494676e-05"
      }
    },
    {
      "type": "Feature",
      "id": "354",
      "geometry": {
        "type": "Point",
        "coordinates": [
          -16.929099,
          -26.682712
        ]
      },
      "properties": {
        "label": "Drotrecogin alfa",
        "level": 2,
        "pos": "-162124.473,-190575.423",
        "src_id": "54",
        "weight": "0.0004170313071272185"
      }
    },
    {
      "type": "Feature",
      "id": "2562",
      "geometry": {
        "type": "Point",
        "coordinates": [
          -8.903688,
          -29.702317
        ]
      },
      "properties": {
        "label": "Dexrazoxane",
        "level": 5,
        "pos": "-116288.254,-209939.93",
        "src_id": "370",
        "weight": "7.498023757137534e-05"
      }
    },
    {
      "type": "Feature",
      "id": "5114",
      "geometry": {
        "type": "Point",
        "coordinates": [
          -15.910104,
          -29.055761
        ]
      },
      "properties": {
        "label": "Cerivastatin",
        "level": 5,
        "pos": "-156304.60400000002,-205746.894",
        "src_id": "428",
        "weight": "7.305638896722559e-05"
      }
    },
    {
      "type": "Feature",
      "id": "3599",
      "geometry": {
        "type": "Point",
        "coordinates": [
          -10.4682,
          -28.062584
        ]
      },
      "properties": {
        "label": "Zanamivir",
        "level": 5,
        "pos": "-125223.783,-199356.698",
        "src_id": "545",
        "weight": "6.173813601964199e-05"
      }
    },
    {
      "type": "Feature",
      "id": "885",
      "geometry": {
        "type": "Point",
        "coordinates": [
          -14.02366,
          -28.048336
        ]
      },
      "properties": {
        "label": "Imiquimod",
        "level": 4,
        "pos": "-145530.394,-199265.46099999998",
        "src_id": "710",
        "weight": "0.0002258577975625458"
      }
    },
    {
      "type": "Feature",
      "id": "2524",
      "geometry": {
        "type": "Point",
        "coordinates": [
          -14.382519,
          -28.435112
        ]
      },
      "properties": {
        "label": "Clofazimine",
        "level": 5,
        "pos": "-147579.972,-201746.53399999999",
        "src_id": "831",
        "weight": "7.606690841652016e-05"
      }
    },
    {
      "type": "Feature",
      "id": "2451",
      "geometry": {
        "type": "Point",
        "coordinates": [
          -14.994113,
          -26.423739
        ]
      },
      "properties": {
        "label": "Seocalcitol",
        "level": 5,
        "pos": "-151073.016,-188939.362",
        "src_id": "4013",
        "weight": "7.606690841652016e-05"
      }
    },
    {
      "type": "Feature",
      "id": "4894",
      "geometry": {
        "type": "Point",
        "coordinates": [
          -15.354854,
          -26.778777
        ]
      },
      "properties": {
        "label": "Licofelone",
        "level": 5,
        "pos": "-153133.35,-191183.248",
        "src_id": "4449",
        "weight": "7.556014543455843e-05"
      }
    },
    {
      "type": "Feature",
      "id": "8669",
      "geometry": {
        "type": "Point",
        "coordinates": [
          -9.813012,
          -29.336723
        ]
      },
      "properties": {
        "label": "Binodenoson",
        "level": 5,
        "pos": "-121481.746,-207565.708",
        "src_id": "4575",
        "weight": "4.5723005994057677e-05"
      }
    },
    {
      "type": "Feature",
      "id": "3413",
      "geometry": {
        "type": "Point",
        "coordinates": [
          -11.82708,
          -25.497103
        ]
      },
      "properties": {
        "label": "Picoplatin",
        "level": 5,
        "pos": "-132984.869,-183115.07",
        "src_id": "4596",
        "weight": "6.076997261599327e-05"
      }
    },
    {
      "type": "Feature",
      "id": "2444",
      "geometry": {
        "type": "Point",
        "coordinates": [
          -15.445982,
          -27.418366
        ]
      },
      "properties": {
        "label": "Oritavancin",
        "level": 5,
        "pos": "-153653.817,-195243.361",
        "src_id": "4631",
        "weight": "7.759064694981998e-05"
      }
    },
    {
      "type": "Feature",
      "id": "4880",
      "geometry": {
        "type": "Point",
        "coordinates": [
          -16.20363,
          -26.070008
        ]
      },
      "properties": {
        "label": "Ceftobiprole",
        "level": 5,
        "pos": "-157981.03699999998,-186710.588",
        "src_id": "4636",
        "weight": "4.489104334582647e-05"
      }
    },
    {
      "type": "Feature",
      "id": "2443",
      "geometry": {
        "type": "Point",
        "coordinates": [
          -15.219909,
          -27.906639
        ]
      },
      "properties": {
        "label": "Clevidipine",
        "level": 5,
        "pos": "-152362.629,-198358.752",
        "src_id": "4638",
        "weight": "8.785936240467434e-05"
      }
    },
    {
      "type": "Feature",
      "id": "4879",
      "geometry": {
        "type": "Point",
        "coordinates": [
          -7.940619,
          -28.474225
        ]
      },
      "properties": {
        "label": "Ospemifene",
        "level": 5,
        "pos": "-110787.785,-201997.932",
        "src_id": "4652",
        "weight": "8.164997005201981e-05"
      }
    },
    {
      "type": "Feature",
      "id": "8648",
      "geometry": {
        "type": "Point",
        "coordinates": [
          -11.021402,
          -27.689948
        ]
      },
      "properties": {
        "label": "Troxacitabine",
        "level": 5,
        "pos": "-128383.32500000001,-196974.44999999998",
        "src_id": "4672",
        "weight": "6.028972134145543e-05"
      }
    },
    {
      "type": "Feature",
      "id": "2434",
      "geometry": {
        "type": "Point",
        "coordinates": [
          -13.096793,
          -25.33883
        ]
      },
      "properties": {
        "label": "Asimadoline",
        "level": 5,
        "pos": "-140236.68699999998,-182124.796",
        "src_id": "4794",
        "weight": "0.00011609785241913792"
      }
    },
    {
      "type": "Feature",
      "id": "3402",
      "geometry": {
        "type": "Point",
        "coordinates": [
          -10.944881,
          -26.722801
        ]
      },
      "properties": {
        "label": "Paclitaxel docosahexaenoic acid",
        "level": 5,
        "pos": "-127946.288,-190829.006",
        "src_id": "4953",
        "weight": "6.076997261599327e-05"
      }
    },
    {
      "type": "Feature",
      "id": "2432",
      "geometry": {
        "type": "Point",
        "coordinates": [
          -8.908237,
          -27.073985
        ]
      },
      "properties": {
        "label": "Pradefovir Mesylate",
        "level": 5,
        "pos": "-116314.227,-193054.35199999998",
        "src_id": "5100",
        "weight": "7.606690841652016e-05"
      }
    },
    {
      "type": "Feature",
      "id": "2430",
      "geometry": {
        "type": "Point",
        "coordinates": [
          -9.55986,
          -27.5433
        ]
      },
      "properties": {
        "label": "Oglufanide",
        "level": 5,
        "pos": "-120035.896,-196039.17200000002",
        "src_id": "5243",
        "weight": "7.606690841652016e-05"
      }
    },
    {
      "type": "Feature",
      "id": "4866",
      "geometry": {
        "type": "Point",
        "coordinates": [
          -17.614288,
          -26.148944
        ]
      },
      "properties": {
        "label": "Ciluprevir",
        "level": 5,
        "pos": "-166037.848,-187207.361",
        "src_id": "5317",
        "weight": "8.164997005201981e-05"
      }
    },
    {
      "type": "Feature",
      "id": "629",
      "geometry": {
        "type": "Point",
        "coordinates": [
          -17.056887,
          -27.333723
        ]
      },
      "properties": {
        "label": "Rimonabant",
        "level": 4,
        "pos": "-162854.323,-194704.709",
        "src_id": "5443",
        "weight": "0.00021510377213365776"
      }
    },
    {
      "type": "Feature",
      "id": "3392",
      "geometry": {
        "type": "Point",
        "coordinates": [
          -11.399791,
          -26.245982
        ]
      },
      "properties": {
        "label": "Pixantrone",
        "level": 5,
        "pos": "-130544.458,-187818.511",
        "src_id": "5468",
        "weight": "0.000104656874571284"
      }
    },
    {
      "type": "Feature",
      "id": "2421",
      "geometry": {
        "type": "Point",
        "coordinates": [
          -9.261419,
          -28.442989
        ]
      },
      "properties": {
        "label": "Bimosiamose",
        "level": 5,
        "pos": "-118331.386,-201797.151",
        "src_id": "5472",
        "weight": "7.759064694981998e-05"
      }
    },
    {
      "type": "Feature",
      "id": "2417",
      "geometry": {
        "type": "Point",
        "coordinates": [
          -10.976054,
          -28.909938
        ]
      },
      "properties": {
        "label": "Ferumoxytol",
        "level": 5,
        "pos": "-128124.32999999999,-204804.845",
        "src_id": "5488",
        "weight": "8.109332118000062e-05"
      }
    },
    {
      "type": "Feature",
      "id": "2413",
      "geometry": {
        "type": "Point",
        "coordinates": [
          -10.529197,
          -27.146165
        ]
      },
      "properties": {
        "label": "Maribavir",
        "level": 5,
        "pos": "-125572.16,-193512.594",
        "src_id": "5499",
        "weight": "7.606690841652016e-05"
      }
    },
    {
      "type": "Feature",
      "id": "847",
      "geometry": {
        "type": "Point",
        "coordinates": [
          -17.972591,
          -26.907684
        ]
      },
      "properties": {
        "label": "Lanoteplase",
        "level": 4,
        "pos": "-168084.26,-191999.693",
        "src_id": "5507",
        "weight": "0.0002258577975625458"
      }
    },
    {
      "type": "Feature",
      "id": "8602",
      "geometry": {
        "type": "Point",
        "coordinates": [
          -11.560101,
          -28.061644
        ]
      },
      "properties": {
        "label": "Arzoxifene",
        "level": 5,
        "pos": "-131460.049,-199350.68000000002",
        "src_id": "5511",
        "weight": "6.028972134145543e-05"
      }
    },
    {
      "type": "Feature",
      "id": "2410",
      "geometry": {
        "type": "Point",
        "coordinates": [
          -12.598341,
          -26.403176
        ]
      },
      "properties": {
        "label": "Alvimopan",
        "level": 5,
        "pos": "-137389.837,-188809.608",
        "src_id": "5529",
        "weight": "7.606690841652016e-05"
      }
    },
    {
      "type": "Feature",
      "id": "2409",
      "geometry": {
        "type": "Point",
        "coordinates": [
          -13.015406,
          -27.133849
        ]
      },
      "properties": {
        "label": "Tanomastat",
        "level": 5,
        "pos": "-139771.856,-193434.381",
        "src_id": "5530",
        "weight": "7.498023757137534e-05"
      }
    },
    {
      "type": "Feature",
      "id": "2405",
      "geometry": {
        "type": "Point",
        "coordinates": [
          -14.998807,
          -25.725946
        ]
      },
      "properties": {
        "label": "Semaxanib",
        "level": 5,
        "pos": "-151099.83,-184549.196",
        "src_id": "5601",
        "weight": "7.498023757137534e-05"
      }
    },
    {
      "type": "Feature",
      "id": "2404",
      "geometry": {
        "type": "Point",
        "coordinates": [
          -14.378769,
          -29.250523
        ]
      },
      "properties": {
        "label": "Ravuconazole",
        "level": 5,
        "pos": "-147558.548,-207007.16499999998",
        "src_id": "5604",
        "weight": "7.498023757137534e-05"
      }
    },
    {
      "type": "Feature",
      "id": "2403",
      "geometry": {
        "type": "Point",
        "coordinates": [
          -16.177281,
          -28.628233
        ]
      },
      "properties": {
        "label": "Diethylnorspermine",
        "level": 5,
        "pos": "-157830.549,-202988.738",
        "src_id": "5608",
        "weight": "7.759064694981998e-05"
      }
    },
    {
      "type": "Feature",
      "id": "3381",
      "geometry": {
        "type": "Point",
        "coordinates": [
          -13.77921,
          -25.675796
        ]
      },
      "properties": {
        "label": "Meclinertant",
        "level": 5,
        "pos": "-144134.238,-184234.676",
        "src_id": "5615",
        "weight": "6.076997261599327e-05"
      }
    },
    {
      "type": "Feature",
      "id": "3380",
      "geometry": {
        "type": "Point",
        "coordinates": [
          -11.797623,
          -27.149616
        ]
      },
      "properties": {
        "label": "Enrasentan",
        "level": 5,
        "pos": "-132816.62900000002,-193534.513",
        "src_id": "5618",
        "weight": "6.173813601964199e-05"
      }
    },
    {
      "type": "Feature",
      "id": "2402",
      "geometry": {
        "type": "Point",
        "coordinates": [
          -16.465595,
          -28.21322
        ]
      },
      "properties": {
        "label": "Cariporide",
        "level": 5,
        "pos": "-159477.21899999998,-200322.053",
        "src_id": "5621",
        "weight": "7.759064694981998e-05"
      }
    },
    {
      "type": "Feature",
      "id": "3376",
      "geometry": {
        "type": "Point",
        "coordinates": [
          -14.200633,
          -24.947196
        ]
      },
      "properties": {
        "label": "Bivatuzumab",
        "level": 5,
        "pos": "-146541.151,-179679.97600000002",
        "src_id": "5661",
        "weight": "6.076997261599327e-05"
      }
    },
    {
      "type": "Feature",
      "id": "3374",
      "geometry": {
        "type": "Point",
        "coordinates": [
          -13.724087,
          -26.146396
        ]
      },
      "properties": {
        "label": "Rostaporfin",
        "level": 5,
        "pos": "-143819.409,-187191.32200000001",
        "src_id": "5729",
        "weight": "6.076997261599327e-05"
      }
    },
    {
      "type": "Feature",
      "id": "4828",
      "geometry": {
        "type": "Point",
        "coordinates": [
          -12.79987,
          -24.931991
        ]
      },
      "properties": {
        "label": "Fospropofol",
        "level": 5,
        "pos": "-138540.85499999998,-179585.21600000001",
        "src_id": "5776",
        "weight": "4.489104334582647e-05"
      }
    },
    {
      "type": "Feature",
      "id": "4809",
      "geometry": {
        "type": "Point",
        "coordinates": [
          -16.058028,
          -24.628054
        ]
      },
      "properties": {
        "label": "Belimumab",
        "level": 5,
        "pos": "-157149.454,-177693.447",
        "src_id": "7838",
        "weight": "4.911341606807983e-05"
      }
    },
    {
      "type": "Feature",
      "id": "3356",
      "geometry": {
        "type": "Point",
        "coordinates": [
          -15.910658,
          -25.326557
        ]
      },
      "properties": {
        "label": "Radium Ra 223 Dichloride",
        "level": 5,
        "pos": "-156307.758,-182048.061",
        "src_id": "7872",
        "weight": "6.076997261599327e-05"
      }
    },
    {
      "type": "Feature",
      "id": "3338",
      "geometry": {
        "type": "Point",
        "coordinates": [
          -14.878688,
          -24.567007
        ]
      },
      "properties": {
        "label": "Benidipine",
        "level": 5,
        "pos": "-150413.777,-177314.036",
        "src_id": "8171",
        "weight": "6.173813601964199e-05"
      }
    },
    {
      "type": "Feature",
      "id": "3337",
      "geometry": {
        "type": "Point",
        "coordinates": [
          -14.167624,
          -27.096403
        ]
      },
      "properties": {
        "label": "Manidipine",
        "level": 5,
        "pos": "-146352.62,-193196.64",
        "src_id": "8178",
        "weight": "6.173813601964199e-05"
      }
    },
    {
      "type": "Feature",
      "id": "4711",
      "geometry": {
        "type": "Point",
        "coordinates": [
          -12.308853,
          -28.879752
        ]
      },
      "properties": {
        "label": "Incyclinide",
        "level": 5,
        "pos": "-135736.458,-204610.011",
        "src_id": "9319",
        "weight": "4.489104334582647e-05"
      }
    },
    {
      "type": "Feature",
      "id": "3291",
      "geometry": {
        "type": "Point",
        "coordinates": [
          -17.207991,
          -24.987804
        ]
      },
      "properties": {
        "label": "Ortataxel",
        "level": 5,
        "pos": "-163717.331,-179933.123",
        "src_id": "9341",
        "weight": "6.076997261599327e-05"
      }
    },
    {
      "type": "Feature",
      "id": "3286",
      "geometry": {
        "type": "Point",
        "coordinates": [
          -13.660995,
          -26.735522
        ]
      },
      "properties": {
        "label": "Mafosfamide",
        "level": 5,
        "pos": "-143459.07,-190909.50100000002",
        "src_id": "9747",
        "weight": "6.076997261599327e-05"
      }
    },
    {
      "type": "Feature",
      "id": "3283",
      "geometry": {
        "type": "Point",
        "coordinates": [
          -14.026705,
          -28.837415
        ]
      },
      "properties": {
        "label": "Exatecan",
        "level": 5,
        "pos": "-145547.778,-204336.84",
        "src_id": "9845",
        "weight": "6.076997261599327e-05"
      }
    },
    {
      "type": "Feature",
      "id": "2313",
      "geometry": {
        "type": "Point",
        "coordinates": [
          -15.704104,
          -27.096176
        ]
      },
      "properties": {
        "label": "Bizelesin",
        "level": 5,
        "pos": "-155128.052,-193195.196",
        "src_id": "10008",
        "weight": "7.759064694981998e-05"
      }
    },
    {
      "type": "Feature",
      "id": "3273",
      "geometry": {
        "type": "Point",
        "coordinates": [
          -13.92065,
          -27.524081
        ]
      },
      "properties": {
        "label": "Mizolastine",
        "level": 5,
        "pos": "-144942.057,-195916.692",
        "src_id": "10171",
        "weight": "6.173813601964199e-05"
      }
    },
    {
      "type": "Feature",
      "id": "4688",
      "geometry": {
        "type": "Point",
        "coordinates": [
          -12.830148,
          -27.955705
        ]
      },
      "properties": {
        "label": "Soblidotin",
        "level": 5,
        "pos": "-138713.778,-198672.592",
        "src_id": "10317",
        "weight": "7.305638896722559e-05"
      }
    },
    {
      "type": "Feature",
      "id": "4686",
      "geometry": {
        "type": "Point",
        "coordinates": [
          -12.497399,
          -27.533752
        ]
      },
      "properties": {
        "label": "Bucindolol",
        "level": 5,
        "pos": "-136813.318,-195978.319",
        "src_id": "10390",
        "weight": "4.489104334582647e-05"
      }
    },
    {
      "type": "Feature",
      "id": "2307",
      "geometry": {
        "type": "Point",
        "coordinates": [
          -16.794965,
          -27.731456
        ]
      },
      "properties": {
        "label": "Amithiozone",
        "level": 5,
        "pos": "-161358.384,-197239.411",
        "src_id": "10462",
        "weight": "7.606690841652016e-05"
      }
    },
    {
      "type": "Feature",
      "id": "4682",
      "geometry": {
        "type": "Point",
        "coordinates": [
          -13.017467,
          -28.478496
        ]
      },
      "properties": {
        "label": "Urocortin-2",
        "level": 5,
        "pos": "-139783.63400000002,-202025.391",
        "src_id": "10660",
        "weight": "7.305638896722559e-05"
      }
    },
    {
      "type": "Feature",
      "id": "2289",
      "geometry": {
        "type": "Point",
        "coordinates": [
          -9.48162,
          -28.851376
        ]
      },
      "properties": {
        "label": "Valopicitabine",
        "level": 5,
        "pos": "-119589.042,-204426.908",
        "src_id": "10955",
        "weight": "7.606690841652016e-05"
      }
    },
    {
      "type": "Feature",
      "id": "8015",
      "geometry": {
        "type": "Point",
        "coordinates": [
          -11.141422,
          -28.456074
        ]
      },
      "properties": {
        "label": "Estradiol acetate",
        "level": 5,
        "pos": "-129068.81100000002,-201881.25400000002",
        "src_id": "10984",
        "weight": "4.5723005994057677e-05"
      }
    },
    {
      "type": "Feature",
      "id": "5314",
      "geometry": {
        "type": "Point",
        "coordinates": [
          -7.179725,
          -35.616462
        ]
      },
      "properties": {
        "label": "Cryptotympana",
        "level": 5,
        "pos": "-106442.033,-249670.022",
        "src_id": "240190",
        "weight": "3.1146678435637025e-05"
      }
    },
    {
      "type": "Feature",
      "id": "12",
      "geometry": {
        "type": "Point",
        "coordinates": [
          -16.220015,
          -9.743647
        ]
      },
      "properties": {
        "label": "Eletriptan",
        "level": 1,
        "pos": "-158074.623,-89352.49500000001",
        "src_id": "207",
        "weight": "0.001101772476619518"
      }
    },
    {
      "type": "Feature",
      "id": "674",
      "geometry": {
        "type": "Point",
        "coordinates": [
          -19.528021,
          -3.470633
        ]
      },
      "properties": {
        "label": "Darbepoetin alfa",
        "level": 1,
        "pos": "-176967.919,-53647.722",
        "src_id": "12",
        "weight": "0.0005315049695105913"
      }
    },
    {
      "type": "Feature",
      "id": "2399",
      "geometry": {
        "type": "Point",
        "coordinates": [
          -17.711637,
          -8.787307
        ]
      },
      "properties": {
        "label": "Abetimus",
        "level": 5,
        "pos": "-166593.84900000002,-83876.606",
        "src_id": "5731",
        "weight": "0.00012327926306365523"
      }
    },
    {
      "type": "Feature",
      "id": "9118",
      "geometry": {
        "type": "Point",
        "coordinates": [
          -18.200455,
          -31.422853
        ]
      },
      "properties": {
        "label": "Insulin Human",
        "level": 5,
        "pos": "-169385.684,-221232.271",
        "src_id": "30",
        "weight": "6.946344693465893e-05"
      }
    },
    {
      "type": "Feature",
      "id": "1813",
      "geometry": {
        "type": "Point",
        "coordinates": [
          -20.084483,
          -31.305609
        ]
      },
      "properties": {
        "label": "Zoledronic acid",
        "level": 4,
        "pos": "-180146.088,-220456.329",
        "src_id": "388",
        "weight": "0.00020036407042785785"
      }
    },
    {
      "type": "Feature",
      "id": "8641",
      "geometry": {
        "type": "Point",
        "coordinates": [
          -19.975252,
          -30.912469
        ]
      },
      "properties": {
        "label": "Pleconaril",
        "level": 5,
        "pos": "-179522.233,-217861.46600000001",
        "src_id": "4795",
        "weight": "5.36664394942399e-05"
      }
    },
    {
      "type": "Feature",
      "id": "3387",
      "geometry": {
        "type": "Point",
        "coordinates": [
          -19.432062,
          -31.646575
        ]
      },
      "properties": {
        "label": "Sitaxentan",
        "level": 4,
        "pos": "-176419.859,-222715.597",
        "src_id": "5524",
        "weight": "0.00016868809189648362"
      }
    },
    {
      "type": "Feature",
      "id": "2393",
      "geometry": {
        "type": "Point",
        "coordinates": [
          -19.252795,
          -31.142643
        ]
      },
      "properties": {
        "label": "Lanthanum carbonate",
        "level": 4,
        "pos": "-175395.998,-219379.394",
        "src_id": "5847",
        "weight": "0.00020131205324331214"
      }
    },
    {
      "type": "Feature",
      "id": "6015",
      "geometry": {
        "type": "Point",
        "coordinates": [
          -17.940995,
          -31.711853
        ]
      },
      "properties": {
        "label": "Protein S",
        "level": 5,
        "pos": "-167903.79799999998,-223149.08299999998",
        "src_id": "184328",
        "weight": "2.8449489828403707e-05"
      }
    },
    {
      "type": "Feature",
      "id": "2592",
      "geometry": {
        "type": "Point",
        "coordinates": [
          -11.873116,
          -30.935349
        ]
      },
      "properties": {
        "label": "Filgrastim",
        "level": 4,
        "pos": "-133247.80000000002,-218012.188",
        "src_id": "93",
        "weight": "0.00013152670802568493"
      }
    },
    {
      "type": "Feature",
      "id": "1781",
      "geometry": {
        "type": "Point",
        "coordinates": [
          -11.709714,
          -31.236071
        ]
      },
      "properties": {
        "label": "Clavulanate",
        "level": 4,
        "pos": "-132314.55299999999,-219996.571",
        "src_id": "752",
        "weight": "0.00020689491733573263"
      }
    },
    {
      "type": "Feature",
      "id": "5023",
      "geometry": {
        "type": "Point",
        "coordinates": [
          -9.820795,
          -30.082676
        ]
      },
      "properties": {
        "label": "Cytarabine",
        "level": 5,
        "pos": "-121526.2,-212419.223",
        "src_id": "973",
        "weight": "4.750900700932336e-05"
      }
    },
    {
      "type": "Feature",
      "id": "460",
      "geometry": {
        "type": "Point",
        "coordinates": [
          -12.954561,
          -30.254985
        ]
      },
      "properties": {
        "label": "Enoxaparin",
        "level": 3,
        "pos": "-139424.351,-213545.52300000002",
        "src_id": "1209",
        "weight": "0.0002513218050073167"
      }
    },
    {
      "type": "Feature",
      "id": "212",
      "geometry": {
        "type": "Point",
        "coordinates": [
          -7.723807,
          -32.657522
        ]
      },
      "properties": {
        "label": "Astemizole",
        "level": 2,
        "pos": "-109549.488,-229463.57499999998",
        "src_id": "624",
        "weight": "0.00045234406969459827"
      }
    },
    {
      "type": "Feature",
      "id": "1062",
      "geometry": {
        "type": "Point",
        "coordinates": [
          -10.656953,
          -29.663845
        ]
      },
      "properties": {
        "label": "Gastric ulcer",
        "level": 5,
        "pos": "-126301.816,-209689.67799999999",
        "src_id": "177111",
        "weight": "0.00011583457755837609"
      }
    },
    {
      "type": "Feature",
      "id": "4665",
      "geometry": {
        "type": "Point",
        "coordinates": [
          -15.589795,
          -31.466094
        ]
      },
      "properties": {
        "label": "WIN 55212-2",
        "level": 5,
        "pos": "-154475.189,-221518.691",
        "src_id": "10982",
        "weight": "8.360538175567758e-05"
      }
    },
    {
      "type": "Feature",
      "id": "8186",
      "geometry": {
        "type": "Point",
        "coordinates": [
          -13.912202,
          -32.101636
        ]
      },
      "properties": {
        "label": "Otenabant",
        "level": 5,
        "pos": "-144893.807,-225743.826",
        "src_id": "9415",
        "weight": "3.1650684063397294e-05"
      }
    },
    {
      "type": "Feature",
      "id": "8103",
      "geometry": {
        "type": "Point",
        "coordinates": [
          -14.479369,
          -31.319972
        ]
      },
      "properties": {
        "label": "Ibipinabant",
        "level": 5,
        "pos": "-148133.12099999998,-220551.328",
        "src_id": "10290",
        "weight": "3.1650684063397294e-05"
      }
    },
    {
      "type": "Feature",
      "id": "8061",
      "geometry": {
        "type": "Point",
        "coordinates": [
          -15.477719,
          -30.600278
        ]
      },
      "properties": {
        "label": "Surinabant",
        "level": 5,
        "pos": "-153835.078,-215808.48599999998",
        "src_id": "10696",
        "weight": "3.1650684063397294e-05"
      }
    },
    {
      "type": "Feature",
      "id": "2546",
      "geometry": {
        "type": "Point",
        "coordinates": [
          -15.287699,
          -15.420177
        ]
      },
      "properties": {
        "label": "Fluticasone propionate",
        "level": 5,
        "pos": "-152749.802,-122235.238",
        "src_id": "575",
        "weight": "6.224766572699515e-05"
      }
    },
    {
      "type": "Feature",
      "id": "8787",
      "geometry": {
        "type": "Point",
        "coordinates": [
          -16.756107,
          -10.564197
        ]
      },
      "properties": {
        "label": "Fumagillin",
        "level": 5,
        "pos": "-161136.451,-94063.333",
        "src_id": "2500",
        "weight": "3.232269160298855e-05"
      }
    },
    {
      "type": "Feature",
      "id": "8751",
      "geometry": {
        "type": "Point",
        "coordinates": [
          -15.869799,
          -10.416926
        ]
      },
      "properties": {
        "label": "Eniluracil",
        "level": 5,
        "pos": "-156074.403,-93216.937",
        "src_id": "3320",
        "weight": "4.804424793688015e-05"
      }
    },
    {
      "type": "Feature",
      "id": "8658",
      "geometry": {
        "type": "Point",
        "coordinates": [
          -16.906948,
          -10.1749
        ]
      },
      "properties": {
        "label": "Bicifadine",
        "level": 5,
        "pos": "-161997.95700000002,-91826.837",
        "src_id": "4611",
        "weight": "3.232269160298855e-05"
      }
    },
    {
      "type": "Feature",
      "id": "4845",
      "geometry": {
        "type": "Point",
        "coordinates": [
          -16.356963,
          -11.453359
        ]
      },
      "properties": {
        "label": "Resiniferatoxin",
        "level": 5,
        "pos": "-158856.783,-99182.327",
        "src_id": "5643",
        "weight": "5.6090735310667186e-05"
      }
    },
    {
      "type": "Feature",
      "id": "8568",
      "geometry": {
        "type": "Point",
        "coordinates": [
          -16.785372,
          -8.359973
        ]
      },
      "properties": {
        "label": "Reslizumab",
        "level": 5,
        "pos": "-161303.59100000001,-81434.397",
        "src_id": "5690",
        "weight": "3.232269160298855e-05"
      }
    },
    {
      "type": "Feature",
      "id": "4695",
      "geometry": {
        "type": "Point",
        "coordinates": [
          -15.552366,
          -13.848915
        ]
      },
      "properties": {
        "label": "Propiverine",
        "level": 5,
        "pos": "-154261.415,-113057.817",
        "src_id": "9936",
        "weight": "6.001139001159114e-05"
      }
    },
    {
      "type": "Feature",
      "id": "4667",
      "geometry": {
        "type": "Point",
        "coordinates": [
          -15.746104,
          -13.061248
        ]
      },
      "properties": {
        "label": "Testosterone enanthate",
        "level": 5,
        "pos": "-155367.931,-108480.97",
        "src_id": "10977",
        "weight": "6.001139001159114e-05"
      }
    },
    {
      "type": "Feature",
      "id": "4666",
      "geometry": {
        "type": "Point",
        "coordinates": [
          -15.424812,
          -14.585018
        ]
      },
      "properties": {
        "label": "Testosterone undecanoate",
        "level": 5,
        "pos": "-153532.908,-117349.06999999999",
        "src_id": "10978",
        "weight": "6.001139001159114e-05"
      }
    },
    {
      "type": "Feature",
      "id": "671",
      "geometry": {
        "type": "Point",
        "coordinates": [
          -18.523456,
          -6.263147
        ]
      },
      "properties": {
        "label": "Alefacept",
        "level": 3,
        "pos": "-171230.456,-69487.20400000001",
        "src_id": "87",
        "weight": "0.0002516634831350405"
      }
    },
    {
      "type": "Feature",
      "id": "51",
      "geometry": {
        "type": "Point",
        "coordinates": [
          -20.38587,
          -7.540903
        ]
      },
      "properties": {
        "label": "Pimecrolimus",
        "level": 1,
        "pos": "-181867.43000000002,-76760.785",
        "src_id": "327",
        "weight": "0.00092747679905103"
      }
    },
    {
      "type": "Feature",
      "id": "55",
      "geometry": {
        "type": "Point",
        "coordinates": [
          -19.891565,
          -6.411519
        ]
      },
      "properties": {
        "label": "Telithromycin",
        "level": 1,
        "pos": "-179044.263,-70330.82",
        "src_id": "962",
        "weight": "0.0008744693749667707"
      }
    },
    {
      "type": "Feature",
      "id": "3449",
      "geometry": {
        "type": "Point",
        "coordinates": [
          -21.999134,
          -3.216254
        ]
      },
      "properties": {
        "label": "Prasterone",
        "level": 5,
        "pos": "-191081.405,-52207.748999999996",
        "src_id": "1633",
        "weight": "0.00010611784896179362"
      }
    },
    {
      "type": "Feature",
      "id": "4882",
      "geometry": {
        "type": "Point",
        "coordinates": [
          -17.582255,
          -5.84662
        ]
      },
      "properties": {
        "label": "Ximelagatran",
        "level": 4,
        "pos": "-165854.90300000002,-67120.15100000001",
        "src_id": "4620",
        "weight": "0.00012628003738716714"
      }
    },
    {
      "type": "Feature",
      "id": "449",
      "geometry": {
        "type": "Point",
        "coordinates": [
          -19.823974,
          -5.986532
        ]
      },