{
  "type": "FeatureCollection",
  "features": [
    {
      "type": "Feature",
      "id": "588",
      "geometry": {
        "type": "Point",
        "coordinates": [
          38.610141,
          15.953058
        ]
      },
      "properties": {
        "label": "Leuprolide",
        "level": 3,
        "pos": "8662952.427264066,5989185.784459031",
        "src_id": "7",
        "weight": "0.0007127923237353811"
      }
    },
    {
      "type": "Feature",
      "id": "1181",
      "geometry": {
        "type": "Point",
        "coordinates": [
          41.393254,
          16.853388
        ]
      },
      "properties": {
        "label": "Endometriosis",
        "level": 3,
        "pos": "9464712.184580585,6386345.369697445",
        "src_id": "175911",
        "weight": "0.0004022032546138692"
      }
    },
    {
      "type": "Feature",
      "id": "93",
      "geometry": {
        "type": "Point",
        "coordinates": [
          35.550104,
          15.837806
        ]
      },
      "properties": {
        "label": "Hysterectomy",
        "level": 2,
        "pos": "7781416.615645594,5938476.071768341",
        "src_id": "178681",
        "weight": "0.0010370897838074833"
      }
    },
    {
      "type": "Feature",
      "id": "118",
      "geometry": {
        "type": "Point",
        "coordinates": [
          39.349356,
          16.70494
        ]
      },
      "properties": {
        "label": "Conjugated estrogens",
        "level": 2,
        "pos": "8875905.63176576,6320733.560167452",
        "src_id": "277",
        "weight": "0.0014908202270783619"
      }
    },
    {
      "type": "Feature",
      "id": "25",
      "geometry": {
        "type": "Point",
        "coordinates": [
          31.581503,
          15.581514
        ]
      },
      "properties": {
        "label": "Blood oestrogen",
        "level": 1,
        "pos": "6638141.70812787,5825813.219290449",
        "src_id": "172274",
        "weight": "0.002595204538722153"
      }
    },
    {
      "type": "Feature",
      "id": "641",
      "geometry": {
        "type": "Point",
        "coordinates": [
          38.290286,
          15.549505
        ]
      },
      "properties": {
        "label": "Uterine cancer",
        "level": 4,
        "pos": "8570808.801241491,5811752.480248453",
        "src_id": "188072",
        "weight": "0.00015265573253592918"
      }
    },
    {
      "type": "Feature",
      "id": "639",
      "geometry": {
        "type": "Point",
        "coordinates": [
          38.228007,
          16.331161
        ]
      },
      "properties": {
        "label": "Uterine leiomyoma",
        "level": 4,
        "pos": "8552867.41674549,6155753.60538911",
        "src_id": "188107",
        "weight": "0.00015265573253592918"
      }
    },
    {
      "type": "Feature",
      "id": "555",
      "geometry": {
        "type": "Point",
        "coordinates": [
          42.629986,
          17.719255
        ]
      },
      "properties": {
        "label": "Desipramine",
        "level": 2,
        "pos": "9820990.026346615,6770088.624071818",
        "src_id": "1135",
        "weight": "0.0009441154002589242"
      }
    },
    {
      "type": "Feature",
      "id": "1420",
      "geometry": {
        "type": "Point",
        "coordinates": [
          42.067093,
          16.902321
        ]
      },
      "properties": {
        "label": "Anxiety disorder",
        "level": 4,
        "pos": "9658831.631683383,6407983.975397729",
        "src_id": "170662",
        "weight": "0.00017108016814032452"
      }
    },
    {
      "type": "Feature",
      "id": "982",
      "geometry": {
        "type": "Point",
        "coordinates": [
          41.733202,
          17.597357
        ]
      },
      "properties": {
        "label": "Major depression",
        "level": 4,
        "pos": "9562644.40234309,6715954.779038216",
        "src_id": "180375",
        "weight": "0.00018099967815758428"
      }
    },
    {
      "type": "Feature",
      "id": "940",
      "geometry": {
        "type": "Point",
        "coordinates": [
          42.29215,
          17.32995
        ]
      },
      "properties": {
        "label": "Muscle atrophy",
        "level": 3,
        "pos": "9723666.099064052,6597329.267544329",
        "src_id": "181237",
        "weight": "0.00048484541871508964"
      }
    },
    {
      "type": "Feature",
      "id": "190",
      "geometry": {
        "type": "Point",
        "coordinates": [
          35.695185,
          16.255702
        ]
      },
      "properties": {
        "label": "Testosterone",
        "level": 2,
        "pos": "7823211.639246699,6122485.630461678",
        "src_id": "611",
        "weight": "0.0009505272177491349"
      }
    },
    {
      "type": "Feature",
      "id": "33",
      "geometry": {
        "type": "Point",
        "coordinates": [
          32.375558,
          13.808239
        ]
      },
      "properties": {
        "label": "Contraception",
        "level": 1,
        "pos": "6866893.133883343,5050012.0479938295",
        "src_id": "174350",
        "weight": "0.001688357640760394"
      }
    },
    {
      "type": "Feature",
      "id": "193",
      "geometry": {
        "type": "Point",
        "coordinates": [
          35.127397,
          16.728233
        ]
      },
      "properties": {
        "label": "Progesterone",
        "level": 1,
        "pos": "7659643.324989127,6331025.113574682",
        "src_id": "385",
        "weight": "0.0016132666340623466"
      }
    },
    {
      "type": "Feature",
      "id": "1652",
      "geometry": {
        "type": "Point",
        "coordinates": [
          34.174707,
          14.821011
        ]
      },
      "properties": {
        "label": "Estradiol",
        "level": 4,
        "pos": "7385192.152692303,5492322.038774445",
        "src_id": "769",
        "weight": "0.00017854793870470534"
      }
    },
    {
      "type": "Feature",
      "id": "375",
      "geometry": {
        "type": "Point",
        "coordinates": [
          34.750245,
          16.119879
        ]
      },
      "properties": {
        "label": "Progesterone",
        "level": 3,
        "pos": "7550993.141456766,6062637.316144344",
        "src_id": "184202",
        "weight": "0.0006976367023899153"
      }
    },
    {
      "type": "Feature",
      "id": "1082",
      "geometry": {
        "type": "Point",
        "coordinates": [
          34.415327,
          15.247752
        ]
      },
      "properties": {
        "label": "Hormone level abnormal",
        "level": 4,
        "pos": "7454509.9744463395,5679305.752787981",
        "src_id": "178304",
        "weight": "0.0001493984903235777"
      }
    },
    {
      "type": "Feature",
      "id": "1081",
      "geometry": {
        "type": "Point",
        "coordinates": [
          34.486522,
          15.700844
        ]
      },
      "properties": {
        "label": "Hormone replacement therapy",
        "level": 4,
        "pos": "7475019.888418015,5878251.290845982",
        "src_id": "178305",
        "weight": "0.00016380093645042325"
      }
    },
    {
      "type": "Feature",
      "id": "1080",
      "geometry": {
        "type": "Point",
        "coordinates": [
          34.148852,
          16.528238
        ]
      },
      "properties": {
        "label": "Hormone therapy",
        "level": 4,
        "pos": "7377743.929243659,6242700.394413266",
        "src_id": "178307",
        "weight": "0.00019584465630201748"
      }
    },
    {
      "type": "Feature",
      "id": "563",
      "geometry": {
        "type": "Point",
        "coordinates": [
          46.035099,
          18.610314
        ]
      },
      "properties": {
        "label": "Warfarin",
        "level": 3,
        "pos": "10801935.299034564,7166937.3371042665",
        "src_id": "668",
        "weight": "0.0005238554558347003"
      }
    },
    {
      "type": "Feature",
      "id": "488",
      "geometry": {
        "type": "Point",
        "coordinates": [
          38.522668,
          17.448403
        ]
      },
      "properties": {
        "label": "Blood prolactin",
        "level": 3,
        "pos": "8637753.45640374,6649855.10038386",
        "src_id": "172344",
        "weight": "0.00048416454932127644"
      }
    },
    {
      "type": "Feature",
      "id": "990",
      "geometry": {
        "type": "Point",
        "coordinates": [
          38.650852,
          16.685772
        ]
      },
      "properties": {
        "label": "Loss of libido",
        "level": 3,
        "pos": "8674680.515182089,6312265.474426699",
        "src_id": "180131",
        "weight": "0.0003333777168380947"
      }
    },
    {
      "type": "Feature",
      "id": "242",
      "geometry": {
        "type": "Point",
        "coordinates": [
          28.653832,
          13.18688
        ]
      },
      "properties": {
        "label": "Intra-uterine contraceptive device",
        "level": 2,
        "pos": "5794737.722319101,4779603.021615947",
        "src_id": "179325",
        "weight": "0.0010021432116518211"
      }
    },
    {
      "type": "Feature",
      "id": "1268",
      "geometry": {
        "type": "Point",
        "coordinates": [
          34.82611,
          14.636737
        ]
      },
      "properties": {
        "label": "Condom",
        "level": 4,
        "pos": "7572848.54674335,5411694.061534247",
        "src_id": "174062",
        "weight": "0.00014383458138356113"
      }
    },
    {
      "type": "Feature",
      "id": "967",
      "geometry": {
        "type": "Point",
        "coordinates": [
          31.179378,
          15.381138
        ]
      },
      "properties": {
        "label": "Menorrhagia",
        "level": 4,
        "pos": "6522297.437838884,5737828.334342635",
        "src_id": "180772",
        "weight": "0.0001230458144415722"
      }
    },
    {
      "type": "Feature",
      "id": "957",
      "geometry": {
        "type": "Point",
        "coordinates": [
          30.598914,
          15.131003
        ]
      },
      "properties": {
        "label": "Metrorrhagia",
        "level": 4,
        "pos": "6355077.380761093,5628113.0306974305",
        "src_id": "180938",
        "weight": "0.0001169696858684541"
      }
    },
    {
      "type": "Feature",
      "id": "884",
      "geometry": {
        "type": "Point",
        "coordinates": [
          29.822214,
          14.899599
        ]
      },
      "properties": {
        "label": "Oral contraception",
        "level": 3,
        "pos": "6131325.575970632,5526729.026359417",
        "src_id": "182298",
        "weight": "0.000628740213234476"
      }
    },
    {
      "type": "Feature",
      "id": "743",
      "geometry": {
        "type": "Point",
        "coordinates": [
          29.765709,
          14.31093
        ]
      },
      "properties": {
        "label": "Sexually active",
        "level": 4,
        "pos": "6115047.375167178,5269303.796370388",
        "src_id": "185816",
        "weight": "0.0001235043901829396"
      }
    },
    {
      "type": "Feature",
      "id": "1670",
      "geometry": {
        "type": "Point",
        "coordinates": [
          37.987979,
          17.225664
        ]
      },
      "properties": {
        "label": "Medroxyprogesterone acetate",
        "level": 3,
        "pos": "8483720.007973494,6551113.050719644",
        "src_id": "590",
        "weight": "0.00025588694265508185"
      }
    },
    {
      "type": "Feature",
      "id": "236",
      "geometry": {
        "type": "Point",
        "coordinates": [
          37.664319,
          18.015735
        ]
      },
      "properties": {
        "label": "Menopause",
        "level": 3,
        "pos": "8390480.078076473,6901907.158073086",
        "src_id": "180770",
        "weight": "0.0008289042830175686"
      }
    },
    {
      "type": "Feature",
      "id": "607",
      "geometry": {
        "type": "Point",
        "coordinates": [
          37.647794,
          17.565839
        ]
      },
      "properties": {
        "label": "Chasteberry",
        "level": 4,
        "pos": "8385719.556869424,6701963.899968238",
        "src_id": "239745",
        "weight": "0.00012017085965149014"
      }
    },
    {
      "type": "Feature",
      "id": "1425",
      "geometry": {
        "type": "Point",
        "coordinates": [
          37.443435,
          17.130794
        ]
      },
      "properties": {
        "label": "Anovulatory cycle",
        "level": 3,
        "pos": "8326847.6464690445,6509092.710243752",
        "src_id": "170456",
        "weight": "0.000455167874308695"
      }
    },
    {
      "type": "Feature",
      "id": "1740",
      "geometry": {
        "type": "Point",
        "coordinates": [
          14.908156,
          -31.658537
        ]
      },
      "properties": {
        "label": "Somatotropin",
        "level": 4,
        "pos": "1834881.8757878018,-14986247.050622258",
        "src_id": "51",
        "weight": "0.00013227410260549432"
      }
    },
    {
      "type": "Feature",
      "id": "2",
      "geometry": {
        "type": "Point",
        "coordinates": [
          14.445032,
          -33.277002
        ]
      },
      "properties": {
        "label": "Epilepsy",
        "level": 1,
        "pos": "1701464.984264026,-15798061.042832935",
        "src_id": "176107",
        "weight": "0.02345683872889738"
      }
    },
    {
      "type": "Feature",
      "id": "1",
      "geometry": {
        "type": "Point",
        "coordinates": [
          18.947243,
          -33.922761
        ]
      },
      "properties": {
        "label": "Convulsion",
        "level": 1,
        "pos": "2998462.5569709535,-16126142.430774061",
        "src_id": "174366",
        "weight": "0.04384272583999458"
      }
    },
    {
      "type": "Feature",
      "id": "1734",
      "geometry": {
        "type": "Point",
        "coordinates": [
          16.80546,
          -33.506733
        ]
      },
      "properties": {
        "label": "Serine",
        "level": 4,
        "pos": "2381457.4177939077,-15914495.933172291",
        "src_id": "125",
        "weight": "0.00013354200735926782"
      }
    },
    {
      "type": "Feature",
      "id": "1690",
      "geometry": {
        "type": "Point",
        "coordinates": [
          16.868146,
          -32.257159
        ]
      },
      "properties": {
        "label": "Prochlorperazine",
        "level": 4,
        "pos": "2399516.0675839777,-15284818.220377237",
        "src_id": "422",
        "weight": "0.00013227410260549432"
      }
    },
    {
      "type": "Feature",
      "id": "1676",
      "geometry": {
        "type": "Point",
        "coordinates": [
          14.439829,
          -34.986199
        ]
      },
      "properties": {
        "label": "Cephalexin",
        "level": 4,
        "pos": "1699966.0610651234,-16671906.949396685",
        "src_id": "554",
        "weight": "0.00013227410260549432"
      }
    },
    {
      "type": "Feature",
      "id": "1664",
      "geometry": {
        "type": "Point",
        "coordinates": [
          16.293653,
          -34.53323
        ]
      },
      "properties": {
        "label": "Tamoxifen",
        "level": 4,
        "pos": "2234015.999100389,-16438589.009908639",
        "src_id": "661",
        "weight": "0.00013227410260549432"
      }
    },
    {
      "type": "Feature",
      "id": "1614",
      "geometry": {
        "type": "Point",
        "coordinates": [
          16.075946,
          -32.02189
        ]
      },
      "properties": {
        "label": "Atorvastatin",
        "level": 4,
        "pos": "2171298.761000492,-15167242.241771154",
        "src_id": "1060",
        "weight": "0.00013227410260549432"
      }
    },
    {
      "type": "Feature",
      "id": "1606",
      "geometry": {
        "type": "Point",
        "coordinates": [
          16.918215,
          -32.65852
        ]
      },
      "properties": {
        "label": "Zopiclone",
        "level": 4,
        "pos": "2413939.857019327,-15486105.617053483",
        "src_id": "1182",
        "weight": "0.00013354200735926782"
      }
    },
    {
      "type": "Feature",
      "id": "1592",
      "geometry": {
        "type": "Point",
        "coordinates": [
          16.132731,
          -32.215913
        ]
      },
      "properties": {
        "label": "Ginkgo biloba",
        "level": 4,
        "pos": "2187657.379898221,-15264183.502129318",
        "src_id": "1332",
        "weight": "0.00013227410260549432"
      }
    },
    {
      "type": "Feature",
      "id": "1584",
      "geometry": {
        "type": "Point",
        "coordinates": [
          11.692948,
          -32.604005
        ]
      },
      "properties": {
        "label": "Amyl Nitrite",
        "level": 4,
        "pos": "908644.1935047414,-15458712.913308965",
        "src_id": "1544",
        "weight": "0.00013227410260549432"
      }
    },
    {
      "type": "Feature",
      "id": "1582",
      "geometry": {
        "type": "Point",
        "coordinates": [
          13.3682,
          -34.695588
        ]
      },
      "properties": {
        "label": "Isopropyl Alcohol",
        "level": 4,
        "pos": "1391250.9333552797,-16522069.948320007",
        "src_id": "2207",
        "weight": "0.00013227410260549432"
      }
    },
    {
      "type": "Feature",
      "id": "1580",
      "geometry": {
        "type": "Point",
        "coordinates": [
          15.299936,
          -31.880841
        ]
      },
      "properties": {
        "label": "Pregnenolone",
        "level": 4,
        "pos": "1947745.7190772926,-15096897.779063925",
        "src_id": "2634",
        "weight": "0.00013354200735926782"
      }
    },
    {
      "type": "Feature",
      "id": "1576",
      "geometry": {
        "type": "Point",
        "coordinates": [
          13.065226,
          -34.726754
        ]
      },
      "properties": {
        "label": "Formaldehyde",
        "level": 4,
        "pos": "1303970.1490778204,-16538113.572343485",
        "src_id": "3618",
        "weight": "0.00013354200735926782"
      }
    },
    {
      "type": "Feature",
      "id": "1547",
      "geometry": {
        "type": "Point",
        "coordinates": [
          15.032536,
          -31.871815
        ]
      },
      "properties": {
        "label": "Sulfur",
        "level": 4,
        "pos": "1870713.2752736937,-15092399.671049142",
        "src_id": "8292",
        "weight": "0.00013227410260549432"
      }
    },
    {
      "type": "Feature",
      "id": "1528",
      "geometry": {
        "type": "Point",
        "coordinates": [
          14.353875,
          -31.486958
        ]
      },
      "properties": {
        "label": "Mustard seed",
        "level": 4,
        "pos": "1675204.328965855,-14901026.0505717",
        "src_id": "8615",
        "weight": "0.0001348099121130413"
      }
    },
    {
      "type": "Feature",
      "id": "1514",
      "geometry": {
        "type": "Point",
        "coordinates": [
          11.971153,
          -32.937158
        ]
      },
      "properties": {
        "label": "Raspberry",
        "level": 4,
        "pos": "988789.645178766,-15626377.247571595",
        "src_id": "8686",
        "weight": "0.00013227410260549432"
      }
    },
    {
      "type": "Feature",
      "id": "1512",
      "geometry": {
        "type": "Point",
        "coordinates": [
          14.166649,
          -35.013786
        ]
      },
      "properties": {
        "label": "Beet",
        "level": 4,
        "pos": "1621268.411393289,-16686157.776044747",
        "src_id": "8690",
        "weight": "0.0001348099121130413"
      }
    },
    {
      "type": "Feature",
      "id": "1504",
      "geometry": {
        "type": "Point",
        "coordinates": [
          17.004516,
          -32.703187
        ]
      },
      "properties": {
        "label": "Hops",
        "level": 4,
        "pos": "2438801.34746897,-15508561.873826109",
        "src_id": "8731",
        "weight": "0.0001348099121130413"
      }
    },
    {
      "type": "Feature",
      "id": "1499",
      "geometry": {
        "type": "Point",
        "coordinates": [
          16.948978,
          -32.380825
        ]
      },
      "properties": {
        "label": "Red currant",
        "level": 4,
        "pos": "2422801.8782594637,-15346742.691517947",
        "src_id": "8879",
        "weight": "0.00013227410260549432"
      }
    },
    {
      "type": "Feature",
      "id": "1432",
      "geometry": {
        "type": "Point",
        "coordinates": [
          16.6788,
          -32.392591
        ]
      },
      "properties": {
        "label": "Androgens",
        "level": 4,
        "pos": "2344969.1600276856,-15352639.084423115",
        "src_id": "170311",
        "weight": "0.00013354200735926782"
      }
    },
    {
      "type": "Feature",
      "id": "1430",
      "geometry": {
        "type": "Point",
        "coordinates": [
          15.305435,
          -31.830714
        ]
      },
      "properties": {
        "label": "Angina pectoris",
        "level": 4,
        "pos": "1949329.8982990354,-15071924.055793837",
        "src_id": "170329",
        "weight": "0.00013227410260549432"
      }
    },
    {
      "type": "Feature",
      "id": "1421",
      "geometry": {
        "type": "Point",
        "coordinates": [
          12.072389,
          -34.398211
        ]
      },
      "properties": {
        "label": "Antisocial behaviour",
        "level": 4,
        "pos": "1017953.7363636412,-16369288.738935176",
        "src_id": "170646",
        "weight": "0.00013227410260549432"
      }
    },
    {
      "type": "Feature",
      "id": "1396",
      "geometry": {
        "type": "Point",
        "coordinates": [
          15.458545,
          -31.508207
        ]
      },
      "properties": {
        "label": "Autoimmune thyroiditis",
        "level": 4,
        "pos": "1993437.9947639562,-14911571.751641776",
        "src_id": "171148",
        "weight": "0.00013227410260549432"
      }
    },
    {
      "type": "Feature",
      "id": "1389",
      "geometry": {
        "type": "Point",
        "coordinates": [
          14.383731,
          -31.352629
        ]
      },
      "properties": {
        "label": "Azotaemia",
        "level": 4,
        "pos": "1683805.4432446307,-14834415.227551213",
        "src_id": "171178",
        "weight": "0.00013227410260549432"
      }
    },
    {
      "type": "Feature",
      "id": "1369",
      "geometry": {
        "type": "Point",
        "coordinates": [
          17.046578,
          -33.610408
        ]
      },
      "properties": {
        "label": "Bladder cancer",
        "level": 4,
        "pos": "2450918.56475749,-15967142.800626868",
        "src_id": "171782",
        "weight": "0.00013227410260549432"
      }
    },
    {
      "type": "Feature",
      "id": "1361",
      "geometry": {
        "type": "Point",
        "coordinates": [
          12.191276,
          -34.192633
        ]
      },
      "properties": {
        "label": "Blood disorder",
        "level": 4,
        "pos": "1052202.5833227297,-16263987.5177459",
        "src_id": "172101",
        "weight": "0.00013227410260549432"
      }
    },
    {
      "type": "Feature",
      "id": "1358",
      "geometry": {
        "type": "Point",
        "coordinates": [
          11.835828,
          -33.238061
        ]
      },
      "properties": {
        "label": "Blood lead normal",
        "level": 4,
        "pos": "949805.141025844,-15778354.570006527",
        "src_id": "172252",
        "weight": "0.0001360778168668148"
      }
    },
    {
      "type": "Feature",
      "id": "1330",
      "geometry": {
        "type": "Point",
        "coordinates": [
          14.62121,
          -34.820284
        ]
      },
      "properties": {
        "label": "Bundle branch block left",
        "level": 4,
        "pos": "1752218.2182757678,-16586297.575306173",
        "src_id": "172807",
        "weight": "0.00013227410260549432"
      }
    },
    {
      "type": "Feature",
      "id": "1325",
      "geometry": {
        "type": "Point",
        "coordinates": [
          11.75381,
          -34.212902
        ]
      },
      "properties": {
        "label": "Calcinosis",
        "level": 4,
        "pos": "926177.453767376,-16274358.183407038",
        "src_id": "172883",
        "weight": "0.00013227410260549432"
      }
    },
    {
      "type": "Feature",
      "id": "1306",
      "geometry": {
        "type": "Point",
        "coordinates": [
          17.515477,
          -33.713891
        ]
      },
      "properties": {
        "label": "Chemical poisoning",
        "level": 4,
        "pos": "2585998.9900397486,-16019755.301849283",
        "src_id": "173507",
        "weight": "0.00013227410260549432"
      }
    },
    {
      "type": "Feature",
      "id": "1298",
      "geometry": {
        "type": "Point",
        "coordinates": [
          14.467209,
          -31.626151
        ]
      },
      "properties": {
        "label": "Chronic paroxysmal hemicrania",
        "level": 4,
        "pos": "1707853.767259888,-14970149.517992878",
        "src_id": "173727",
        "weight": "0.00013227410260549432"
      }
    },
    {
      "type": "Feature",
      "id": "1297",
      "geometry": {
        "type": "Point",
        "coordinates": [
          14.03086,
          -31.383855
        ]
      },
      "properties": {
        "label": "Chronic sinusitis",
        "level": 4,
        "pos": "1582150.217949365,-14849890.763782507",
        "src_id": "173733",
        "weight": "0.00013227410260549432"
      }
    },
    {
      "type": "Feature",
      "id": "1295",
      "geometry": {
        "type": "Point",
        "coordinates": [
          13.161166,
          -34.565071
        ]
      },
      "properties": {
        "label": "Circumstantiality",
        "level": 4,
        "pos": "1331608.7007889294,-16454948.198536372",
        "src_id": "173763",
        "weight": "0.00013227410260549432"
      }
    },
    {
      "type": "Feature",
      "id": "1286",
      "geometry": {
        "type": "Point",
        "coordinates": [
          16.471013,
          -33.208086
        ]
      },
      "properties": {
        "label": "Cluttering",
        "level": 4,
        "pos": "2285109.852748109,-15763191.656912321",
        "src_id": "173815",
        "weight": "0.00013227410260549432"
      }
    },
    {
      "type": "Feature",
      "id": "1271",
      "geometry": {
        "type": "Point",
        "coordinates": [
          15.111476,
          -34.635992
        ]
      },
      "properties": {
        "label": "Compulsions",
        "level": 4,
        "pos": "1893454.3366419459,-16491408.300585285",
        "src_id": "174031",
        "weight": "0.00013354200735926782"
      }
    },
    {
      "type": "Feature",
      "id": "1238",
      "geometry": {
        "type": "Point",
        "coordinates": [
          17.020333,
          -32.939013
        ]
      },
      "properties": {
        "label": "Dermoid cyst",
        "level": 4,
        "pos": "2443358.0285403365,-15627312.516812548",
        "src_id": "175060",
        "weight": "0.00013227410260549432"
      }
    },
    {
      "type": "Feature",
      "id": "1236",
      "geometry": {
        "type": "Point",
        "coordinates": [
          17.873203,
          -33.645822
        ]
      },
      "properties": {
        "label": "Diabetic neuropathy",
        "level": 4,
        "pos": "2689052.9663968696,-15985140.903193988",
        "src_id": "175170",
        "weight": "0.00013227410260549432"
      }
    },
    {
      "type": "Feature",
      "id": "155",
      "geometry": {
        "type": "Point",
        "coordinates": [
          10.976445,
          -35.137854
        ]
      },
      "properties": {
        "label": "Disability",
        "level": 1,
        "pos": "702233.9650786505,-16750310.151339142",
        "src_id": "175257",
        "weight": "0.002704038405888001"
      }
    },
    {
      "type": "Feature",
      "id": "1226",
      "geometry": {
        "type": "Point",
        "coordinates": [
          17.39512,
          -33.035347
        ]
      },
      "properties": {
        "label": "Divorced parents",
        "level": 4,
        "pos": "2551326.7447260385,-15675912.454303134",
        "src_id": "175316",
        "weight": "0.00013227410260549432"
      }
    },
    {
      "type": "Feature",
      "id": "1201",
      "geometry": {
        "type": "Point",
        "coordinates": [
          12.426722,
          -34.338701
        ]
      },
      "properties": {
        "label": "Ear piercing",
        "level": 4,
        "pos": "1120029.8716771947,-16338779.723639704",
        "src_id": "175543",
        "weight": "0.00013227410260549432"
      }
    },
    {
      "type": "Feature",
      "id": "1199",
      "geometry": {
        "type": "Point",
        "coordinates": [
          17.21511,
          -33.661247
        ]
      },
      "properties": {
        "label": "Early retirement",
        "level": 4,
        "pos": "2499469.4460886754,-15992982.172683178",
        "src_id": "175554",
        "weight": "0.00013354200735926782"
      }
    },
    {
      "type": "Feature",
      "id": "1194",
      "geometry": {
        "type": "Point",
        "coordinates": [
          13.093772,
          -34.598289
        ]
      },
      "properties": {
        "label": "Elder abuse",
        "level": 4,
        "pos": "1312193.7106631058,-16472021.490888117",
        "src_id": "175647",
        "weight": "0.00013227410260549432"
      }
    },
    {
      "type": "Feature",
      "id": "1182",
      "geometry": {
        "type": "Point",
        "coordinates": [
          12.304239,
          -32.68888
        ]
      },
      "properties": {
        "label": "Endocarditis",
        "level": 4,
        "pos": "1084745.0800858326,-15501367.875882192",
        "src_id": "175857",
        "weight": "0.00013227410260549432"
      }
    },
    {
      "type": "Feature",
      "id": "1179",
      "geometry": {
        "type": "Point",
        "coordinates": [
          17.225039,
          -32.91079
        ]
      },
      "properties": {
        "label": "Ephelides",
        "level": 4,
        "pos": "2502329.7084060595,-15613084.024087718",
        "src_id": "176056",
        "weight": "0.00013354200735926782"
      }
    },
    {
      "type": "Feature",
      "id": "1178",
      "geometry": {
        "type": "Point",
        "coordinates": [
          17.079827,
          -33.423672
        ]
      },
      "properties": {
        "label": "Epidermal naevus",
        "level": 4,
        "pos": "2460497.0223047906,-15872362.581774343",
        "src_id": "176065",
        "weight": "0.00013227410260549432"
      }
    },
    {
      "type": "Feature",
      "id": "1167",
      "geometry": {
        "type": "Point",
        "coordinates": [
          13.952018,
          -31.952536
        ]
      },
      "properties": {
        "label": "Facial pain",
        "level": 4,
        "pos": "1559437.4442983046,-15132640.370333359",
        "src_id": "176491",
        "weight": "0.00013227410260549432"
      }
    },
    {
      "type": "Feature",
      "id": "1148",
      "geometry": {
        "type": "Point",
        "coordinates": [
          16.595108,
          -34.204248
        ]
      },
      "properties": {
        "label": "Foetal monitoring",
        "level": 4,
        "pos": "2320859.050175952,-16269929.911014717",
        "src_id": "176809",
        "weight": "0.00013227410260549432"
      }
    },
    {
      "type": "Feature",
      "id": "1145",
      "geometry": {
        "type": "Point",
        "coordinates": [
          11.813719,
          -32.495996
        ]
      },
      "properties": {
        "label": "Foot deformity",
        "level": 4,
        "pos": "943435.9377110051,-15404489.912244976",
        "src_id": "176849",
        "weight": "0.00013227410260549432"
      }
    },
    {
      "type": "Feature",
      "id": "1132",
      "geometry": {
        "type": "Point",
        "coordinates": [
          16.248122,
          -31.911064
        ]
      },
      "properties": {
        "label": "Gene sequencing",
        "level": 4,
        "pos": "2220899.4347501956,-15111961.465409042",
        "src_id": "177266",
        "weight": "0.00013354200735926782"
      }
    },
    {
      "type": "Feature",
      "id": "1067",
      "geometry": {
        "type": "Point",
        "coordinates": [
          15.732784,
          -32.025595
        ]
      },
      "properties": {
        "label": "Hypervigilance",
        "level": 4,
        "pos": "2072440.6468801699,-15169091.426616741",
        "src_id": "178551",
        "weight": "0.00013354200735926782"
      }
    },
    {
      "type": "Feature",
      "id": "1050",
      "geometry": {
        "type": "Point",
        "coordinates": [
          12.56161,
          -34.018268
        ]
      },
      "properties": {
        "label": "Immune system disorder",
        "level": 4,
        "pos": "1158888.425308917,-16174875.239290338",
        "src_id": "178763",
        "weight": "0.00013227410260549432"
      }
    },
    {
      "type": "Feature",
      "id": "1047",
      "geometry": {
        "type": "Point",
        "coordinates": [
          13.088239,
          -32.270294
        ]
      },
      "properties": {
        "label": "Impatience",
        "level": 4,
        "pos": "1310599.7284683816,-15291391.371035447",
        "src_id": "178801",
        "weight": "0.00013227410260549432"
      }
    },
    {
      "type": "Feature",
      "id": "1038",
      "geometry": {
        "type": "Point",
        "coordinates": [
          16.576067,
          -34.203236
        ]
      },
      "properties": {
        "label": "Influenza immunisation",
        "level": 4,
        "pos": "2315373.9036196,-16269412.076497348",
        "src_id": "179013",
        "weight": "0.00013227410260549432"
      }
    },
    {
      "type": "Feature",
      "id": "1027",
      "geometry": {
        "type": "Point",
        "coordinates": [
          12.022354,
          -34.179487
        ]
      },
      "properties": {
        "label": "Ischaemia",
        "level": 4,
        "pos": "1003539.6238369419,-16257262.669680772",
        "src_id": "179440",
        "weight": "0.00013354200735926782"
      }
    },
    {
      "type": "Feature",
      "id": "1024",
      "geometry": {
        "type": "Point",
        "coordinates": [
          14.334585,
          -32.016683
        ]
      },
      "properties": {
        "label": "Jaw fracture",
        "level": 4,
        "pos": "1669647.4375878957,-15164643.402680296",
        "src_id": "179478",
        "weight": "0.00013354200735926782"
      }
    },
    {
      "type": "Feature",
      "id": "992",
      "geometry": {
        "type": "Point",
        "coordinates": [
          16.728818,
          -31.81531
        ]
      },
      "properties": {
        "label": "Logorrhoea",
        "level": 4,
        "pos": "2359378.3455728046,-15064252.4976919",
        "src_id": "180113",
        "weight": "0.0001360778168668148"
      }
    },
    {
      "type": "Feature",
      "id": "987",
      "geometry": {
        "type": "Point",
        "coordinates": [
          16.539618,
          -34.213616
        ]
      },
      "properties": {
        "label": "Lung infection",
        "level": 4,
        "pos": "2304873.6835242882,-16274723.557998491",
        "src_id": "180195",
        "weight": "0.00013227410260549432"
      }
    },
    {
      "type": "Feature",
      "id": "974",
      "geometry": {
        "type": "Point",
        "coordinates": [
          13.80343,
          -31.869383
        ]
      },
      "properties": {
        "label": "Medication error",
        "level": 4,
        "pos": "1516632.2184957233,-15091188.005927304",
        "src_id": "180661",
        "weight": "0.00013354200735926782"
      }
    },
    {
      "type": "Feature",
      "id": "973",
      "geometry": {
        "type": "Point",
        "coordinates": [
          15.010601,
          -31.729705
        ]
      },
      "properties": {
        "label": "Melanodermia",
        "level": 4,
        "pos": "1864394.223012192,-15021641.705862047",
        "src_id": "180686",
        "weight": "0.0001360778168668148"
      }
    },
    {
      "type": "Feature",
      "id": "968",
      "geometry": {
        "type": "Point",
        "coordinates": [
          17.250483,
          -33.567537
        ]
      },
      "properties": {
        "label": "Meningitis viral",
        "level": 4,
        "pos": "2509659.533921163,-15945364.740498884",
        "src_id": "180740",
        "weight": "0.0001348099121130413"
      }
    },
    {
      "type": "Feature",
      "id": "964",
      "geometry": {
        "type": "Point",
        "coordinates": [
          16.127439,
          -34.491463
        ]
      },
      "properties": {
        "label": "Mental disability",
        "level": 4,
        "pos": "2186132.866376122,-16417139.70839128",
        "src_id": "180779",
        "weight": "0.00013354200735926782"
      }
    },
    {
      "type": "Feature",
      "id": "951",
      "geometry": {
        "type": "Point",
        "coordinates": [
          11.662229,
          -32.774187
        ]
      },
      "properties": {
        "label": "Moderate mental retardation",
        "level": 4,
        "pos": "899794.6013786908,-15544281.018367529",
        "src_id": "181067",
        "weight": "0.00013227410260549432"
      }
    },
    {
      "type": "Feature",
      "id": "947",
      "geometry": {
        "type": "Point",
        "coordinates": [
          16.492687,
          -32.165286
        ]
      },
      "properties": {
        "label": "Morose",
        "level": 4,
        "pos": "2291353.690001339,-15238868.735493736",
        "src_id": "181127",
        "weight": "0.00013354200735926782"
      }
    },
    {
      "type": "Feature",
      "id": "944",
      "geometry": {
        "type": "Point",
        "coordinates": [
          12.23276,
          -32.094565
        ]
      },
      "properties": {
        "label": "Multiple allergies",
        "level": 4,
        "pos": "1064153.3485894923,-15203529.635428084",
        "src_id": "181196",
        "weight": "0.00013227410260549432"
      }
    },
    {
      "type": "Feature",
      "id": "923",
      "geometry": {
        "type": "Point",
        "coordinates": [
          12.815132,
          -32.276105
        ]
      },
      "properties": {
        "label": "Neck surgery",
        "level": 4,
        "pos": "1231923.0867146715,-15294300.039248846",
        "src_id": "181555",
        "weight": "0.00013227410260549432"
      }
    },
    {
      "type": "Feature",
      "id": "920",
      "geometry": {
        "type": "Point",
        "coordinates": [
          13.021489,
          -32.008718
        ]
      },
      "properties": {
        "label": "Neonatal asphyxia",
        "level": 4,
        "pos": "1291370.370738878,-15160668.564713143",
        "src_id": "181597",
        "weight": "0.00013227410260549432"
      }
    },
    {
      "type": "Feature",
      "id": "898",
      "geometry": {
        "type": "Point",
        "coordinates": [
          12.346683,
          -32.485108
        ]
      },
      "properties": {
        "label": "Obsessive-compulsive disorder",
        "level": 4,
        "pos": "1096972.2286982723,-15399027.242417302",
        "src_id": "181988",
        "weight": "0.00013227410260549432"
      }
    },
    {
      "type": "Feature",
      "id": "889",
      "geometry": {
        "type": "Point",
        "coordinates": [
          16.699351,
          -34.188909
        ]
      },
      "properties": {
        "label": "Open fracture",
        "level": 4,
        "pos": "2350889.4044028856,-16262082.429673856",
        "src_id": "182234",
        "weight": "0.00013227410260549432"
      }
    },
    {
      "type": "Feature",
      "id": "872",
      "geometry": {
        "type": "Point",
        "coordinates": [
          15.83251,
          -31.669851
        ]
      },
      "properties": {
        "label": "Oxygen saturation",
        "level": 4,
        "pos": "2101169.655477147,-14991872.133927185",
        "src_id": "182603",
        "weight": "0.00013227410260549432"
      }
    },
    {
      "type": "Feature",
      "id": "867",
      "geometry": {
        "type": "Point",
        "coordinates": [
          12.984265,
          -34.379737
        ]
      },
      "properties": {
        "label": "Paraplegia",
        "level": 4,
        "pos": "1280647.1295513562,-16359815.468144793",
        "src_id": "182836",
        "weight": "0.0001348099121130413"
      }
    },
    {
      "type": "Feature",
      "id": "864",
      "geometry": {
        "type": "Point",
        "coordinates": [
          11.766522,
          -32.811918
        ]
      },
      "properties": {
        "label": "Parosmia",
        "level": 4,
        "pos": "929839.4893037621,-15563274.70473941",
        "src_id": "182907",
        "weight": "0.00013227410260549432"
      }
    },
    {
      "type": "Feature",
      "id": "859",
      "geometry": {
        "type": "Point",
        "coordinates": [
          13.794703,
          -34.599837
        ]
      },
      "properties": {
        "label": "Peripheral coldness",
        "level": 4,
        "pos": "1514118.1604568935,-16472817.354640957",
        "src_id": "183178",
        "weight": "0.0001348099121130413"
      }
    },
    {
      "type": "Feature",
      "id": "857",
      "geometry": {
        "type": "Point",
        "coordinates": [
          13.564144,
          -34.96839
        ]
      },
      "properties": {
        "label": "Peroneal nerve palsy",
        "level": 4,
        "pos": "1447698.5288928098,-16662709.382670825",
        "src_id": "183290",
        "weight": "0.00013354200735926782"
      }
    },
    {
      "type": "Feature",
      "id": "847",
      "geometry": {
        "type": "Point",
        "coordinates": [
          14.881548,
          -34.862395
        ]
      },
      "properties": {
        "label": "Physical disability",
        "level": 4,
        "pos": "1827216.390025226,-16608009.622972714",
        "src_id": "183463",
        "weight": "0.00013354200735926782"
      }
    },
    {
      "type": "Feature",
      "id": "836",
      "geometry": {
        "type": "Point",
        "coordinates": [
          12.46083,
          -33.892641
        ]
      },
      "properties": {
        "label": "Pleurisy",
        "level": 4,
        "pos": "1129855.9154876866,-16110784.99545947",
        "src_id": "183656",
        "weight": "0.00013227410260549432"
      }
    },
    {
      "type": "Feature",
      "id": "835",
      "geometry": {
        "type": "Point",
        "coordinates": [
          11.283434,
          -33.27173
        ]
      },
      "properties": {
        "label": "Pneumonia aspiration",
        "level": 4,
        "pos": "790671.5343203434,-15795392.290377224",
        "src_id": "183688",
        "weight": "0.00013354200735926782"
      }
    },
    {
      "type": "Feature",
      "id": "834",
      "geometry": {
        "type": "Point",
        "coordinates": [
          11.459924,
          -33.564651
        ]
      },
      "properties": {
        "label": "Pneumonia viral",
        "level": 4,
        "pos": "841514.6533189019,-15943899.21615184",
        "src_id": "183717",
        "weight": "0.00013227410260549432"
      }
    },
    {
      "type": "Feature",
      "id": "801",
      "geometry": {
        "type": "Point",
        "coordinates": [
          12.542837,
          -31.831732
        ]
      },
      "properties": {
        "label": "Psoriasis",
        "level": 4,
        "pos": "1153480.23119515,-15072431.090327961",
        "src_id": "184425",
        "weight": "0.00013692308670266377"
      }
    },
    {
      "type": "Feature",
      "id": "790",
      "geometry": {
        "type": "Point",
        "coordinates": [
          11.557821,
          -33.252855
        ]
      },
      "properties": {
        "label": "Rabies",
        "level": 4,
        "pos": "869716.938380075,-15785839.98602128",
        "src_id": "184679",
        "weight": "0.0001348099121130413"
      }
    },
    {
      "type": "Feature",
      "id": "780",
      "geometry": {
        "type": "Point",
        "coordinates": [
          15.660806,
          -34.57454
        ]
      },
      "properties": {
        "label": "Renal failure chronic",
        "level": 4,
        "pos": "2051705.4099738298,-16459814.251740001",
        "src_id": "185037",
        "weight": "0.00013227410260549432"
      }
    },
    {
      "type": "Feature",
      "id": "750",
      "geometry": {
        "type": "Point",
        "coordinates": [
          14.828447,
          -34.657704
        ]
      },
      "properties": {
        "label": "Self-medication",
        "level": 4,
        "pos": "1811919.2142998436,-16502576.281512335",
        "src_id": "185698",
        "weight": "0.00013354200735926782"
      }
    },
    {
      "type": "Feature",
      "id": "748",
      "geometry": {
        "type": "Point",
        "coordinates": [
          13.054985,
          -31.667655
        ]
      },
      "properties": {
        "label": "Sense of oppression",
        "level": 4,
        "pos": "1301019.908402374,-14990780.571120195",
        "src_id": "185736",
        "weight": "0.00013692308670266377"
      }
    },
    {
      "type": "Feature",
      "id": "741",
      "geometry": {
        "type": "Point",
        "coordinates": [
          12.511563,
          -32.088086
        ]
      },
      "properties": {
        "label": "Shoplifting",
        "level": 4,
        "pos": "1144470.8860798385,-15200293.227984084",
        "src_id": "185830",
        "weight": "0.00013227410260549432"
      }
    },
    {
      "type": "Feature",
      "id": "734",
      "geometry": {
        "type": "Point",
        "coordinates": [
          12.226084,
          -34.546303
        ]
      },
      "properties": {
        "label": "Sjogren's syndrome",
        "level": 4,
        "pos": "1062229.9893818442,-16445304.484448018",
        "src_id": "185913",
        "weight": "0.00013227410260549432"
      }
    },
    {
      "type": "Feature",
      "id": "728",
      "geometry": {
        "type": "Point",
        "coordinates": [
          12.854944,
          -31.629831
        ]
      },
      "properties": {
        "label": "Skin test",
        "level": 4,
        "pos": "1243392.1020530905,-14971978.247270893",
        "src_id": "185978",
        "weight": "0.00013227410260549432"
      }
    },
    {
      "type": "Feature",
      "id": "727",
      "geometry": {
        "type": "Point",
        "coordinates": [
          13.915147,
          -34.799658
        ]
      },
      "properties": {
        "label": "Skin wrinkling",
        "level": 4,
        "pos": "1548815.741921008,-16575667.288781952",
        "src_id": "185989",
        "weight": "0.00013354200735926782"
      }
    },
    {
      "type": "Feature",
      "id": "713",
      "geometry": {
        "type": "Point",
        "coordinates": [
          11.603046,
          -33.76586
        ]
      },
      "properties": {
        "label": "Status migrainosus",
        "level": 4,
        "pos": "882745.1282477224,-16046201.268934174",
        "src_id": "186375",
        "weight": "0.00013227410260549432"
      }
    },
    {
      "type": "Feature",
      "id": "712",
      "geometry": {
        "type": "Point",
        "coordinates": [
          11.997883,
          -33.248036
        ]
      },
      "properties": {
        "label": "Sterilisation",
        "level": 4,
        "pos": "996489.8953432669,-15783401.599588461",
        "src_id": "186395",
        "weight": "0.00013945889621021077"
      }
    },
    {
      "type": "Feature",
      "id": "705",
      "geometry": {
        "type": "Point",
        "coordinates": [
          11.944722,
          -33.564781
        ]
      },
      "properties": {
        "label": "Sturge-Weber syndrome",
        "level": 4,
        "pos": "981175.2040347118,-15943965.420120537",
        "src_id": "186484",
        "weight": "0.00013354200735926782"
      }
    },
    {
      "type": "Feature",
      "id": "664",
      "geometry": {
        "type": "Point",
        "coordinates": [
          11.651509,
          -34.105731
        ]
      },
      "properties": {
        "label": "Toxicologic test",
        "level": 4,
        "pos": "896706.4189400643,-16219551.963397717",
        "src_id": "187231",
        "weight": "0.00013354200735926782"
      }
    },
    {
      "type": "Feature",
      "id": "654",
      "geometry": {
        "type": "Point",
        "coordinates": [
          14.744896,
          -34.878468
        ]
      },
      "properties": {
        "label": "Trismus",
        "level": 4,
        "pos": "1787849.9298510358,-16616299.738583697",
        "src_id": "187436",
        "weight": "0.00013227410260549432"
      }
    },
    {
      "type": "Feature",
      "id": "651",
      "geometry": {
        "type": "Point",
        "coordinates": [
          11.227887,
          -32.899626
        ]
      },
      "properties": {
        "label": "Tuberculosis",
        "level": 4,
        "pos": "774669.4907777015,-15607457.058609746",
        "src_id": "187483",
        "weight": "0.0001360778168668148"
      }
    },
    {
      "type": "Feature",
      "id": "645",
      "geometry": {
        "type": "Point",
        "coordinates": [
          11.540333,
          -32.578482
        ]
      },
      "properties": {
        "label": "Urinary hesitation",
        "level": 4,
        "pos": "864678.8272235463,-15445893.826766387",
        "src_id": "187833",
        "weight": "0.00013227410260549432"
      }
    },
    {
      "type": "Feature",
      "id": "638",
      "geometry": {
        "type": "Point",
        "coordinates": [
          11.969976,
          -32.174034
        ]
      },
      "properties": {
        "label": "Vaginismus",
        "level": 4,
        "pos": "988450.4157963218,-15243242.079201961",
        "src_id": "188244",
        "weight": "0.00013227410260549432"
      }
    },
    {
      "type": "Feature",
      "id": "624",
      "geometry": {
        "type": "Point",
        "coordinates": [
          12.75,
          -34.77355
        ]
      },
      "properties": {
        "label": "Visual acuity reduced",
        "level": 4,
        "pos": "1213160.0119123168,-16562214.924412882",
        "src_id": "188582",
        "weight": "0.0001348099121130413"
      }
    },
    {
      "type": "Feature",
      "id": "609",
      "geometry": {
        "type": "Point",
        "coordinates": [
          14.242218,
          -35.059562
        ]
      },
      "properties": {
        "label": "Wrist fracture",
        "level": 4,
        "pos": "1643038.3671742305,-16709815.869816456",
        "src_id": "188907",
        "weight": "0.00013227410260549432"
      }
    },
    {
      "type": "Feature",
      "id": "593",
      "geometry": {
        "type": "Point",
        "coordinates": [
          13.375334,
          -31.642108
        ]
      },
      "properties": {
        "label": "Passer",
        "level": 4,
        "pos": "1393306.1877726668,-14978080.56156182",
        "src_id": "240589",
        "weight": "0.00013227410260549432"
      }
    },
    {
      "type": "Feature",
      "id": "1738",
      "geometry": {
        "type": "Point",
        "coordinates": [
          21.983486,
          -33.130119
        ]
      },
      "properties": {
        "label": "Pancrelipase",
        "level": 4,
        "pos": "3873143.791284533,-15723776.57059497",
        "src_id": "80",
        "weight": "0.00012317421371563892"
      }
    },
    {
      "type": "Feature",
      "id": "7",
      "geometry": {
        "type": "Point",
        "coordinates": [
          14.424751,
          -35.000758
        ]
      },
      "properties": {
        "label": "Anxiety",
        "level": 1,
        "pos": "1695622.5265553636,-16679427.0287792",
        "src_id": "170661",
        "weight": "0.010312381534872536"
      }
    },
    {
      "type": "Feature",
      "id": "1732",
      "geometry": {
        "type": "Point",
        "coordinates": [
          16.649045,
          -33.141432
        ]
      },
      "properties": {
        "label": "Glutamic Acid",
        "level": 4,
        "pos": "2336397.376336075,-15729493.46797775",
        "src_id": "134",
        "weight": "0.00012317421371563892"
      }
    },
    {
      "type": "Feature",
      "id": "1730",
      "geometry": {
        "type": "Point",
        "coordinates": [
          22.015648,
          -33.955197
        ]
      },
      "properties": {
        "label": "Creatine",
        "level": 4,
        "pos": "3882408.996404144,-16142686.658520652",
        "src_id": "140",
        "weight": "0.0001224832358247246"
      }
    },
    {
      "type": "Feature",
      "id": "1724",
      "geometry": {
        "type": "Point",
        "coordinates": [
          16.307727,
          -33.809083
        ]
      },
      "properties": {
        "label": "Phentermine",
        "level": 4,
        "pos": "2238070.489583977,-16068208.92156649",
        "src_id": "182",
        "weight": "0.0001224832358247246"
      }
    },
    {
      "type": "Feature",
      "id": "1722",
      "geometry": {
        "type": "Point",
        "coordinates": [
          17.273066,
          -32.693402
        ]
      },
      "properties": {
        "label": "Erythromycin",
        "level": 4,
        "pos": "2516165.1939926483,-15503641.40718174",
        "src_id": "190",
        "weight": "0.0001224832358247246"
      }
    },
    {
      "type": "Feature",
      "id": "1721",
      "geometry": {
        "type": "Point",
        "coordinates": [
          22.157844,
          -34.289231
        ]
      },
      "properties": {
        "label": "Azithromycin",
        "level": 4,
        "pos": "3923372.6825914336,-16313434.979590824",
        "src_id": "198",
        "weight": "0.0001224832358247246"
      }
    },
    {
      "type": "Feature",
      "id": "1719",
      "geometry": {
        "type": "Point",
        "coordinates": [
          17.06837,
          -32.800496
        ]
      },
      "properties": {
        "label": "Pantoprazole",
        "level": 4,
        "pos": "2457196.401695499,-15557524.153087273",
        "src_id": "204",
        "weight": "0.0001224832358247246"
      }
    },
    {
      "type": "Feature",
      "id": "1716",
      "geometry": {
        "type": "Point",
        "coordinates": [
          17.566216,
          -35.31327
        ]
      },
      "properties": {
        "label": "Temazepam",
        "level": 4,
        "pos": "2600616.139417108,-16841179.637949586",
        "src_id": "222",
        "weight": "0.00012351970266109605"
      }
    },
    {
      "type": "Feature",
      "id": "1714",
      "geometry": {
        "type": "Point",
        "coordinates": [
          19.639948,
          -32.338438
        ]
      },
      "properties": {
        "label": "Cabergoline",
        "level": 4,
        "pos": "3198017.013476122,-15325508.527566174",
        "src_id": "239",
        "weight": "0.0001224832358247246"
      }
    },
    {
      "type": "Feature",
      "id": "6",
      "geometry": {
        "type": "Point",
        "coordinates": [
          20.301069,
          -31.442692
        ]
      },
      "properties": {
        "label": "Levetiracetam",
        "level": 1,
        "pos": "3388472.6857917504,-14879064.97918176",
        "src_id": "1186",
        "weight": "0.010030972226360069"
      }
    },
    {
      "type": "Feature",
      "id": "1704",
      "geometry": {
        "type": "Point",
        "coordinates": [
          19.964416,
          -35.550023
        ]
      },
      "properties": {
        "label": "Methadone",
        "level": 4,
        "pos": "3291489.8082007063,-16964136.329212323",
        "src_id": "323",
        "weight": "0.0001224832358247246"
      }
    },
    {
      "type": "Feature",
      "id": "1697",
      "geometry": {
        "type": "Point",
        "coordinates": [
          16.038458,
          -34.744217
        ]
      },
      "properties": {
        "label": "Clozapine",
        "level": 4,
        "pos": "2160499.2569511873,-16547106.135133734",
        "src_id": "353",
        "weight": "0.0001224832358247246"
      }
    },
    {
      "type": "Feature",
      "id": "1696",
      "geometry": {
        "type": "Point",
        "coordinates": [
          17.004313,
          -33.933316
        ]
      },
      "properties": {
        "label": "Amlodipine",
        "level": 4,
        "pos": "2438743.036378,-16131525.65139277",
        "src_id": "371",
        "weight": "0.0001224832358247246"
      }
    },
    {
      "type": "Feature",
      "id": "1695",
      "geometry": {
        "type": "Point",
        "coordinates": [
          16.71633,
          -34.70588
        ]
      },
      "properties": {
        "label": "Phenylpropanolamine",
        "level": 4,
        "pos": "2355780.809485876,-16527367.7148167",
        "src_id": "386",
        "weight": "0.00012317421371563892"
      }
    },
    {
      "type": "Feature",
      "id": "3",
      "geometry": {
        "type": "Point",
        "coordinates": [
          17.126105,
          -35.22607
        ]
      },
      "properties": {
        "label": "Electroencephalogram",
        "level": 1,
        "pos": "2473828.879308677,-16795983.522791307",
        "src_id": "175720",
        "weight": "0.00973212502859358"
      }
    },
    {
      "type": "Feature",
      "id": "44",
      "geometry": {
        "type": "Point",
        "coordinates": [
          18.510394,
          -35.989793
        ]
      },
      "properties": {
        "label": "Grand mal convulsion",
        "level": 1,
        "pos": "2872615.004207845,-17193497.802068423",
        "src_id": "177516",
        "weight": "0.0079300130694745"
      }
    },
    {
      "type": "Feature",
      "id": "1674",
      "geometry": {
        "type": "Point",
        "coordinates": [
          15.740724,
          -33.494678
        ]
      },
      "properties": {
        "label": "Atropine",
        "level": 4,
        "pos": "2074728.1316718613,-15908378.485291691",
        "src_id": "559",
        "weight": "0.0001224832358247246"
      }
    },
    {
      "type": "Feature",
      "id": "1671",
      "geometry": {
        "type": "Point",
        "coordinates": [
          21.207746,
          -32.793232
        ]
      },
      "properties": {
        "label": "Fluticasone propionate",
        "level": 4,
        "pos": "3649668.3910285537,-15553867.209939687",
        "src_id": "575",
        "weight": "0.0001224832358247246"
      }
    },
    {
      "type": "Feature",
      "id": "1662",
      "geometry": {
        "type": "Point",
        "coordinates": [
          21.174173,
          -34.000627
        ]
      },
      "properties": {
        "label": "Mycophenolate mofetil",
        "level": 4,
        "pos": "3639996.8575922446,-16165869.802394884",
        "src_id": "674",
        "weight": "0.0001224832358247246"
      }
    },
    {
      "type": "Feature",
      "id": "1657",
      "geometry": {
        "type": "Point",
        "coordinates": [
          17.805783,
          -32.533076
        ]
      },
      "properties": {
        "label": "Procaine",
        "level": 4,
        "pos": "2669630.6503051156,-15423097.584235284",
        "src_id": "707",
        "weight": "0.0001224832358247246"
      }
    },
    {
      "type": "Feature",
      "id": "1656",
      "geometry": {
        "type": "Point",
        "coordinates": [
          15.892091,
          -33.53302
        ]
      },
      "properties": {
        "label": "Lisinopril",
        "level": 4,
        "pos": "2118333.7852310874,-15927838.477393586",
        "src_id": "708",
        "weight": "0.00012421068055201034"
      }
    },
    {
      "type": "Feature",
      "id": "1655",
      "geometry": {
        "type": "Point",
        "coordinates": [
          21.279404,
          -34.799569
        ]
      },
      "properties": {
        "label": "Nitroglycerin",
        "level": 4,
        "pos": "3670311.664096784,-16575620.944640806",
        "src_id": "713",
        "weight": "0.0001224832358247246"
      }
    },
    {
      "type": "Feature",
      "id": "1649",
      "geometry": {
        "type": "Point",
        "coordinates": [
          17.876311,
          -35.194896
        ]
      },
      "properties": {
        "label": "Propofol",
        "level": 4,
        "pos": "2689948.3471931783,-16779837.775903683",
        "src_id": "804",
        "weight": "0.0001224832358247246"
      }
    },
    {
      "type": "Feature",
      "id": "1618",
      "geometry": {
        "type": "Point",
        "coordinates": [
          21.810647,
          -33.146123
        ]
      },
      "properties": {
        "label": "Selegiline",
        "level": 4,
        "pos": "3823352.346878771,-15731864.142358286",
        "src_id": "1022",
        "weight": "0.0001224832358247246"
      }
    },
    {
      "type": "Feature",
      "id": "1613",
      "geometry": {
        "type": "Point",
        "coordinates": [
          20.603374,
          -34.139094
        ]
      },
      "properties": {
        "label": "Orlistat",
        "level": 4,
        "pos": "3475560.9925073204,-16236605.946525387",
        "src_id": "1067",
        "weight": "0.00012317421371563892"
      }
    },
    {
      "type": "Feature",
      "id": "1609",
      "geometry": {
        "type": "Point",
        "coordinates": [
          21.37026,
          -34.623796
        ]
      },
      "properties": {
        "label": "Diphenylpyraline",
        "level": 4,
        "pos": "3696485.481757608,-16485135.807333777",
        "src_id": "1130",
        "weight": "0.0001224832358247246"
      }
    },
    {
      "type": "Feature",
      "id": "1608",
      "geometry": {
        "type": "Point",
        "coordinates": [
          19.405862,
          -32.673819
        ]
      },
      "properties": {
        "label": "Naloxone",
        "level": 4,
        "pos": "3130581.4226766443,-15493796.056362113",
        "src_id": "1167",
        "weight": "0.0001224832358247246"
      }
    },
    {
      "type": "Feature",
      "id": "1605",
      "geometry": {
        "type": "Point",
        "coordinates": [
          19.073232,
          -35.161639
        ]
      },
      "properties": {
        "label": "Clarithromycin",
        "level": 4,
        "pos": "3034757.370082123,-16762619.806074737",
        "src_id": "1195",
        "weight": "0.0001224832358247246"
      }
    },
    {
      "type": "Feature",
      "id": "1587",
      "geometry": {
        "type": "Point",
        "coordinates": [
          19.224133,
          -35.589476
        ]
      },
      "properties": {
        "label": "Methamphetamine",
        "level": 4,
        "pos": "3078229.008876186,-16984661.45648405",
        "src_id": "1511",
        "weight": "0.0001224832358247246"
      }
    },
    {
      "type": "Feature",
      "id": "1581",
      "geometry": {
        "type": "Point",
        "coordinates": [
          18.125933,
          -31.849708
        ]
      },
      "properties": {
        "label": "gamma-Aminobutyric acid",
        "level": 4,
        "pos": "2761859.4740818744,-15081385.36366007",
        "src_id": "2399",
        "weight": "0.0001224832358247246"
      }
    },
    {
      "type": "Feature",
      "id": "1577",
      "geometry": {
        "type": "Point",
        "coordinates": [
          17.217664,
          -33.095017
        ]
      },
      "properties": {
        "label": "Butyric Acid",
        "level": 4,
        "pos": "2500205.0428477335,-15706042.39948212",
        "src_id": "3363",
        "weight": "0.0001224832358247246"
      }
    },
    {
      "type": "Feature",
      "id": "1575",
      "geometry": {
        "type": "Point",
        "coordinates": [
          16.762843,
          -33.134945
        ]
      },
      "properties": {
        "label": "Urea",
        "level": 4,
        "pos": "2369180.306355598,-15726215.352371778",
        "src_id": "3677",
        "weight": "0.0001224832358247246"
      }
    },
    {
      "type": "Feature",
      "id": "5",
      "geometry": {
        "type": "Point",
        "coordinates": [
          21.079183,
          -35.699416
        ]
      },
      "properties": {
        "label": "Surgery",
        "level": 1,
        "pos": "3612632.11905686,-17041910.154524475",
        "src_id": "186589",
        "weight": "0.009304016121721907"
      }
    },
    {
      "type": "Feature",
      "id": "1563",
      "geometry": {
        "type": "Point",
        "coordinates": [
          20.663567,
          -34.696892
        ]
      },
      "properties": {
        "label": "Nitrous oxide",
        "level": 4,
        "pos": "3492901.27303569,-16522741.131346807",
        "src_id": "5750",
        "weight": "0.0001224832358247246"
      }
    },
    {
      "type": "Feature",
      "id": "1558",
      "geometry": {
        "type": "Point",
        "coordinates": [
          20.706637,
          -32.927586
        ]
      },
      "properties": {
        "label": "Tyramine",
        "level": 4,
        "pos": "3505308.832111865,-15621550.877438268",
        "src_id": "7811",
        "weight": "0.0001224832358247246"
      }
    },
    {
      "type": "Feature",
      "id": "1550",
      "geometry": {
        "type": "Point",
        "coordinates": [
          17.148781,
          -34.4549
        ]
      },
      "properties": {
        "label": "Ubidecarenone",
        "level": 4,
        "pos": "2480361.3738816213,-16398371.30131361",
        "src_id": "8210",
        "weight": "0.00012317421371563892"
      }
    },
    {
      "type": "Feature",
      "id": "1548",
      "geometry": {
        "type": "Point",
        "coordinates": [
          16.505087,
          -33.12949
        ]
      },
      "properties": {
        "label": "Tianeptine",
        "level": 4,
        "pos": "2294925.742699119,-15723458.590372793",
        "src_id": "8229",
        "weight": "0.0001224832358247246"
      }
    },
    {
      "type": "Feature",
      "id": "1541",
      "geometry": {
        "type": "Point",
        "coordinates": [
          16.927038,
          -33.101421
        ]
      },
      "properties": {
        "label": "Candida albicans",
        "level": 4,
        "pos": "2416481.4717959934,-15709277.393933699",
        "src_id": "8508",
        "weight": "0.00012317421371563892"
      }
    },
    {
      "type": "Feature",
      "id": "1540",
      "geometry": {
        "type": "Point",
        "coordinates": [
          19.131811,
          -35.40953
        ]
      },
      "properties": {
        "label": "Almond",
        "level": 4,
        "pos": "3051632.6879554745,-16891128.519476634",
        "src_id": "8574",
        "weight": "0.00012317421371563892"
      }
    },
    {
      "type": "Feature",
      "id": "1531",
      "geometry": {
        "type": "Point",
        "coordinates": [
          21.402802,
          -34.59758
        ]
      },
      "properties": {
        "label": "Lettuce",
        "level": 4,
        "pos": "3705860.318425051,-16471656.81782852",
        "src_id": "8609",
        "weight": "0.00012317421371563892"
      }
    },
    {
      "type": "Feature",
      "id": "1524",
      "geometry": {
        "type": "Point",
        "coordinates": [
          20.2996,
          -32.692402
        ]
      },
      "properties": {
        "label": "Pineapple",
        "level": 4,
        "pos": "3388049.742307746,-15503138.871308025",
        "src_id": "8628",
        "weight": "0.0001224832358247246"
      }
    },
    {
      "type": "Feature",
      "id": "1522",
      "geometry": {
        "type": "Point",
        "coordinates": [
          16.135479,
          -34.588559
        ]
      },
      "properties": {
        "label": "Sesame seed",
        "level": 4,
        "pos": "2188449.0533534973,-16467019.600322673",
        "src_id": "8635",
        "weight": "0.00012317421371563892"
      }
    },
    {
      "type": "Feature",
      "id": "1516",
      "geometry": {
        "type": "Point",
        "coordinates": [
          16.338893,
          -33.126659
        ]
      },
      "properties": {
        "label": "Blackberry",
        "level": 4,
        "pos": "2247048.6139479014,-15722028.098052887",
        "src_id": "8678",
        "weight": "0.00012421068055201034"
      }
    },
    {
      "type": "Feature",
      "id": "1509",
      "geometry": {
        "type": "Point",
        "coordinates": [
          19.234413,
          -35.109774
        ]
      },
      "properties": {
        "label": "Eggplant",
        "level": 4,
        "pos": "3081190.4384986684,-16735781.931124123",
        "src_id": "8694",
        "weight": "0.0001224832358247246"
      }
    },
    {
      "type": "Feature",
      "id": "1502",
      "geometry": {
        "type": "Point",
        "coordinates": [
          18.10406,
          -35.721004
        ]
      },
      "properties": {
        "label": "Urtica dioica pollen",
        "level": 4,
        "pos": "2755558.146429824,-17053160.86351222",
        "src_id": "8802",
        "weight": "0.0001224832358247246"
      }
    },
    {
      "type": "Feature",
      "id": "1498",
      "geometry": {
        "type": "Point",
        "coordinates": [
          19.18735,
          -35.106346
        ]
      },
      "properties": {
        "label": "Acheta domesticus",
        "level": 4,
        "pos": "3067632.454063534,-16734008.65432731",
        "src_id": "8882",
        "weight": "0.00012490165844292466"
      }
    },
    {
      "type": "Feature",
      "id": "1496",
      "geometry": {
        "type": "Point",
        "coordinates": [
          16.252155,
          -33.472978
        ]
      },
      "properties": {
        "label": "Venison",
        "level": 4,
        "pos": "2222061.210388914,-15897368.288701274",
        "src_id": "8931",
        "weight": "0.0001224832358247246"
      }
    },
    {
      "type": "Feature",
      "id": "1490",
      "geometry": {
        "type": "Point",
        "coordinates": [
          16.444977,
          -33.219894
        ]
      },
      "properties": {
        "label": "Chlorine",
        "level": 4,
        "pos": "2277609.4179529413,-15769164.369062671",
        "src_id": "9054",
        "weight": "0.00012939301473386755"
      }
    },
    {
      "type": "Feature",
      "id": "1487",
      "geometry": {
        "type": "Point",
        "coordinates": [
          16.777964,
          -33.594815
        ]
      },
      "properties": {
        "label": "Silicon dioxide",
        "level": 4,
        "pos": "2373536.1791846803,-15959220.316606078",
        "src_id": "9077",
        "weight": "0.0001224832358247246"
      }
    },
    {
      "type": "Feature",
      "id": "1478",
      "geometry": {
        "type": "Point",
        "coordinates": [
          16.313764,
          -34.331048
        ]
      },
      "properties": {
        "label": "Creatinine",
        "level": 4,
        "pos": "2239809.4916326487,-16334858.223709576",
        "src_id": "9515",
        "weight": "0.0001224832358247246"
      }
    },
    {
      "type": "Feature",
      "id": "1477",
      "geometry": {
        "type": "Point",
        "coordinates": [
          16.240366,
          -34.001367
        ]
      },
      "properties": {
        "label": "Gadolinium",
        "level": 4,
        "pos": "2218664.9950729036,-16166247.408329826",
        "src_id": "9755",
        "weight": "0.0001224832358247246"
      }
    },
    {
      "type": "Feature",
      "id": "1475",
      "geometry": {
        "type": "Point",
        "coordinates": [
          22.143179,
          -34.43543
        ]
      },
      "properties": {
        "label": "Theanine",
        "level": 4,
        "pos": "3919148.038303487,-16388380.423115516",
        "src_id": "10098",
        "weight": "0.0001224832358247246"
      }
    },
    {
      "type": "Feature",
      "id": "1474",
      "geometry": {
        "type": "Point",
        "coordinates": [
          16.439841,
          -33.156109
        ]
      },
      "properties": {
        "label": "Ozone",
        "level": 4,
        "pos": "2276129.795518264,-15736911.473384682",
        "src_id": "10159",
        "weight": "0.00012351970266109605"
      }
    },
    {
      "type": "Feature",
      "id": "1472",
      "geometry": {
        "type": "Point",
        "coordinates": [
          20.995904,
          -34.428412
        ]
      },
      "properties": {
        "label": "Passiflora incarnata flower",
        "level": 4,
        "pos": "3588640.8738514185,-16384780.076278824",
        "src_id": "11006",
        "weight": "0.00012351970266109605"
      }
    },
    {
      "type": "Feature",
      "id": "1465",
      "geometry": {
        "type": "Point",
        "coordinates": [
          20.048954,
          -32.196741
        ]
      },
      "properties": {
        "label": "Accident at work",
        "level": 4,
        "pos": "3315843.616068249,-15254595.638892436",
        "src_id": "169614",
        "weight": "0.00012317421371563892"
      }
    },
    {
      "type": "Feature",
      "id": "1464",
      "geometry": {
        "type": "Point",
        "coordinates": [
          17.501086,
          -32.033096
        ]
      },
      "properties": {
        "label": "Accidental death",
        "level": 4,
        "pos": "2581853.259953474,-15172835.50217347",
        "src_id": "169615",
        "weight": "0.0001224832358247246"
      }
    },
    {
      "type": "Feature",
      "id": "1463",
      "geometry": {
        "type": "Point",
        "coordinates": [
          21.538589,
          -34.696814
        ]
      },
      "properties": {
        "label": "Accidental overdose",
        "level": 4,
        "pos": "3744977.7024153434,-16522701.284405492",
        "src_id": "169618",
        "weight": "0.0001224832358247246"
      }
    },
    {
      "type": "Feature",
      "id": "1457",
      "geometry": {
        "type": "Point",
        "coordinates": [
          16.998187,
          -32.539649
        ]
      },
      "properties": {
        "label": "Adverse drug reaction",
        "level": 4,
        "pos": "2436978.043436904,-15426396.631753977",
        "src_id": "169884",
        "weight": "0.0001224832358247246"
      }
    },
    {
      "type": "Feature",
      "id": "1451",
      "geometry": {
        "type": "Point",
        "coordinates": [
          19.554103,
          -35.338602
        ]
      },
      "properties": {
        "label": "Airway complication of anaesthesia",
        "level": 4,
        "pos": "3173286.641127769,-16854318.272739213",
        "src_id": "169923",
        "weight": "0.0001224832358247246"
      }
    },
    {
      "type": "Feature",
      "id": "1443",
      "geometry": {
        "type": "Point",
        "coordinates": [
          16.510935,
          -33.221033
        ]
      },
      "properties": {
        "label": "Allergy to animal",
        "level": 4,
        "pos": "2296610.5265949,-15769740.289852152",
        "src_id": "170012",
        "weight": "0.00012317421371563892"
      }
    },
    {
      "type": "Feature",
      "id": "1424",
      "geometry": {
        "type": "Point",
        "coordinates": [
          18.150921,
          -32.37212
        ]
      },
      "properties": {
        "label": "Anoxia",
        "level": 4,
        "pos": "2769057.839291941,-15342380.921680896",
        "src_id": "170458",
        "weight": "0.0001224832358247246"
      }
    },
    {
      "type": "Feature",
      "id": "1417",
      "geometry": {
        "type": "Point",
        "coordinates": [
          19.951313,
          -32.505754
        ]
      },
      "properties": {
        "label": "Apparent death",
        "level": 4,
        "pos": "3287715.160041836,-15409385.906132268",
        "src_id": "170770",
        "weight": "0.00012421068055201034"
      }
    },
    {
      "type": "Feature",
      "id": "1406",
      "geometry": {
        "type": "Point",
        "coordinates": [
          18.594967,
          -35.562755
        ]
      },
      "properties": {
        "label": "Aspiration",
        "level": 4,
        "pos": "2896978.834603704,-16970758.868654635",
        "src_id": "171004",
        "weight": "0.00012490165844292466"
      }
    },
    {
      "type": "Feature",
      "id": "1401",
      "geometry": {
        "type": "Point",
        "coordinates": [
          18.611339,
          -35.454043
        ]
      },
      "properties": {
        "label": "Atrial fibrillation",
        "level": 4,
        "pos": "2901695.082935926,-16914245.960445825",
        "src_id": "171069",
        "weight": "0.00012351970266109605"
      }
    },
    {
      "type": "Feature",
      "id": "1393",
      "geometry": {
        "type": "Point",
        "coordinates": [
          16.269184,
          -33.587867
        ]
      },
      "properties": {
        "label": "Autonomic neuropathy",
        "level": 4,
        "pos": "2226967.0215450604,-15955691.043744572",
        "src_id": "171160",
        "weight": "0.00012317421371563892"
      }
    },
    {
      "type": "Feature",
      "id": "1386",
      "geometry": {
        "type": "Point",
        "coordinates": [
          17.864621,
          -34.930279
        ]
      },
      "properties": {
        "label": "Ballismus",
        "level": 4,
        "pos": "2686580.4915814213,-16643033.973892333",
        "src_id": "171248",
        "weight": "0.0001224832358247246"
      }
    },
    {
      "type": "Feature",
      "id": "1380",
      "geometry": {
        "type": "Point",
        "coordinates": [
          16.385915,
          -34.654404
        ]
      },
      "properties": {
        "label": "Benign familial neonatal convulsions",
        "level": 4,
        "pos": "2260594.7069009035,-16500878.829606278",
        "src_id": "171356",
        "weight": "0.0001224832358247246"
      }
    },
    {
      "type": "Feature",
      "id": "1375",
      "geometry": {
        "type": "Point",
        "coordinates": [
          21.223953,
          -34.541558
        ]
      },
      "properties": {
        "label": "Biopsy liver",
        "level": 4,
        "pos": "3654337.379060026,-16442866.777560186",
        "src_id": "171638",
        "weight": "0.00012317421371563892"
      }
    },
    {
      "type": "Feature",
      "id": "1373",
      "geometry": {
        "type": "Point",
        "coordinates": [
          21.121624,
          -34.803576
        ]
      },
      "properties": {
        "label": "Biopsy skin",
        "level": 4,
        "pos": "3624858.376526396,-16577686.008518139",
        "src_id": "171706",
        "weight": "0.0001224832358247246"
      }
    },
    {
      "type": "Feature",
      "id": "1357",
      "geometry": {
        "type": "Point",
        "coordinates": [
          20.040889,
          -35.018316
        ]
      },
      "properties": {
        "label": "Blood magnesium",
        "level": 4,
        "pos": "3313520.229889786,-16688498.661227025",
        "src_id": "172259",
        "weight": "0.0001224832358247246"
      }
    },
    {
      "type": "Feature",
      "id": "1350",
      "geometry": {
        "type": "Point",
        "coordinates": [
          16.883604,
          -32.446223
        ]
      },
      "properties": {
        "label": "Bone densitometry",
        "level": 4,
        "pos": "2403969.2147501674,-15379524.45321061",
        "src_id": "172466",
        "weight": "0.0001224832358247246"
      }
    },
    {
      "type": "Feature",
      "id": "1348",
      "geometry": {
        "type": "Point",
        "coordinates": [
          17.268643,
          -32.72635
        ]
      },
      "properties": {
        "label": "Bone marrow transplant",
        "level": 4,
        "pos": "2514891.1853157366,-15520212.034891356",
        "src_id": "172516",
        "weight": "0.0001224832358247246"
      }
    },
    {
      "type": "Feature",
      "id": "1335",
      "geometry": {
        "type": "Point",
        "coordinates": [
          22.477441,
          -33.934225
        ]
      },
      "properties": {
        "label": "Breast mass",
        "level": 4,
        "pos": "4015442.2511421824,-16131989.009744313",
        "src_id": "172684",
        "weight": "0.0001224832358247246"
      }
    },
    {
      "type": "Feature",
      "id": "1326",
      "geometry": {
        "type": "Point",
        "coordinates": [
          18.360231,
          -32.431236
        ]
      },
      "properties": {
        "label": "Caffeine consumption",
        "level": 4,
        "pos": "2829355.920538279,-15372009.660329133",
        "src_id": "172877",
        "weight": "0.0001224832358247246"
      }
    },
    {
      "type": "Feature",
      "id": "1322",
      "geometry": {
        "type": "Point",
        "coordinates": [
          17.365591,
          -32.523411
        ]
      },
      "properties": {
        "label": "Cardiac ablation",
        "level": 4,
        "pos": "2542820.0718909986,-15418246.588179369",
        "src_id": "173015",
        "weight": "0.0001224832358247246"
      }
    },
    {
      "type": "Feature",
      "id": "1308",
      "geometry": {
        "type": "Point",
        "coordinates": [
          18.320038,
          -32.378645
        ]
      },
      "properties": {
        "label": "Cerebral haemorrhage",
        "level": 4,
        "pos": "2817777.2086414974,-15345650.710213425",
        "src_id": "173375",
        "weight": "0.0001224832358247246"
      }
    },
    {
      "type": "Feature",
      "id": "1274",
      "geometry": {
        "type": "Point",
        "coordinates": [
          17.263854,
          -34.908398
        ]
      },
      "properties": {
        "label": "Complex regional pain syndrome",
        "level": 4,
        "pos": "2513511.4533756794,-16631741.426160505",
        "src_id": "174012",
        "weight": "0.00012317421371563892"
      }
    },
    {
      "type": "Feature",
      "id": "1272",
      "geometry": {
        "type": "Point",
        "coordinates": [
          16.051814,
          -34.364784
        ]
      },
      "properties": {
        "label": "Compression fracture",
        "level": 4,
        "pos": "2164347.0032131346,-16352149.020427",
        "src_id": "174029",
        "weight": "0.0001224832358247246"
      }
    },
    {
      "type": "Feature",
      "id": "1222",
      "geometry": {
        "type": "Point",
        "coordinates": [
          18.109528,
          -32.256024
        ]
      },
      "properties": {
        "label": "Drug hypersensitivity",
        "level": 4,
        "pos": "2757133.358744248,-15284250.55393731",
        "src_id": "175372",
        "weight": "0.00012317421371563892"
      }
    },
    {
      "type": "Feature",
      "id": "1213",
      "geometry": {
        "type": "Point",
        "coordinates": [
          21.114893,
          -34.757246
        ]
      },
      "properties": {
        "label": "Dry throat",
        "level": 4,
        "pos": "3622919.3018350773,-16553816.244457738",
        "src_id": "175423",
        "weight": "0.00012317421371563892"
      }
    },
    {
      "type": "Feature",
      "id": "1211",
      "geometry": {
        "type": "Point",
        "coordinates": [
          16.172756,
          -33.735997
        ]
      },
      "properties": {
        "label": "Dysaesthesia",
        "level": 4,
        "pos": "2199187.76167871,-16031002.542006636",
        "src_id": "175467",
        "weight": "0.0001224832358247246"
      }
    },
    {
      "type": "Feature",
      "id": "1210",
      "geometry": {
        "type": "Point",
        "coordinates": [
          16.438565,
          -34.572988
        ]
      },
      "properties": {
        "label": "Dyscalculia",
        "level": 4,
        "pos": "2275762.17248449,-16459016.816792578",
        "src_id": "175470",
        "weight": "0.00012351970266109605"
      }
    },
    {
      "type": "Feature",
      "id": "1203",
      "geometry": {
        "type": "Point",
        "coordinates": [
          18.714474,
          -35.608472
        ]
      },
      "properties": {
        "label": "Dysthymic disorder",
        "level": 4,
        "pos": "2931406.2680418347,-16994547.705205765",
        "src_id": "175510",
        "weight": "0.00012317421371563892"
      }
    },
    {
      "type": "Feature",
      "id": "1191",
      "geometry": {
        "type": "Point",
        "coordinates": [
          18.706108,
          -35.438847
        ]
      },
      "properties": {
        "label": "Electrocardiogram normal",
        "level": 4,
        "pos": "2928996.116812481,-16906352.713015996",
        "src_id": "175663",
        "weight": "0.0001224832358247246"
      }
    },
    {
      "type": "Feature",
      "id": "1170",
      "geometry": {
        "type": "Point",
        "coordinates": [
          17.732754,
          -32.287711
        ]
      },
      "properties": {
        "label": "Eye irritation",
        "level": 4,
        "pos": "2648592.1901475578,-15300109.31229163",
        "src_id": "176416",
        "weight": "0.0001224832358247246"
      }
    },
    {
      "type": "Feature",
      "id": "1143",
      "geometry": {
        "type": "Point",
        "coordinates": [
          17.685763,
          -35.193054
        ]
      },
      "properties": {
        "label": "Formication",
        "level": 4,
        "pos": "2635055.0239009,-16778883.93118207",
        "src_id": "176868",
        "weight": "0.00012317421371563892"
      }
    },
    {
      "type": "Feature",
      "id": "1135",
      "geometry": {
        "type": "Point",
        "coordinates": [
          20.968327,
          -35.158797
        ]
      },
      "properties": {
        "label": "Gastric ulcer",
        "level": 4,
        "pos": "3580696.6582607655,-16761148.742209163",
        "src_id": "177111",
        "weight": "0.0001224832358247246"
      }
    },
    {
      "type": "Feature",
      "id": "1134",
      "geometry": {
        "type": "Point",
        "coordinates": [
          17.963112,
          -32.50867
        ]
      },
      "properties": {
        "label": "Gastroenteritis",
        "level": 4,
        "pos": "2714953.8401921354,-15410849.202317713",
        "src_id": "177145",
        "weight": "0.00012317421371563892"
      }
    },
    {
      "type": "Feature",
      "id": "1130",
      "geometry": {
        "type": "Point",
        "coordinates": [
          18.132368,
          -35.365549
        ]
      },
      "properties": {
        "label": "Genetic counselling",
        "level": 4,
        "pos": "2763713.1824938934,-16868299.210181575",
        "src_id": "177279",
        "weight": "0.0001224832358247246"
      }
    },
    {
      "type": "Feature",
      "id": "1122",
      "geometry": {
        "type": "Point",
        "coordinates": [
          18.379796,
          -32.522213
        ]
      },
      "properties": {
        "label": "Gliosis",
        "level": 4,
        "pos": "2834992.251045759,-15417645.164392797",
        "src_id": "177390",
        "weight": "0.0001224832358247246"
      }
    },
    {
      "type": "Feature",
      "id": "1110",
      "geometry": {
        "type": "Point",
        "coordinates": [
          18.922006,
          -32.505916
        ]
      },
      "properties": {
        "label": "Haemorrhagic stroke",
        "level": 4,
        "pos": "2991192.3115451764,-15409467.014268514",
        "src_id": "177707",
        "weight": "0.0001224832358247246"
      }
    },
    {
      "type": "Feature",
      "id": "1101",
      "geometry": {
        "type": "Point",
        "coordinates": [
          20.888186,
          -32.95545
        ]
      },
      "properties": {
        "label": "Heart alternation",
        "level": 4,
        "pos": "3557609.5337202544,-15635600.812247073",
        "src_id": "177794",
        "weight": "0.0001224832358247246"
      }
    },
    {
      "type": "Feature",
      "id": "1092",
      "geometry": {
        "type": "Point",
        "coordinates": [
          20.447772,
          -35.396521
        ]
      },
      "properties": {
        "label": "Hernia",
        "level": 4,
        "pos": "3430734.946998485,-16884374.38222241",
        "src_id": "178084",
        "weight": "0.00012421068055201034"
      }
    },
    {
      "type": "Feature",
      "id": "1087",
      "geometry": {
        "type": "Point",
        "coordinates": [
          18.221366,
          -32.573851
        ]
      },
      "properties": {
        "label": "Hip dysplasia",
        "level": 4,
        "pos": "2789351.846617668,-15443568.109320257",
        "src_id": "178155",
        "weight": "0.0001224832358247246"
      }
    },
    {
      "type": "Feature",
      "id": "1077",
      "geometry": {
        "type": "Point",
        "coordinates": [
          22.156145,
          -34.206518
        ]
      },
      "properties": {
        "label": "Hyperbaric oxygen therapy",
        "level": 4,
        "pos": "3922883.3690394,-16271091.518260466",
        "src_id": "178422",
        "weight": "0.00013181143735206758"
      }
    },
    {
      "type": "Feature",
      "id": "1060",
      "geometry": {
        "type": "Point",
        "coordinates": [
          20.10741,
          -35.127105
        ]
      },
      "properties": {
        "label": "Hypoparathyroidism",
        "level": 4,
        "pos": "3332683.458055215,-16744748.22694658",
        "src_id": "178615",
        "weight": "0.0001224832358247246"
      }
    },
    {
      "type": "Feature",
      "id": "1029",
      "geometry": {
        "type": "Point",
        "coordinates": [
          17.824253,
          -32.420796
        ]
      },
      "properties": {
        "label": "Iron deficiency",
        "level": 4,
        "pos": "2674951.2205080255,-15366775.908898704",
        "src_id": "179432",
        "weight": "0.0001224832358247246"
      }
    },
    {
      "type": "Feature",
      "id": "1026",
      "geometry": {
        "type": "Point",
        "coordinates": [
          16.476354,
          -34.059815
        ]
      },
      "properties": {
        "label": "Ischaemic stroke",
        "level": 4,
        "pos": "2286648.3591807247,-16196092.072559167",
        "src_id": "179451",
        "weight": "0.0001224832358247246"
      }
    },
    {
      "type": "Feature",
      "id": "1012",
      "geometry": {
        "type": "Point",
        "coordinates": [
          16.8223,
          -35.399585
        ]
      },
      "properties": {
        "label": "Laser therapy",
        "level": 4,
        "pos": "2386308.725484294,-16885965.155251835",
        "src_id": "179805",
        "weight": "0.00012317421371563892"
      }
    },
    {
      "type": "Feature",
      "id": "1004",
      "geometry": {
        "type": "Point",
        "coordinates": [
          17.2255,
          -35.167671
        ]
      },
      "properties": {
        "label": "Lice infestation",
        "level": 4,
        "pos": "2502462.5382348467,-16765741.820764156",
        "src_id": "179944",
        "weight": "0.00012421068055201034"
      }
    },
    {
      "type": "Feature",
      "id": "1001",
      "geometry": {
        "type": "Point",
        "coordinates": [
          20.077813,
          -35.414026
        ]
      },
      "properties": {
        "label": "Limb injury",
        "level": 4,
        "pos": "3324157.1380299767,-16893462.640148588",
        "src_id": "179982",
        "weight": "0.0001224832358247246"
      }
    },
    {
      "type": "Feature",
      "id": "999",
      "geometry": {
        "type": "Point",
        "coordinates": [
          15.948488,
          -33.816464
        ]
      },
      "properties": {
        "label": "Lipids",
        "level": 4,
        "pos": "2134580.6911574136,-16071967.910396317",
        "src_id": "180038",
        "weight": "0.00012317421371563892"
      }
    },
    {
      "type": "Feature",
      "id": "998",
      "geometry": {
        "type": "Point",
        "coordinates": [
          17.414768,
          -35.33671
        ]
      },
      "properties": {
        "label": "Lissencephaly",
        "level": 4,
        "pos": "2556986.9303282215,-16853337.116259623",
        "src_id": "180069",
        "weight": "0.00012317421371563892"
      }
    },
    {
      "type": "Feature",
      "id": "983",
      "geometry": {
        "type": "Point",
        "coordinates": [
          21.376402,
          -34.008358
        ]
      },
      "properties": {
        "label": "Magnetic therapy",
        "level": 4,
        "pos": "3698255.011109829,-16169816.070291463",
        "src_id": "180371",
        "weight": "0.0001224832358247246"
      }
    },
    {
      "type": "Feature",
      "id": "978",
      "geometry": {
        "type": "Point",
        "coordinates": [
          16.341493,
          -33.97773
        ]
      },
      "properties": {
        "label": "Mammogram",
        "level": 4,
        "pos": "2247797.6692279074,-16154183.851498459",
        "src_id": "180491",
        "weight": "0.00012351970266109605"
      }
    },
    {
      "type": "Feature",
      "id": "971",
      "geometry": {
        "type": "Point",
        "coordinates": [
          22.066275,
          -33.906502
        ]
      },
      "properties": {
        "label": "Menarche",
        "level": 4,
        "pos": "3896993.4906469416,-16117851.497165782",
        "src_id": "180697",
        "weight": "0.0001224832358247246"
      }
    },
    {
      "type": "Feature",
      "id": "950",
      "geometry": {
        "type": "Point",
        "coordinates": [
          20.957743,
          -32.81116
        ]
      },
      "properties": {
        "label": "Monoplegia",
        "level": 4,
        "pos": "3577647.670838172,-15562892.92157721",
        "src_id": "181113",
        "weight": "0.0001224832358247246"
      }
    },
    {
      "type": "Feature",
      "id": "939",
      "geometry": {
        "type": "Point",
        "coordinates": [
          21.539512,
          -34.203719
        ]
      },
      "properties": {
        "label": "Muscle contractions involuntary",
        "level": 4,
        "pos": "3745243.733453055,-16269659.309027486",
        "src_id": "181239",
        "weight": "0.0001224832358247246"
      }
    },
    {
      "type": "Feature",
      "id": "932",
      "geometry": {
        "type": "Point",
        "coordinates": [
          21.070837,
          -33.328218
        ]
      },
      "properties": {
        "label": "Musculoskeletal chest pain",
        "level": 4,
        "pos": "3610227.723330888,-15823992.308930561",
        "src_id": "181281",
        "weight": "0.0001224832358247246"
      }
    },
    {
      "type": "Feature",
      "id": "925",
      "geometry": {
        "type": "Point",
        "coordinates": [
          19.53084,
          -32.516671
        ]
      },
      "properties": {
        "label": "Neck injury",
        "level": 4,
        "pos": "3166585.070848596,-15414863.894498441",
        "src_id": "181551",
        "weight": "0.0001224832358247246"
      }
    },
    {
      "type": "Feature",
      "id": "918",
      "geometry": {
        "type": "Point",
        "coordinates": [
          17.178619,
          -32.383772
        ]
      },
      "properties": {
        "label": "Nerve compression",
        "level": 4,
        "pos": "2488957.127816405,-15348219.401498716",
        "src_id": "181678",
        "weight": "0.00012317421371563892"
      }
    },
    {
      "type": "Feature",
      "id": "914",
      "geometry": {
        "type": "Point",
        "coordinates": [
          22.164439,
          -34.722872
        ]
      },
      "properties": {
        "label": "Neurofibromatosis",
        "level": 4,
        "pos": "3925272.791512468,-16536114.937375521",
        "src_id": "181728",
        "weight": "0.0001224832358247246"
      }
    },
    {
      "type": "Feature",
      "id": "911",
      "geometry": {
        "type": "Point",
        "coordinates": [
          22.068868,
          -33.804853
        ]
      },
      "properties": {
        "label": "Neuromyopathy",
        "level": 4,
        "pos": "3897740.4728488433,-16066054.767856384",
        "src_id": "181758",
        "weight": "0.00012351970266109605"
      }
    },
    {
      "type": "Feature",
      "id": "908",
      "geometry": {
        "type": "Point",
        "coordinates": [
          19.695874,
          -32.241901
        ]
      },
      "properties": {
        "label": "Neurotoxicity",
        "level": 4,
        "pos": "3214128.0676544043,-15277183.838680122",
        "src_id": "181782",
        "weight": "0.0001224832358247246"
      }
    },
    {
      "type": "Feature",
      "id": "904",
      "geometry": {
        "type": "Point",
        "coordinates": [
          18.035821,
          -35.442932
        ]
      },
      "properties": {
        "label": "No adverse event",
        "level": 4,
        "pos": "2735899.7554843402,-16908474.404886547",
        "src_id": "181851",
        "weight": "0.0001224832358247246"
      }
    },
    {
      "type": "Feature",
      "id": "896",
      "geometry": {
        "type": "Point",
        "coordinates": [
          21.670726,
          -33.949984
        ]
      },
      "properties": {
        "label": "Occipital neuralgia",
        "level": 4,
        "pos": "3783043.783845138,-16140027.355444154",
        "src_id": "182001",
        "weight": "0.00012317421371563892"
      }
    },
    {
      "type": "Feature",
      "id": "894",
      "geometry": {
        "type": "Point",
        "coordinates": [
          21.977166,
          -34.819026
        ]
      },
      "properties": {
        "label": "Oedema mouth",
        "level": 4,
        "pos": "3871323.098469019,-16585649.310733745",
        "src_id": "182064",
        "weight": "0.0001224832358247246"
      }
    },
    {
      "type": "Feature",
      "id": "892",
      "geometry": {
        "type": "Point",
        "coordinates": [
          21.199523,
          -33.268671
        ]
      },
      "properties": {
        "label": "Off label use",
        "level": 4,
        "pos": "3647299.4980933527,-15793844.033299364",
        "src_id": "182190",
        "weight": "0.00012317421371563892"
      }
    },
    {
      "type": "Feature",
      "id": "887",
      "geometry": {
        "type": "Point",
        "coordinates": [
          19.385376,
          -32.388579
        ]
      },
      "properties": {
        "label": "Opisthotonus",
        "level": 4,
        "pos": "3124679.917216956,-15350628.412869876",
        "src_id": "182255",
        "weight": "0.0001224832358247246"
      }
    },
    {
      "type": "Feature",
      "id": "886",
      "geometry": {
        "type": "Point",
        "coordinates": [
          21.15363,
          -32.777805
        ]
      },